timestamp,timestamp_sample,gyro_device_id,gyro_bias[0],gyro_bias[1],gyro_bias[2],gyro_bias_limit,gyro_bias_variance[0],gyro_bias_variance[1],gyro_bias_variance[2],accel_device_id,accel_bias[0],accel_bias[1],accel_bias[2],accel_bias_limit,accel_bias_variance[0],accel_bias_variance[1],accel_bias_variance[2],mag_device_id,mag_bias[0],mag_bias[1],mag_bias[2],mag_bias_limit,mag_bias_variance[0],mag_bias_variance[1],mag_bias_variance[2],gyro_bias_valid,gyro_bias_stable,accel_bias_valid,accel_bias_stable,mag_bias_valid,mag_bias_stable
80175503,80068790,2621474,-0.0022805391,-0.00063884957,0.00069142954,0.15,1.9922454e-07,1.9930405e-07,9.037892e-07,2621474,-0.0031052635,-0.0029881755,-0.014884676,0.4,0.006105498,0.0060996166,2.231711e-05,8944899,-0.043086074,-0.012155884,0.020070955,0.5,0.0012001833,0.00082597707,0.0012514489,1,1,1,0,1,0
81182005,81075229,2621474,-0.0022863094,-0.00063265185,0.00069602777,0.15,1.9971641e-07,1.9979558e-07,9.0721e-07,2621474,-0.003100417,-0.002972482,-0.014765941,0.4,0.0061055673,0.006099691,2.2069506e-05,8944899,-0.043103177,-0.012163564,0.02007895,0.5,0.0012001209,0.0008256617,0.0012514279,1,1,1,0,1,0
82188394,82081807,2621474,-0.0022825233,-0.0006373674,0.00069597375,0.15,2.0055313e-07,2.0063767e-07,9.1785853e-07,2621474,-0.0031051692,-0.0029797086,-0.014715344,0.4,0.0061056428,0.006099767,2.1833715e-05,8944899,-0.043120243,-0.012131091,0.020107722,0.5,0.0012000388,0.00082532805,0.0012513899,1,1,1,0,1,0
83194884,83088151,2621474,-0.0022794139,-0.0006429121,0.000696292,0.15,2.0125344e-07,2.0133999e-07,9.285085e-07,2621474,-0.0031097834,-0.002990002,-0.014702827,0.4,0.0061057196,0.006099844,2.1602635e-05,8944899,-0.04311172,-0.012127033,0.02013037,0.5,0.0011999913,0.00082511245,0.0012513704,1,1,1,0,1,0
84201268,84094563,2621474,-0.0022855476,-0.0006407081,0.00069634395,0.15,2.019181e-07,2.0200575e-07,9.3915304e-07,2621474,-0.0031019775,-0.0029975998,-0.014639252,0.4,0.006105795,0.0060999193,2.1378897e-05,8944899,-0.043149527,-0.012103555,0.02015781,0.5,0.0011999301,0.0008248195,0.0012513465,1,1,1,0,1,0
85208030,85101065,2621474,-0.002287546,-0.0006292266,0.0006963626,0.15,2.0249252e-07,2.0257968e-07,9.4979555e-07,2621474,-0.0030661216,-0.003016805,-0.014528571,0.4,0.0061058644,0.0060999873,2.1161628e-05,8944899,-0.04311577,-0.0120973345,0.020193549,0.5,0.0011998526,0.0008245095,0.0012513176,1,1,1,0,1,0
85822542,85715555,2621474,-0.0022979544,-0.0006238167,0.0006977555,0.15,2.0291898e-07,2.030054e-07,9.562606e-07,2621474,-0.003033798,-0.0030189713,-0.014474336,0.4,0.006105864,0.0061000106,2.1035154e-05,8944899,-0.042569943,-0.011482798,0.020828968,0.5,0.0011983998,0.0008234314,0.0012490833,1,0,1,0,1,0
86172162,86065078,2621474,-0.0023147643,-0.0006272195,0.00069988467,0.15,2.0259418e-07,2.026743e-07,9.599063e-07,2621474,-0.0030433426,-0.0030707992,-0.014391407,0.4,0.0061058486,0.0060999976,2.0948602e-05,8944899,-0.04089487,-0.008965259,0.021229256,0.5,0.0011971802,0.00081886444,0.001240869,1,0,1,0,1,0
86235736,86128720,2621474,-0.0023147652,-0.0006272182,0.0006998847,0.15,2.0326922e-07,2.0334934e-07,9.605812e-07,2621474,-0.0030392879,-0.0030748153,-0.014365472,0.4,0.006105854,0.006100003,2.095225e-05,8944899,-0.0399199,-0.008568114,0.020122088,0.5,0.0011961072,0.0008186739,0.0012396469,1,0,1,0,1,0
86310100,86202853,2621474,-0.0023147664,-0.0006272171,0.0006998848,0.15,2.0405436e-07,2.0413448e-07,9.613663e-07,2621474,-0.0030361374,-0.0030779403,-0.014346169,0.4,0.0061058607,0.0061000097,2.0954205e-05,8944899,-0.0409242,-0.009152516,0.021313414,0.5,0.0011936037,0.00081818184,0.0012367938,1,0,1,0,1,0
86373383,86266373,2621474,-0.0023260454,-0.0006478161,0.00070373074,0.15,2.0270262e-07,2.0277453e-07,9.619782e-07,2621474,-0.0031072372,-0.003174637,-0.014345107,0.4,0.0061058225,0.006099959,2.0907082e-05,8944899,-0.04030631,-0.007781866,0.021271925,0.5,0.0011931611,0.00081628107,0.0012345958,1,0,1,0,1,0
86447556,86340592,2621474,-0.0023260473,-0.000647814,0.00070373074,0.15,2.0348955e-07,2.0356146e-07,9.62765e-07,2621474,-0.003102599,-0.0031792743,-0.014317707,0.4,0.006105829,0.0060999654,2.0911737e-05,8944899,-0.039928716,-0.0087309135,0.019652376,0.5,0.0011926425,0.000813274,0.0012279818,1,0,1,0,1,0
86564457,86457080,2621474,-0.0023445839,-0.00064849824,0.000710048,0.15,2.02664e-07,2.027077e-07,9.636714e-07,2621474,-0.0032336782,-0.0030885322,-0.014305025,0.4,0.006105639,0.006099788,2.0864594e-05,8944899,-0.038926367,-0.009457237,0.019552153,0.5,0.0011897741,0.0008096413,0.001225458,1,0,1,0,1,0
86648798,86541833,2621474,-0.0023445874,-0.00064849475,0.0007100479,0.15,2.035619e-07,2.036056e-07,9.645689e-07,2621474,-0.0032285748,-0.0030932918,-0.0142749315,0.4,0.0061056465,0.0060997955,2.0870262e-05,8944899,-0.037852764,-0.008871079,0.0183379,0.5,0.0011875544,0.00080584316,0.0012200982,1,0,1,0,1,0
86722976,86616024,2621474,-0.002344591,-0.00064849097,0.0007100477,0.15,2.0434828e-07,2.0439198e-07,9.653552e-07,2621474,-0.0032244404,-0.0030964976,-0.014250406,0.4,0.006105653,0.006099802,2.0872241e-05,8944899,-0.038990367,-0.007641244,0.018654397,0.5,0.0011864624,0.0008048702,0.0012185486,1,0,1,0,1,0
86754808,86647735,2621474,-0.0023579139,-0.00066576287,0.0007202254,0.15,2.0266798e-07,2.0269495e-07,9.652147e-07,2621474,-0.0034531804,-0.003274006,-0.014279098,0.4,0.0061053587,0.0060994434,2.0823169e-05,8944899,-0.038680047,-0.008611715,0.018668475,0.5,0.0011860115,0.0008005637,0.0012185473,1,0,1,0,1,0
86860752,86753702,2621474,-0.0023579202,-0.00066575693,0.0007202249,0.15,2.0379088e-07,2.0381785e-07,9.663372e-07,2621474,-0.0034476803,-0.0032770168,-0.0142473355,0.4,0.006105368,0.0060994527,2.0828376e-05,8944899,-0.039169196,-0.0070389365,0.019045902,0.5,0.0011826253,0.00079701806,0.0012128766,1,0,1,0,1,0
86998490,86891454,2621474,-0.0023672725,-0.00067157164,0.0007249946,0.15,2.0326908e-07,2.0328017e-07,9.672814e-07,2621474,-0.0036196886,-0.0033312158,-0.014255852,0.4,0.0061048064,0.006098779,2.0787644e-05,8944899,-0.03805614,-0.0053437613,0.019688828,0.5,0.0011772473,0.00078850624,0.001210329,1,0,1,0,1,0
87062037,86955045,2621474,-0.002367278,-0.0006715671,0.0007249941,0.15,2.0394306e-07,2.0395414e-07,9.679552e-07,2621474,-0.0036161304,-0.0033318514,-0.014234243,0.4,0.006104812,0.0060987845,2.0788837e-05,8944899,-0.039401013,-0.0042797616,0.021165363,0.5,0.0011744624,0.00078462664,0.0012061285,1,0,1,0,1,0
87136200,87029132,2621474,-0.002367278,-0.0006715671,0.0007249939,0.15,2.047272e-07,2.0473828e-07,9.687392e-07,2621474,-0.0036161277,-0.0033318633,-0.014234243,0.4,0.0061048185,0.006098791,2.0793323e-05,8944899,-0.04006445,-0.002897175,0.020780198,0.5,0.0011727874,0.00078261143,0.0012043746,1,0,1,0,1,0
87200083,87092720,2621474,-0.0023845315,-0.00067867414,0.00073027576,0.15,2.0341015e-07,2.0340761e-07,9.691828e-07,2621474,-0.004037835,-0.0034253856,-0.014258317,0.4,0.0061037433,0.0060975845,2.0748274e-05,8944899,-0.039550472,-0.002219762,0.02020882,0.5,0.0011709393,0.0007789226,0.0012037852,1,0,1,0,1,0
87337395,87230430,2621474,-0.0023845385,-0.00067866885,0.00073027477,0.15,2.0486895e-07,2.0486641e-07,9.706413e-07,2621474,-0.0040341048,-0.003424571,-0.014233184,0.4,0.0061037554,0.0060975966,2.0753983e-05,8944899,-0.039269615,-0.0010999028,0.021029219,0.5,0.0011696538,0.0007772284,0.0012024506,1,0,1,0,1,0
87411726,87304623,2621474,-0.0023837148,-0.00067227427,0.00072881713,0.15,2.0360918e-07,2.0362445e-07,9.713369e-07,2621474,-0.0039220247,-0.003206037,-0.014255317,0.4,0.006102084,0.00609584,2.0710173e-05,8944899,-0.038827352,0.0011561406,0.021815453,0.5,0.0011689886,0.0007745378,0.0011997486,1,0,1,0,1,0
87475198,87368174,2621474,-0.0023837213,-0.0006722691,0.0007288165,0.15,2.0428229e-07,2.0429756e-07,9.720098e-07,2621474,-0.003918595,-0.0032039164,-0.014231821,0.4,0.00610209,0.0060958457,2.0711372e-05,8944899,-0.0379754,0.0010157176,0.02262179,0.5,0.0011677666,0.0007737906,0.0011966683,1,0,1,0,1,0
87549788,87442379,2621474,-0.002378699,-0.0006674617,0.00083727745,0.15,2.0503882e-07,2.0505675e-07,9.587948e-07,2621474,-0.0037673668,-0.0034412225,-0.014205547,0.4,0.00610207,0.0060957833,2.0715892e-05,8944899,-0.03297103,-0.0075659575,0.024152892,0.5,0.0011555803,0.0006597193,0.0011949047,1,0,1,0,1,0
87612809,87505924,2621474,-0.0023714195,-0.0006557568,0.0008375629,0.15,2.0363528e-07,2.0366218e-07,9.594368e-07,2621474,-0.0034363437,-0.0030681775,-0.014235128,0.4,0.006100216,0.0060938327,2.067073e-05,8944899,-0.031545673,-0.0069670314,0.024802603,0.5,0.0011531838,0.0006590539,0.0011938103,1,0,1,0,1,0
87676479,87569461,2621474,-0.0023714283,-0.0006557503,0.0008375624,0.15,2.0430811e-07,2.0433501e-07,9.601097e-07,2621474,-0.0034314806,-0.0030630752,-0.014202366,0.4,0.0061002215,0.0060938383,2.0671925e-05,8944899,-0.030435458,-0.0077890493,0.025686527,0.5,0.0011496583,0.0006585573,0.0011897761,1,0,1,0,1,0
87751466,87643652,2621474,-0.0023591723,-0.0006434212,0.00083889504,0.15,2.0302625e-07,2.0307114e-07,9.608306e-07,2621474,-0.0028770794,-0.0026709212,-0.014193995,0.4,0.006098174,0.0060917414,2.0628078e-05,8944899,-0.028215354,-0.007208457,0.027052697,0.5,0.0011451254,0.0006576489,0.0011876563,1,0,1,0,1,0
87888421,87781354,2621474,-0.002359174,-0.0006434202,0.00083889434,0.15,2.0448486e-07,2.0452975e-07,9.622894e-07,2621474,-0.0028758077,-0.0026696022,-0.014186891,0.4,0.006098186,0.0060917535,2.0634068e-05,8944899,-0.023792097,-0.0066262907,0.029661378,0.5,0.0011307338,0.00065652624,0.0011796429,1,0,1,0,1,0
87962532,87855554,2621474,-0.0023492116,-0.00064706063,0.0008416708,0.15,2.0320118e-07,2.032368e-07,9.628845e-07,2621474,-0.0026007912,-0.0027850792,-0.014201961,0.4,0.0060963454,0.0060899174,2.0590034e-05,8944899,-0.019504694,-0.0066346317,0.031220164,0.5,0.001121529,0.00065441127,0.0011748676,1,0,1,0,1,0
88026067,87919045,2621474,-0.0023492125,-0.0006470602,0.0008416705,0.15,2.0387307e-07,2.0390868e-07,9.635562e-07,2621474,-0.0026000715,-0.0027843567,-0.014198427,0.4,0.006096351,0.006089923,2.0591424e-05,8944899,-0.016615061,-0.007501921,0.03185524,0.5,0.0011124436,0.0006533242,0.0011701704,1,0,1,0,1,0
88090412,87982658,2621474,-0.002349215,-0.00064705923,0.0008416703,0.15,2.045475e-07,2.0458312e-07,9.642305e-07,2621474,-0.0025966656,-0.0027818514,-0.014186989,0.4,0.0060963565,0.0060899286,2.0595033e-05,8944899,-0.015489436,-0.0071512964,0.03398961,0.5,0.0011045586,0.00065236236,0.0011667154,1,0,1,0,1,0
88163857,88056894,2621474,-0.002351766,-0.00065348874,0.00084084057,0.15,2.0331456e-07,2.0328594e-07,9.649118e-07,2621474,-0.0028326164,-0.0029182108,-0.014233966,0.4,0.0060943593,0.006088454,2.055085e-05,8944899,-0.012815779,-0.007384695,0.035845775,0.5,0.0010940322,0.0006503961,0.0011580563,1,0,1,0,1,0
88227499,88120394,2621474,-0.0023517667,-0.00065348845,0.00084084057,0.15,2.039866e-07,2.0395798e-07,9.655837e-07,2621474,-0.0028312933,-0.002917379,-0.0142301135,0.4,0.006094364,0.006088459,2.0552243e-05,8944899,-0.0076823076,-0.0070521156,0.03815539,0.5,0.0010812217,0.00064908975,0.0011505053,1,0,1,0,1,0
88301550,88194499,2621474,-0.0023517676,-0.0006534882,0.00084084074,0.15,2.0477113e-07,2.047425e-07,9.66368e-07,2621474,-0.002828353,-0.002916249,-0.014224201,0.4,0.00609437,0.006088465,2.0556845e-05,8944899,-0.004944639,-0.0067429133,0.040660895,0.5,0.0010685818,0.0006474279,0.0011423365,1,0,1,0,1,0
88365104,88258095,2621474,-0.0023457836,-0.0006437744,0.000843205,0.15,2.033475e-07,2.0332655e-07,9.668478e-07,2621474,-0.0024814578,-0.002732865,-0.014236895,0.4,0.006092457,0.0060873274,2.0511492e-05,8944899,-0.003970799,-0.0055749305,0.042731036,0.5,0.0010589425,0.0006440584,0.0011380404,1,0,1,0,1,0
88439625,88332283,2621474,-0.0023457874,-0.0006437744,0.0008432056,0.15,2.0413384e-07,2.041129e-07,9.676339e-07,2621474,-0.0024669748,-0.0027287835,-0.014213384,0.4,0.0060924618,0.0060873334,2.0513893e-05,8944899,-0.005411311,-0.004577933,0.047572535,0.5,0.0010456635,0.00064205925,0.0011267194,1,0,1,0,1,0
88502852,88395810,2621474,-0.0023457895,-0.0006437752,0.00084320636,0.15,2.0480645e-07,2.0478551e-07,9.683064e-07,2621474,-0.0024575312,-0.0027266736,-0.014200568,0.4,0.006092466,0.0060873386,2.051749e-05,8944899,-0.005183036,-0.0034512368,0.05027764,0.5,0.0010365958,0.00064030744,0.0011199225,1,0,1,0,1,0
88555787,88448843,2621474,-0.0022713707,-0.0006879134,0.0009200332,0.15,2.030596e-07,2.0310273e-07,9.67126e-07,2621474,-0.0033333749,-0.007252557,-0.014028956,0.4,0.006083215,0.0060809557,2.0471361e-05,8944899,-0.003431514,-0.009994781,0.04992619,0.5,0.0010356802,0.0006276999,0.0011198592,1,0,1,0,1,0
88577092,88470012,2621474,-0.0022713707,-0.0006879134,0.0009200338,0.15,2.0328368e-07,2.033268e-07,9.673499e-07,2621474,-0.0033333832,-0.0072525325,-0.014028956,0.4,0.006083217,0.006080957,2.0473377e-05,8944899,-0.0074137184,-0.008969195,0.05146023,0.5,0.0010243051,0.0006259393,0.001116244,1,0,1,0,1,0
88640740,88533520,2621474,-0.002271372,-0.00068791455,0.00092003465,0.15,2.0395589e-07,2.0399902e-07,9.680218e-07,2621474,-0.0033276777,-0.007251337,-0.014021805,0.4,0.0060832202,0.0060809613,2.047612e-05,8944899,-0.012387465,-0.007915544,0.051663682,0.5,0.0010159696,0.0006244639,0.0011149333,1,0,1,0,1,0
88714788,88607703,2621474,-0.0022713724,-0.0006879152,0.0009200354,0.15,2.0474207e-07,2.047852e-07,9.688079e-07,2621474,-0.0033260067,-0.0072509837,-0.014019978,0.4,0.006083223,0.006080966,2.047872e-05,8944899,-0.018669218,-0.007824173,0.0509894,0.5,0.0010084272,0.00062304514,0.0011134634,1,0,1,0,1,0
88746425,88639504,2621474,-0.0022373064,-0.0007516764,0.0009762944,0.15,2.0264304e-07,2.026274e-07,9.668172e-07,2621474,-0.010451106,-0.012263195,-0.014023606,0.4,0.006047223,0.006053108,2.0428935e-05,8944899,-0.017292019,-0.012606576,0.050476376,0.5,0.0010072261,0.00060670846,0.0011133462,1,0,1,0,1,0
88778264,88671235,2621474,-0.0022373064,-0.0007516764,0.0009762949,0.15,2.0297865e-07,2.0296302e-07,9.671527e-07,2621474,-0.010451113,-0.0122631695,-0.014023606,0.4,0.006047226,0.00605311,2.0431957e-05,8944899,-0.025736008,-0.013561658,0.04958351,0.5,0.0009970921,0.00060470647,0.0011120143,1,0,1,0,1,0
88852481,88745427,2621474,-0.002237308,-0.00075167965,0.0009762958,0.15,2.0376504e-07,2.0374941e-07,9.67939e-07,2621474,-0.010445787,-0.012261884,-0.01401839,0.4,0.006047228,0.006053116,2.0434356e-05,8944899,-0.03220446,-0.015072376,0.047175407,0.5,0.0009896029,0.0006022575,0.0011105507,1,0,1,0,1,0
88915999,88808968,2621474,-0.0022373088,-0.0007516809,0.00097629643,0.15,2.0443795e-07,2.0442232e-07,9.686117e-07,2621474,-0.0104439035,-0.0122613935,-0.014016621,0.4,0.0060472307,0.0060531218,2.0437967e-05,8944899,-0.03733948,-0.01722279,0.043951675,0.5,0.0009839875,0.0005993215,0.0011082535,1,0,1,0,1,0
88990238,88883131,2621474,-0.002241426,-0.0007587295,0.000974822,0.15,2.0276225e-07,2.0251285e-07,9.676257e-07,2621474,-0.010918061,-0.0116647165,-0.0139223235,0.4,0.005976155,0.005997578,2.0385218e-05,8944899,-0.04337249,-0.0210274,0.039507136,0.5,0.0009775786,0.00058371294,0.0011044951,1,0,1,0,1,0
89053434,88946808,2621474,-0.002241426,-0.0007587295,0.000974822,0.15,2.0343806e-07,2.0318866e-07,9.683016e-07,2621474,-0.010918061,-0.0116647165,-0.0139223235,0.4,0.0059761573,0.0059975837,2.0388927e-05,8944899,0.019748002,-0.11002247,0.045944333,0.5,0.0025000002,0.0025000002,0.0025000002,1,0,1,0,1,0
89127873,89020886,2621474,-0.0022424604,-0.000758347,0.0009834109,0.15,2.0421817e-07,2.0397209e-07,9.688198e-07,2621474,-0.011102618,-0.011369982,-0.013924447,0.4,0.005976035,0.005997278,2.0393469e-05,8944899,-0.021513663,-0.054245826,0.025677208,0.5,0.0016693234,0.0017270054,0.0016675254,1,0,1,0,1,0
89149047,89042102,2621474,-0.0022475314,-0.00074064854,0.0009827093,0.15,2.0202624e-07,2.0140543e-07,9.681889e-07,2621474,-0.0072221486,-0.010109594,-0.013839821,0.4,0.005884058,0.0059249843,2.033701e-05,8944899,-0.021629868,-0.054230224,0.025741478,0.5,0.0016689204,0.0017259865,0.0016674973,1,0,1,0,1,0
89191523,89084428,2621474,-0.0022491917,-0.0007401529,0.0009940428,0.15,2.0246718e-07,2.0185269e-07,9.683129e-07,2621474,-0.0074760774,-0.009682157,-0.013845113,0.4,0.0058838953,0.005924527,2.0338686e-05,8944899,-0.03987448,-0.034933943,0.016933814,0.5,0.0014970512,0.0015509529,0.0015008695,1,0,1,0,1,0
89265662,89158632,2621474,-0.0022508125,-0.00073965796,0.0010050946,0.15,2.0324676e-07,2.0263863e-07,9.687733e-07,2621474,-0.0077094506,-0.009266352,-0.0138502335,0.4,0.0058837524,0.005924071,2.0343328e-05,8944899,-0.04594133,-0.027174296,0.014622534,0.5,0.0014163385,0.0014621406,0.0014293107,1,0,1,0,1,0
89329099,89222160,2621474,-0.002252407,-0.00073916704,0.0010159694,0.15,2.0391253e-07,2.0331063e-07,9.691261e-07,2621474,-0.0079328315,-0.008859462,-0.013855234,0.4,0.005883618,0.0059236283,2.0346863e-05,8944899,-0.05729803,-0.02363594,0.011071746,0.5,0.0013647588,0.0014055521,0.0013889207,1,0,1,0,1,0
89350770,89243343,2621474,-0.0022421097,-0.0006945013,0.0010267764,0.15,2.0184861e-07,2.0094183e-07,9.68964e-07,2621474,8.965714e-06,-0.010165818,-0.013888905,0.4,0.0058008647,0.0058578113,2.029188e-05,8944899,-0.057082668,-0.024142556,0.011226426,0.5,0.0013638806,0.0014047845,0.0013888802,1,0,1,0,1,0
89403403,89296298,2621474,-0.002243738,-0.0006940843,0.0010366538,0.15,2.0240141e-07,2.0150215e-07,9.692285e-07,2621474,-0.00019392376,-0.0097635975,-0.013893812,0.4,0.00580074,0.005857324,2.0294578e-05,8944899,-0.062492114,-0.021383233,0.008926153,0.5,0.0013254769,0.0013627395,0.0013632618,1,0,1,0,1,0
89466943,89359919,2621474,-0.002245259,-0.0006936942,0.001045877,0.15,2.0306878e-07,2.0217628e-07,9.696365e-07,2621474,-0.0003800432,-0.009388484,-0.013898382,0.4,0.0058006314,0.0058568884,2.0298221e-05,8944899,-0.06992876,-0.014206189,0.0071571614,0.5,0.001295292,0.0013307347,0.0013449901,1,0,1,0,1,0
89541045,89434037,2621474,-0.002246673,-0.00069332984,0.001054418,0.15,2.0384661e-07,2.029606e-07,9.701678e-07,2621474,-0.0005470934,-0.009038153,-0.013902636,0.4,0.005800535,0.005856468,2.0302774e-05,8944899,-0.0770214,-0.011350695,0.0051553603,0.5,0.0012664861,0.0013018156,0.0013219112,1,0,1,0,1,0
89551711,89444657,2621474,-0.0022625907,-0.00068924396,0.0010524179,0.15,2.0189316e-07,2.0074788e-07,9.698588e-07,2621474,-0.00032100815,-0.007088202,-0.014031893,0.4,0.005752328,0.005818855,2.0251151e-05,8944899,-0.0772066,-0.011260734,0.0051880823,0.5,0.0012655446,0.0013006666,0.0013218476,1,0,1,0,1,0
89604720,89497615,2621474,-0.0022639944,-0.0006890075,0.0010603516,0.15,2.0244653e-07,2.0130858e-07,9.701786e-07,2621474,-0.00048889784,-0.0067485133,-0.014036034,0.4,0.0057522184,0.0058184173,2.0253861e-05,8944899,-0.079533786,-0.011323749,-0.001194717,0.5,0.0012428203,0.0012779464,0.0013075239,1,0,1,0,1,0
89678765,89571827,2621474,-0.0022653025,-0.00068879547,0.0010677282,0.15,2.0322632e-07,2.0209518e-07,9.707422e-07,2621474,-0.0006346028,-0.0064286757,-0.014035372,0.4,0.005752122,0.0058180103,2.0258529e-05,8944899,-0.085038535,-0.009799019,-0.00046810703,0.5,0.0012249154,0.0012573493,0.0012979339,1,0,1,0,1,0
89742337,89635346,2621474,-0.0022664983,-0.00068859436,0.0010744575,0.15,2.0389234e-07,2.0276744e-07,9.712111e-07,2621474,-0.0007710822,-0.006136556,-0.014038919,0.4,0.0057520363,0.005817631,2.026209e-05,8944899,-0.088552535,-0.0103581585,-0.0010026051,0.5,0.0012083356,0.0012376078,0.0012874044,1,0,1,0,1,0
89816535,89709520,2621474,-0.0022745891,-0.0006916545,0.0010790146,0.15,2.0266825e-07,2.014524e-07,9.710834e-07,2621474,-0.0014401353,-0.0053687305,-0.014120779,0.4,0.005728182,0.0057981582,2.021717e-05,8944899,-0.091825046,-0.0084573245,0.00015069936,0.5,0.001192369,0.0012187032,0.0012803264,1,0,1,0,1,0
89880130,89773085,2621474,-0.0022756169,-0.0006916087,0.001084733,0.15,2.0333628e-07,2.0212578e-07,9.715905e-07,2621474,-0.0015672329,-0.0051161223,-0.014123869,0.4,0.0057280976,0.0057978383,2.022084e-05,8944899,-0.09694741,-0.006734728,-0.0013370535,0.5,0.0011802599,0.0012042153,0.001274669,1,0,1,0,1,0
89954187,89847238,2621474,-0.0022937132,-0.00068954605,0.0010936751,0.15,2.0219034e-07,2.0102269e-07,9.713258e-07,2621474,-0.0018151501,-0.0040160483,-0.01424207,0.4,0.0057168505,0.00578855,2.0177911e-05,8944899,-0.098921135,-0.0041029193,-0.002817514,0.5,0.00116554,0.0011839065,0.001264496,1,0,1,0,1,0
90017824,89910787,2621474,-0.0022945695,-0.0006896237,0.0010985032,0.15,2.0285908e-07,2.0169571e-07,9.718617e-07,2621474,-0.001929207,-0.0037988722,-0.014244743,0.4,0.0057167714,0.0057882764,2.0181653e-05,8944899,-0.10213972,-0.0039669303,-0.0010697803,0.5,0.0011552955,0.0011704752,0.0012581517,1,0,1,0,1,0
90092011,89984988,2621474,-0.0022953823,-0.0006896974,0.0011030784,0.15,2.0364159e-07,2.0248221e-07,9.725203e-07,2621474,-0.0020362632,-0.0035926215,-0.014247279,0.4,0.0057166982,0.0057880213,2.0186359e-05,8944899,-0.10639796,-0.0031703736,-0.004471321,0.5,0.0011467617,0.0011574494,0.0012505896,1,0,1,0,1,0
90155854,90048571,2621474,-0.0023153364,-0.00067380583,0.0011241867,0.15,2.023643e-07,2.0140769e-07,9.720387e-07,2621474,-0.0020335144,-0.0035914232,-0.014245922,0.4,0.005716692,0.005788023,2.0187977e-05,8944899,-0.1044325,-0.0028114284,-0.008261513,0.5,0.001133777,0.0011414024,0.001243897,1,0,1,0,1,0
90230064,90122698,2621474,-0.0023160027,-0.0006739692,0.0011281315,0.15,2.031461e-07,2.0219247e-07,9.727122e-07,2621474,-0.0021257983,-0.0034081887,-0.0142467255,0.4,0.005716623,0.00578779,2.019174e-05,8944899,-0.10682109,-0.0038527583,-0.010480045,0.5,0.0011225938,0.001129116,0.0012354886,1,0,1,0,1,0
90293348,90186226,2621474,-0.0023166381,-0.0006741231,0.0011318884,0.15,2.0381572e-07,2.0286491e-07,9.732798e-07,2621474,-0.0022159996,-0.0032346547,-0.014248865,0.4,0.005716557,0.005787569,2.0195404e-05,8944899,-0.10991066,-0.004251393,-0.011778,0.5,0.001115166,0.0011199866,0.0012316839,1,0,1,0,1,0
90367427,90260361,2621474,-0.0023216135,-0.0006719988,0.0011392692,0.15,2.0257042e-07,2.0203242e-07,9.724757e-07,2621474,-0.002215171,-0.0032342458,-0.014248478,0.4,0.0057165488,0.005787569,2.0196027e-05,8944899,-0.11063227,-0.0019693037,-0.01371578,0.5,0.0011028025,0.0010982915,0.001219031,1,0,1,0,1,0
90431050,90323979,2621474,-0.002322095,-0.0006722148,0.0011425541,0.15,2.0324298e-07,2.0270659e-07,9.730585e-07,2621474,-0.002215171,-0.0032342458,-0.014248478,0.4,0.0057165488,0.005787569,2.0196027e-05,8944899,-0.111873195,-0.0021035373,-0.009484389,0.5,0.0010922503,0.0010869771,0.001204323,1,0,1,0,1,0
90505102,90398120,2621474,-0.0023225534,-0.000672416,0.0011456711,0.15,2.040264e-07,2.034915e-07,9.73759e-07,2621474,-0.002291574,-0.0030846565,-0.014250326,0.4,0.0057165027,0.0057873786,2.020105e-05,8944899,-0.116880625,-0.0017302615,-0.006098792,0.5,0.0010802299,0.0010786231,0.001194306,1,0,1,0,1,0
90568709,90461805,2621474,-0.0023218344,-0.000654628,0.0011543067,0.15,2.0284803e-07,2.0255098e-07,9.738317e-07,2621474,-0.00267269,-0.0030463096,-0.014262058,0.4,0.0057146503,0.0057859067,2.0158686e-05,8944899,-0.12041213,-0.0008948048,-0.0046961415,0.5,0.0010702015,0.0010686839,0.0011874087,1,0,1,0,1,0
90642801,90535866,2621474,-0.002322202,-0.0006548475,0.0011570631,0.15,2.0363031e-07,2.0333412e-07,9.745416e-07,2621474,-0.0027360448,-0.0029085083,-0.014262174,0.4,0.005714602,0.0057857307,2.0163452e-05,8944899,-0.12311995,-0.0012405833,-0.0032552,0.5,0.0010640193,0.0010617098,0.0011843201,1,0,1,0,1,0
90706452,90599443,2621474,-0.0023225532,-0.0006550616,0.0011597036,0.15,2.0430271e-07,2.0400735e-07,9.751449e-07,2621474,-0.0027909502,-0.00277306,-0.014260162,0.4,0.0057145543,0.0057855593,2.016715e-05,8944899,-0.124724105,-0.00081583497,-0.0019535641,0.5,0.0010598566,0.0010544957,0.0011813809,1,0,1,0,1,0
90780613,90673554,2621474,-0.002333507,-0.00067473046,0.0011576038,0.15,2.033292e-07,2.0324552e-07,9.753935e-07,2621474,-0.0027805057,-0.002766648,-0.0142557295,0.4,0.0057145427,0.005785556,2.016674e-05,8944899,-0.12589096,0.0036205812,-0.0017359257,0.5,0.0010546278,0.0010372271,0.0011672946,1,0,1,0,1,0
90844554,90737133,2621474,-0.0023337984,-0.00067495386,0.0011599562,0.15,2.0400192e-07,2.0391865e-07,9.760031e-07,2621474,-0.0028348954,-0.0026463554,-0.014257209,0.4,0.0057145106,0.0057853907,2.0168727e-05,8944899,-0.12710279,0.0044053565,0.002319298,0.5,0.0010503465,0.001030625,0.0011622416,1,0,1,0,1,0
90918327,90811329,2621474,-0.0023340755,-0.0006751687,0.0011621978,0.15,2.0478744e-07,2.0470453e-07,9.767294e-07,2621474,-0.0028841416,-0.0025300886,-0.01425781,0.4,0.0057144566,0.0057852264,2.0171023e-05,8944899,-0.12932605,0.0048170653,0.0029737707,0.5,0.0010461123,0.0010255933,0.0011598729,1,0,1,0,1,0
90981892,90874859,2621474,-0.0023488225,-0.0006747393,0.0011688211,0.15,2.0373541e-07,2.0380546e-07,9.771164e-07,2621474,-0.002930981,-0.002418459,-0.014259171,0.4,0.0057144174,0.005785058,2.0172829e-05,8944899,-0.12977296,0.0077912267,-1.2755895e-07,0.5,0.0010420077,0.0010117803,0.0011480214,1,0,1,0,1,0
91056032,90949014,2621474,-0.0023490505,-0.0006749559,0.0011708328,0.15,2.0452025e-07,2.045904e-07,9.778456e-07,2621474,-0.0029222288,-0.0024125255,-0.014255669,0.4,0.005714409,0.005785057,2.0176623e-05,8944899,-0.13137454,0.00784442,0.0014721972,0.5,0.00103843,0.0010050621,0.0011451576,1,0,1,0,1,0
91119933,91012595,2621474,-0.0023492735,-0.0006751698,0.001172807,0.15,2.0519329e-07,2.0526356e-07,9.784653e-07,2621474,-0.0029555645,-0.0023013074,-0.014253108,0.4,0.0057143704,0.0057849023,2.0178217e-05,8944899,-0.13403392,0.0063580456,0.0009348922,0.5,0.0010353504,0.0009995835,0.0011428805,1,0,1,0,1,0
91151397,91044400,2621474,-0.0023431436,-0.00066330883,0.0011699774,0.15,2.0378043e-07,2.0397101e-07,9.785209e-07,2621474,-0.004391084,-0.0023906399,-0.014350009,0.4,0.005703986,0.005773182,2.0136957e-05,8944899,-0.13416357,0.006480513,0.000927857,0.5,0.0010343562,0.0009985629,0.0011428712,1,0,1,0,1,0
91183181,91076148,2621474,-0.0023433336,-0.00066351844,0.0011718695,0.15,2.0411586e-07,2.0430637e-07,9.788047e-07,2621474,-0.004391084,-0.0023906399,-0.014350009,0.4,0.005703986,0.005773182,2.0136957e-05,8944899,-0.13459747,0.007902612,-0.00086400163,0.5,0.0010314072,0.0009898297,0.0011369936,1,0,1,0,1,0
91257322,91150322,2621474,-0.002343515,-0.00066372316,0.0011736916,0.15,2.049014e-07,2.0509182e-07,9.795407e-07,2621474,-0.004418443,-0.0022825669,-0.01434648,0.4,0.0057039517,0.00577303,2.0139718e-05,8944899,-0.13585632,0.0077839117,0.00041664258,0.5,0.0010286358,0.0009834118,0.0011329554,1,0,1,0,1,0
91320967,91213882,2621474,-0.002343693,-0.0006639178,0.0011754563,0.15,2.0557422e-07,2.0576458e-07,9.801659e-07,2621474,-0.00445353,-0.0021840446,-0.014346463,0.4,0.0057039005,0.0057728747,2.0141022e-05,8944899,-0.13768125,0.007375266,0.0005516063,0.5,0.0010256706,0.0009794122,0.001131772,1,0,1,0,1,0
91352579,91245661,2621474,-0.0023246524,-0.00064908253,0.0011611162,0.15,2.0410238e-07,2.0433227e-07,9.798916e-07,2621474,-0.0060024657,-0.0011256204,-0.014361928,0.4,0.005693595,0.0057600536,2.0100193e-05,8944899,-0.13856967,0.008198096,0.0005204656,0.5,0.0010233113,0.0009773457,0.001131766,1,0,1,0,1,0
91395115,91288088,2621474,-0.0023247956,-0.0006492571,0.0011628144,0.15,2.0455207e-07,2.0478183e-07,9.802966e-07,2621474,-0.00603491,-0.0010254672,-0.014360562,0.4,0.0056935586,0.0057599074,2.010204e-05,8944899,-0.13881414,0.0077148657,0.0017476358,0.5,0.001020277,0.0009721553,0.0011286126,1,0,1,0,1,0
91458613,91351588,2621474,-0.0023249357,-0.0006494253,0.0011644642,0.15,2.052238e-07,2.0545343e-07,9.809258e-07,2621474,-0.0060699456,-0.00093085854,-0.014360638,0.4,0.0056935246,0.0057597687,2.0105808e-05,8944899,-0.14137621,0.0068627517,0.002816678,0.5,0.0010169584,0.00096646533,0.0011244512,1,0,1,0,1,0
91532714,91425752,2621474,-0.0023250652,-0.00064959854,0.0011660572,0.15,2.0600928e-07,2.0623878e-07,9.816698e-07,2621474,-0.006082882,-0.0008232498,-0.014353411,0.4,0.0056934725,0.005759621,2.0108131e-05,8944899,-0.14237054,0.007589091,0.0014611204,0.5,0.0010149302,0.0009625136,0.0011232976,1,0,1,0,1,0
91554520,91446940,2621474,-0.0023199865,-0.00066299253,0.0011696154,0.15,2.0444779e-07,2.0464608e-07,9.813051e-07,2621474,-0.0054339417,0.0002545539,-0.014383903,0.4,0.0056816833,0.005743135,2.00664e-05,8944899,-0.14212967,0.007398916,0.0014542248,0.5,0.0010125871,0.0009605964,0.0011232944,1,0,1,0,1,0
91596409,91489334,2621474,-0.002320099,-0.00066312746,0.0011711437,0.15,2.0489689e-07,2.0509509e-07,9.817152e-07,2621474,-0.0054710344,0.0003421062,-0.014384984,0.4,0.005681647,0.0057429997,2.0068253e-05,8944899,-0.14360501,0.0070069595,0.00160475,0.5,0.0010107341,0.0009572015,0.0011226382,1,0,1,0,1,0
91670407,91563454,2621474,-0.002320207,-0.00066325715,0.0011726071,0.15,2.0568154e-07,2.0587966e-07,9.824619e-07,2621474,-0.005504403,0.00042738495,-0.014385461,0.4,0.0056816135,0.005742869,2.0073054e-05,8944899,-0.14457513,0.007886686,0.0009655232,0.5,0.0010080405,0.0009532339,0.0011173968,1,0,1,0,1,0
91734490,91627049,2621474,-0.0023203073,-0.0006633898,0.0011740191,0.15,2.0635541e-07,2.0655342e-07,9.830985e-07,2621474,-0.005520105,0.0005231237,-0.01438045,0.4,0.005681558,0.0057427245,2.0074403e-05,8944899,-0.14366396,0.009338239,4.6075686e-05,0.5,0.0010040832,0.0009474774,0.0011118383,1,0,1,0,1,0
91744710,91637626,2621474,-0.0023316722,-0.0006611606,0.0011793638,0.15,2.0465268e-07,2.0486652e-07,9.823308e-07,2621474,-0.0058350386,-0.0008970083,-0.014457421,0.4,0.005669029,0.0057266154,2.0032308e-05,8944899,-0.14330386,0.009004836,6.0079677e-05,0.5,0.0010003869,0.0009443538,0.001111831,1,0,1,0,1,0
91808232,91701247,2621474,-0.002331743,-0.0006612709,0.0011807219,0.15,2.0532718e-07,2.0554091e-07,9.829704e-07,2621474,-0.0058579817,-0.0008062565,-0.014454432,0.4,0.005668994,0.005726484,2.0036203e-05,8944899,-0.14517,0.008377215,-0.00039494812,0.5,0.0009988928,0.00094067917,0.0011099651,1,0,1,0,1,0
91945950,91838952,2621474,-0.0023318743,-0.00066148734,0.0011832967,0.15,2.0678569e-07,2.0699922e-07,9.843624e-07,2621474,-0.00588207,-0.00061750575,-0.01444289,0.4,0.0056689023,0.0057262117,2.0042366e-05,8944899,-0.14654401,0.009124094,0.0012549012,0.5,0.0009938827,0.00093256665,0.0011010948,1,0,1,0,1,0
91956457,91849525,2621474,-0.0023317526,-0.00065422966,0.0011799277,0.15,2.0508858e-07,2.0527698e-07,9.836764e-07,2621474,-0.0070304903,-0.0014121889,-0.014550554,0.4,0.0056545828,0.00570688,2.000012e-05,8944899,-0.1467483,0.009316644,0.0012435821,0.5,0.0009905382,0.0009297934,0.0011010886,1,0,1,0,1,0
92010170,91902493,2621474,-0.0023317956,-0.00065431185,0.0011811501,0.15,2.0564967e-07,2.0583796e-07,9.84207e-07,2621474,-0.0070304903,-0.0014121889,-0.014550554,0.4,0.005654566,0.0057068686,2.0001009e-05,8944899,-0.1488377,0.008930816,0.007086667,0.5,0.0009821949,0.0009238395,0.0010908984,1,0,1,0,1,0
92147543,92040241,2621474,-0.0023449434,-0.0006421822,0.0011839103,0.15,2.0537097e-07,2.0552011e-07,9.855071e-07,2621474,-0.007847679,-0.0030520863,-0.014534559,0.4,0.0056366045,0.0056816083,1.9959845e-05,8944899,-0.14961828,0.009072266,0.007583995,0.5,0.00097407517,0.0009134725,0.0010788311,1,0,1,0,1,0
92221398,92114405,2621474,-0.0023449769,-0.0006422554,0.001185038,0.15,2.0615671e-07,2.0630577e-07,9.862651e-07,2621474,-0.00787805,-0.0029810392,-0.014535444,0.4,0.00563657,0.005681488,1.9964755e-05,8944899,-0.15130948,0.007829605,0.007283587,0.5,0.0009729182,0.000910334,0.0010775136,1,0,1,0,1,0
92285087,92178058,2621474,-0.0023450053,-0.000642333,0.0011861289,0.15,2.0683203e-07,2.06981e-07,9.869136e-07,2621474,-0.00788236,-0.0028898127,-0.014528534,0.4,0.0056365114,0.00568135,1.9966337e-05,8944899,-0.15186463,0.007705064,0.0058756024,0.5,0.0009716365,0.0009073342,0.0010754539,1,0,1,0,1,0
92348501,92241522,2621474,-0.002351071,-0.00066012173,0.0011902093,0.15,2.0577602e-07,2.0588237e-07,9.873756e-07,2621474,-0.006377435,-0.003446814,-0.014626226,0.4,0.005614928,0.005653142,1.9924517e-05,8944899,-0.15165518,0.007547321,0.0058689676,0.5,0.0009708799,0.00090670655,0.0010754509,1,0,1,0,1,0
92359133,92252092,2621474,-0.0023510915,-0.00066018896,0.0011912662,0.15,2.0588773e-07,2.0599398e-07,9.874608e-07,2621474,-0.0064060367,-0.0033785081,-0.014627079,0.4,0.0056149093,0.005653032,1.9925506e-05,8944899,-0.15137798,0.008978271,0.004120038,0.5,0.0009695695,0.0008990492,0.0010685251,1,0,1,0,1,0
92422700,92315657,2621474,-0.0023511045,-0.00066026533,0.0011923005,0.15,2.0656113e-07,2.066673e-07,9.881084e-07,2621474,-0.0063896035,-0.0032709672,-0.014614183,0.4,0.005614874,0.005652911,1.9929417e-05,8944899,-0.15240152,0.008646217,0.0046267407,0.5,0.0009685035,0.00089671504,0.0010681107,1,0,1,0,1,0
92561292,92453407,2621474,-0.002351057,-0.0006557955,0.0011924246,0.15,2.0621485e-07,2.0624034e-07,9.891319e-07,2621474,-0.007204363,-0.0035735117,-0.014675437,0.4,0.005597256,0.005626301,1.9892463e-05,8944899,-0.15402973,0.008519294,0.006215959,0.5,0.0009649674,0.00088801543,0.0010622336,1,0,1,0,1,0
92634686,92527597,2621474,-0.002351065,-0.00065584923,0.0011933895,0.15,2.0700116e-07,2.0702659e-07,9.89895e-07,2621474,-0.007204363,-0.0035735117,-0.014675437,0.4,0.005597258,0.0056263027,1.989448e-05,8944899,-0.15643585,0.0062817787,0.007565615,0.5,0.00096245867,0.00088198483,0.0010561659,1,0,1,0,1,0
92698117,92591149,2621474,-0.00235107,-0.00065590587,0.0011943326,0.15,2.0767432e-07,2.0769967e-07,9.905458e-07,2621474,-0.0072118533,-0.003492972,-0.014670663,0.4,0.005597219,0.005626185,1.9897281e-05,8944899,-0.15706465,0.0060293055,0.008393699,0.5,0.00096078153,0.0008786216,0.001053646,1,0,1,0,1,0
92772296,92665304,2621474,-0.0023589088,-0.00067543477,0.0012009344,0.15,2.0668281e-07,2.0663141e-07,9.911403e-07,2621474,-0.0072118533,-0.003492972,-0.014670663,0.4,0.005597219,0.005626185,1.9897281e-05,8944899,-0.15668914,0.006065728,0.009556848,0.5,0.00095954177,0.0008707191,0.0010455064,1,0,1,0,1,0
92835854,92728859,2621474,-0.002358906,-0.00067548634,0.0012018338,0.15,2.0735604e-07,2.0730458e-07,9.917918e-07,2621474,-0.0072118533,-0.003492972,-0.014670663,0.4,0.00559722,0.005626186,1.9898294e-05,8944899,-0.15750396,0.005275566,0.009825641,0.5,0.0009588162,0.00086830073,0.0010452311,1,0,1,0,1,0
92973550,92866577,2621474,-0.002361387,-0.0006867605,0.001207229,0.15,2.0701093e-07,2.0686892e-07,9.929747e-07,2621474,-0.0064740703,-0.0034194682,-0.014724586,0.4,0.005579148,0.005597076,1.9861793e-05,8944899,-0.15697044,0.0066740583,0.009587518,0.5,0.0009567573,0.0008607141,0.0010417585,1,0,1,0,1,0
93047858,92940787,2621474,-0.0023613803,-0.0006868017,0.0012080652,0.15,2.0779767e-07,2.0765562e-07,9.937412e-07,2621474,-0.0064670886,-0.0033312216,-0.014716479,0.4,0.005579083,0.0055969344,1.9864581e-05,8944899,-0.15786894,0.005349934,0.011408261,0.5,0.0009558623,0.00085680286,0.0010390778,1,0,1,0,1,0
93153574,93046810,2621474,-0.0023701303,-0.0006943482,0.0012126258,0.15,2.0709848e-07,2.0686139e-07,9.946222e-07,2621474,-0.0058085043,-0.0041823336,-0.014758313,0.4,0.005561908,0.005568068,1.9827574e-05,8944899,-0.15788876,0.0051993313,0.0113255,0.5,0.000954337,0.0008540365,0.0010387109,1,0,1,0,1,0
93185430,93078467,2621474,-0.0023701198,-0.00069437904,0.0012134273,0.15,2.0743256e-07,2.0719544e-07,9.949371e-07,2621474,-0.0058326265,-0.0041278796,-0.014759002,0.4,0.0055618933,0.0055679823,1.9830564e-05,8944899,-0.15803608,0.0039089285,0.012834987,0.5,0.00095340103,0.00084996363,0.0010359891,1,0,1,0,1,0
93249095,93141988,2621474,-0.0023701093,-0.0006944119,0.0012142196,0.15,2.0810504e-07,2.0786788e-07,9.955909e-07,2621474,-0.0058142697,-0.0041087773,-0.014753941,0.4,0.005561867,0.0055679535,1.9829482e-05,8944899,-0.15881778,0.0028635825,0.0132102,0.5,0.00095230114,0.0008441143,0.0010304396,1,0,1,0,1,0
93460943,93353899,2621474,-0.0023626494,-0.0007032707,0.0012165562,0.15,2.0850317e-07,2.0816287e-07,9.976428e-07,2621474,-0.0058723902,-0.0032338114,-0.014838521,0.4,0.005545714,0.005541119,1.9797788e-05,8944899,-0.16062748,-8.521841e-05,0.015187386,0.5,0.00094932603,0.00083288504,0.0010211657,1,0,1,0,1,0
93524554,93417520,2621474,-0.002362636,-0.00070329744,0.0012172743,0.15,2.091778e-07,2.0883749e-07,9.983011e-07,2621474,-0.005835835,-0.0031941817,-0.014828903,0.4,0.0055456855,0.005541085,1.9799612e-05,8944899,-0.16179371,-0.00056137034,0.014686869,0.5,0.00094804156,0.0008311058,0.0010198437,1,0,1,0,1,0
93598760,93491630,2621474,-0.0023632245,-0.0007038692,0.0012185719,0.15,2.0807468e-07,2.0763261e-07,9.990287e-07,2621474,-0.005835835,-0.0031941817,-0.014828903,0.4,0.0055456855,0.005541085,1.9799612e-05,8944899,-0.16150904,-0.0012411253,0.016556991,0.5,0.0009474082,0.0008278124,0.001016553,1,0,1,0,1,0
93736407,93629353,2621474,-0.0023631928,-0.00070391875,0.0012199212,0.15,2.0953371e-07,2.0909164e-07,1.0004567e-06,2621474,-0.0058445544,-0.003065353,-0.014822014,0.4,0.005545605,0.0055408655,1.9808374e-05,8944899,-0.16241604,-9.6364034e-05,0.016491836,0.5,0.00094685686,0.00082372274,0.00101461,1,0,1,0,1,0
93746989,93639974,2621474,-0.0023512072,-0.00067963166,0.0012128734,0.15,2.0771567e-07,2.0717277e-07,1.0004303e-06,2621474,-0.008597751,-0.0038451776,-0.014992648,0.4,0.0055352454,0.0055188606,1.9768288e-05,8944899,-0.16276203,0.00015413176,0.016498152,0.5,0.0009464632,0.00082355196,0.0010146074,1,0,1,0,1,0
93800210,93692893,2621474,-0.0023511907,-0.00067965046,0.0012135231,0.15,2.0827578e-07,2.0773288e-07,1.0009755e-06,2621474,-0.008592482,-0.0037721929,-0.014986824,0.4,0.0055352068,0.005518755,1.9771316e-05,8944899,-0.16287087,-0.00039670075,0.018688772,0.5,0.0009425233,0.00082104077,0.0010101649,1,0,1,0,1,0
93937617,93830679,2621474,-0.0023511578,-0.0006796888,0.0012147678,0.15,2.0973613e-07,2.0919323e-07,1.0024071e-06,2621474,-0.008589119,-0.0036391164,-0.0149777075,0.4,0.005535094,0.005518499,1.9778066e-05,8944899,-0.16395167,-0.0007574826,0.019089723,0.5,0.00094034703,0.00081739447,0.0010077157,1,0,1,0,1,0
93948225,93841217,2621474,-0.0023420502,-0.00063521386,0.0012038283,0.15,2.0774634e-07,2.0715358e-07,1.0022248e-06,2621474,-0.010071904,-0.0038922725,-0.0149272615,0.4,0.0055289785,0.00550044,1.9738856e-05,8944899,-0.16449986,-0.00044552123,0.019161152,0.5,0.0009390193,0.00081665785,0.0010077095,1,0,1,0,1,0
94075393,93968361,2621474,-0.0023420313,-0.0006352404,0.0012050095,0.15,2.0909351e-07,2.0850075e-07,1.0035449e-06,2621474,-0.010049926,-0.0037448767,-0.014914098,0.4,0.0055288672,0.0055001904,1.9744808e-05,8944899,-0.1649643,0.00027503888,0.020379176,0.5,0.0009378702,0.00081239553,0.0010043154,1,0,1,0,1,0
94138924,94031920,2621474,-0.0023420216,-0.0006352533,0.0012055727,0.15,2.097668e-07,2.0917403e-07,1.0042048e-06,2621474,-0.0100368615,-0.0037297853,-0.014910873,0.4,0.0055288346,0.0055001457,1.9745672e-05,8944899,-0.16408496,-0.00019245996,0.017946167,0.5,0.0009362958,0.00080882857,0.001000203,1,0,1,0,1,0
94150082,94042497,2621474,-0.0023504992,-0.0006070036,0.0011921237,0.15,2.0772417e-07,2.0709693e-07,1.0037677e-06,2621474,-0.010031483,-0.004974408,-0.014869019,0.4,0.0055240756,0.0054843337,1.970725e-05,8944899,-0.16492712,0.00038964197,0.018011214,0.5,0.0009336813,0.0008073594,0.0010001934,1,0,1,0,1,0
94213162,94106090,2621474,-0.002350498,-0.00060700806,0.0011926674,0.15,2.083982e-07,2.0777097e-07,1.0044292e-06,2621474,-0.010040723,-0.0049287844,-0.014867895,0.4,0.005524005,0.00548419,1.970931e-05,8944899,-0.16348661,-0.00010127852,0.015943754,0.5,0.0009325227,0.0008059077,0.0009982638,1,0,1,0,1,0
94351151,94243841,2621474,-0.0023213672,-0.00057422445,0.0011949673,0.15,2.0774762e-07,2.070477e-07,1.0057498e-06,2621474,-0.011917117,-0.004021681,-0.014931279,0.4,0.005519617,0.00547066,1.9679144e-05,8944899,-0.16293763,-0.0006131909,0.015177163,0.5,0.0009306254,0.0008002212,0.0009931161,1,0,1,0,1,0
94425036,94318060,2621474,-0.002321372,-0.00057422736,0.0011954645,0.15,2.0853457e-07,2.0783466e-07,1.006525e-06,2621474,-0.011899378,-0.0040008007,-0.014926971,0.4,0.0055195875,0.005470618,1.968124e-05,8944899,-0.16347887,0.00041316653,0.014946503,0.5,0.00093007315,0.00079872704,0.0009918474,1,0,1,0,1,0
94488532,94381546,2621474,-0.0023213762,-0.0005742312,0.0011959516,0.15,2.0920636e-07,2.0850645e-07,1.0071855e-06,2621474,-0.011893478,-0.003943003,-0.014922723,0.4,0.0055195456,0.005470513,1.9683162e-05,8944899,-0.1631044,0.00026390518,0.01596039,0.5,0.0009286543,0.0007972658,0.0009893806,1,0,1,0,1,0
94626307,94519330,2621474,-0.0023127126,-0.0005290269,0.0011931533,0.15,2.085807e-07,2.0779474e-07,1.0084286e-06,2621474,-0.012727049,-0.003630037,-0.014837968,0.4,0.005515117,0.00545591,1.9649271e-05,8944899,-0.16307586,0.0006647822,0.0140211405,0.5,0.0009243249,0.0007902283,0.0009811142,1,0,1,0,1,0
94690607,94582861,2621474,-0.002312723,-0.00052902964,0.0011936114,0.15,2.0925341e-07,2.0846745e-07,1.0090909e-06,2621474,-0.012727049,-0.003630037,-0.014837968,0.4,0.005515117,0.00545591,1.9649271e-05,8944899,-0.16392592,-0.00016415575,0.014091083,0.5,0.0009199458,0.00078358594,0.00097183336,1,0,1,0,1,0
94764732,94656991,2621474,-0.0022781228,-0.00049312494,0.0011841018,0.15,2.0796296e-07,2.0711254e-07,1.009755e-06,2621474,-0.012727049,-0.003630037,-0.014837968,0.4,0.005515117,0.00545591,1.9649271e-05,8944899,-0.16506854,2.7490634e-05,0.012351425,0.5,0.0009173034,0.00078214577,0.00096776854,1,0,1,0,1,0
94954684,94847651,2621474,-0.002262197,-0.00045440826,0.0011702233,0.15,2.0785296e-07,2.0695953e-07,1.0114147e-06,2621474,-0.012699649,-0.0035033538,-0.014826801,0.4,0.0055150357,0.0054557035,1.9655326e-05,8944899,-0.1657049,0.0012337036,0.011939393,0.5,0.00091308414,0.00077785185,0.00096290006,1,0,1,0,1,0
95039741,94932450,2621474,-0.0022622095,-0.0004543992,0.0011710642,0.15,2.0875181e-07,2.0785838e-07,1.0122949e-06,2621474,-0.012670226,-0.003421716,-0.01481781,0.4,0.005514995,0.005455599,1.9658399e-05,8944899,-0.16555203,0.0018872396,0.011071784,0.5,0.00091170904,0.00077374984,0.0009591227,1,0,1,0,1,0
95102976,94995973,2621474,-0.0022622147,-0.00045439487,0.001171471,0.15,2.0942437e-07,2.0853093e-07,1.0129585e-06,2621474,-0.012651353,-0.003353913,-0.01481133,0.4,0.005514954,0.0054554935,1.9662397e-05,8944899,-0.16599745,0.0018956384,0.010157887,0.5,0.00090985314,0.00077282335,0.0009575927,1,0,1,0,1,0
95177248,95070181,2621474,-0.002275704,-0.00042405483,0.0011740878,0.15,2.0807025e-07,2.0711592e-07,1.0131624e-06,2621474,-0.01200551,-0.0039665713,-0.014788731,0.4,0.00551302,0.0054503614,1.9629062e-05,8944899,-0.16561638,0.0016296629,0.008310174,0.5,0.00090265105,0.000769801,0.00094897667,1,0,1,0,1,0
95240810,95133701,2621474,-0.0022757004,-0.00042404822,0.001174479,0.15,2.0874272e-07,2.0778839e-07,1.013826e-06,2621474,-0.011996198,-0.003911384,-0.014784539,0.4,0.0055129793,0.0054502543,1.9633126e-05,8944899,-0.16312508,0.003100933,0.006753647,0.5,0.00089784095,0.00076818303,0.0009449121,1,0,1,0,1,0
95314983,95207922,2621474,-0.0022756986,-0.00042404086,0.0011748646,0.15,2.0952972e-07,2.0857539e-07,1.0146044e-06,2621474,-0.011971057,-0.0038368222,-0.014776896,0.4,0.005512936,0.0054501444,1.9636142e-05,8944899,-0.16355099,0.0031627351,0.0080755865,0.5,0.00089642324,0.0007669388,0.0009430849,1,0,1,0,1,0
95558459,95451583,2621474,-0.0022867653,-0.00047752672,0.0011834283,0.15,2.0750203e-07,2.062646e-07,1.014919e-06,2621474,-0.01567986,-0.0042006006,-0.014973477,0.4,0.0054979892,0.0054419986,1.9576166e-05,8944899,-0.16368741,0.0032238152,0.00816018,0.5,0.00088521914,0.00075749296,0.0009384703,1,1,1,0,1,0
95654571,95546898,2621474,-0.0022867124,-0.00047752573,0.0011841331,0.15,2.0851137e-07,2.0727403e-07,1.0159132e-06,2621474,-0.015662864,-0.004097214,-0.014965857,0.4,0.0054979026,0.0054417816,1.9581412e-05,8944899,-0.16526291,0.0026850156,0.0076691154,0.5,0.0008828593,0.00075321493,0.00093236513,1,1,1,0,1,0
95749144,95642227,2621474,-0.0022790236,-0.00050166924,0.0011788546,0.15,2.0734683e-07,2.0597113e-07,1.0163848e-06,2621474,-0.017253296,-0.0043613776,-0.015033833,0.4,0.005490511,0.005438095,1.9550664e-05,8944899,-0.16578142,0.002972205,0.007411048,0.5,0.0008805768,0.00075080735,0.00093211886,1,1,1,0,1,0
95791719,95684620,2621474,-0.0022789927,-0.00050166954,0.0011791921,0.15,2.0779605e-07,2.0642042e-07,1.0168268e-06,2621474,-0.017219763,-0.004277942,-0.015024736,0.4,0.0054904674,0.0054379874,1.9552837e-05,8944899,-0.16680185,0.0027803688,0.0076251584,0.5,0.0008789124,0.0007498213,0.0009306344,1,1,1,0,1,0
95930212,95822392,2621474,-0.0022789259,-0.00050167483,0.0011798771,0.15,2.0925603e-07,2.0788055e-07,1.0182723e-06,2621474,-0.017212339,-0.0041875937,-0.015019297,0.4,0.005490378,0.005437763,1.9561026e-05,8944899,-0.16496056,0.0029774054,0.006018998,0.5,0.00087210955,0.0007451992,0.00091912056,1,1,1,0,1,0
96003484,95896535,2621474,-0.0022935187,-0.00051045895,0.0011913982,0.15,2.080864e-07,2.0643193e-07,1.0177182e-06,2621474,-0.017777963,-0.0041252817,-0.015086366,0.4,0.005484263,0.0054337014,1.952875e-05,8944899,-0.1654855,0.002237683,0.0047668233,0.5,0.0008630469,0.00074088626,0.00091587956,1,1,1,0,1,0
96067115,95960044,2621474,-0.002293476,-0.0005104661,0.0011917242,0.15,2.087585e-07,2.0710415e-07,1.0183834e-06,2621474,-0.01778094,-0.004090153,-0.01508509,0.4,0.0054842182,0.0054335888,1.9532883e-05,8944899,-0.16705038,0.0032059986,0.005518533,0.5,0.0008598528,0.0007390744,0.0009109032,1,1,1,0,1,0
96141244,96034338,2621474,-0.0022934352,-0.0005104622,0.0011920454,0.15,2.095469e-07,2.0789268e-07,1.0191645e-06,2621474,-0.017747624,-0.0040452667,-0.01507809,0.4,0.0054841754,0.0054335096,1.9532927e-05,8944899,-0.16566329,0.004863003,0.0039351583,0.5,0.00085833407,0.0007361839,0.00090646173,1,1,1,0,1,0
96204952,96097816,2621474,-0.0022968056,-0.000530047,0.0011926233,0.15,2.0859244e-07,2.0642342e-07,1.0171793e-06,2621474,-0.017698677,-0.0039791735,-0.015067833,0.4,0.0054841354,0.005433435,1.9533118e-05,8944899,-0.1655887,0.0053548673,0.005394054,0.5,0.000846934,0.0007289975,0.0009041672,1,1,1,0,1,0
96278972,96171975,2621474,-0.0022967514,-0.00053005794,0.0011929217,0.15,2.0937789e-07,2.0720907e-07,1.0179587e-06,2621474,-0.017698677,-0.0039791735,-0.015067833,0.4,0.0054841354,0.005433435,1.9533118e-05,8944899,-0.16651484,0.0053941095,0.007531379,0.5,0.0008418531,0.0007220283,0.00089459814,1,1,1,0,1,0
96342652,96235604,2621474,-0.0022966987,-0.00053005223,0.0011932114,0.15,2.1005249e-07,2.0788386e-07,1.0186272e-06,2621474,-0.017698677,-0.0039791735,-0.015067833,0.4,0.0054841354,0.005433435,1.9533118e-05,8944899,-0.16949195,0.005536763,0.008407137,0.5,0.00083863194,0.00072128646,0.00088876206,1,1,1,0,1,0
96353095,96246085,2621474,-0.0023265488,-0.0005262586,0.0012179486,0.15,2.0842629e-07,2.0592239e-07,1.0176288e-06,2621474,-0.017698677,-0.0039791735,-0.015067833,0.4,0.0054841354,0.005433435,1.9533118e-05,8944899,-0.16793564,0.004328755,0.008559241,0.5,0.00083393016,0.000718199,0.00088870915,1,1,1,0,1,0
96416648,96309674,2621474,-0.0023264892,-0.0005262688,0.0012182287,0.15,2.0909998e-07,2.0659633e-07,1.018297e-06,2621474,-0.017708665,-0.0039563673,-0.015068131,0.4,0.005484129,0.0054333974,1.9534127e-05,8944899,-0.16775893,0.0044635474,0.010616409,0.5,0.0008305146,0.0007171652,0.000884526,1,1,1,0,1,0
96554737,96447429,2621474,-0.0023177585,-0.0005351131,0.0012132794,0.15,2.086614e-07,2.0603753e-07,1.0193218e-06,2621474,-0.017667264,-0.0038626967,-0.015057873,0.4,0.005484039,0.005433193,1.9538342e-05,8944899,-0.16836053,0.0056743496,0.011383184,0.5,0.0008261728,0.00071004516,0.00087771507,1,1,1,0,1,0
96617919,96510985,2621474,-0.0023176954,-0.00053513,0.0012135535,0.15,2.0933436e-07,2.0671074e-07,1.0199893e-06,2621474,-0.017636735,-0.0038200265,-0.015051588,0.4,0.0054840003,0.005433113,1.9541552e-05,8944899,-0.16880141,0.0050710025,0.010217183,0.5,0.0008255034,0.00070919533,0.00087720394,1,1,1,0,1,0
96967562,96860578,2621474,-0.0023189904,-0.0005797208,0.0012108174,0.15,2.0960975e-07,2.0636178e-07,1.0223465e-06,2621474,-0.017531758,-0.0035643058,-0.015024804,0.4,0.0054838522,0.0054327366,1.9549883e-05,8944899,-0.16902532,0.0065863933,0.011393862,0.5,0.0008172547,0.0006952733,0.00086309644,1,1,1,0,1,0
97031340,96924170,2621474,-0.0023189185,-0.0005797421,0.0012110653,0.15,2.1028335e-07,2.0703573e-07,1.0230152e-06,2621474,-0.017541362,-0.0035439448,-0.01502507,0.4,0.005483847,0.005432705,1.9552914e-05,8944899,-0.169501,0.0068600667,0.013495953,0.5,0.0008142548,0.0006943079,0.00086014566,1,1,1,0,1,0
97147676,97040661,2621474,-0.0023076986,-0.0005921228,0.0012132057,0.15,2.0940456e-07,2.061686e-07,1.0240926e-06,2621474,-0.018578563,-0.0034589688,-0.015011917,0.4,0.0054688184,0.005427214,1.9523595e-05,8944899,-0.1701491,0.007270315,0.0133222975,0.5,0.00081092445,0.00069327577,0.0008550424,1,1,1,0,1,0
97168912,97061872,2621474,-0.0023076285,-0.00059214764,0.0012134487,0.15,2.0962908e-07,2.0639348e-07,1.0243124e-06,2621474,-0.018587803,-0.0034392371,-0.015012177,0.4,0.005468813,0.0054271817,1.9525614e-05,8944899,-0.16985187,0.007448495,0.015933942,0.5,0.0008082526,0.00069244654,0.0008514556,1,1,1,0,1,0
97349009,97241965,2621474,-0.0022806202,-0.00056969095,0.0012067183,0.15,2.090808e-07,2.0609248e-07,1.025755e-06,2621474,-0.016929962,-0.0059173387,-0.015085462,0.4,0.0054423395,0.005418261,1.9501953e-05,8944899,-0.17015016,0.0077256006,0.015835563,0.5,0.00080679264,0.0006905336,0.0008510796,1,1,1,0,1,0
97370275,97263156,2621474,-0.0022805505,-0.0005697058,0.0012069484,0.15,2.0930493e-07,2.0631697e-07,1.0259746e-06,2621474,-0.016892144,-0.005828295,-0.015076209,0.4,0.0054422934,0.005418135,1.9502213e-05,8944899,-0.17099142,0.0075115357,0.016490437,0.5,0.0008015489,0.00068951165,0.0008466894,1,1,1,0,1,0
97444461,97337297,2621474,-0.0022804833,-0.0005697255,0.001207181,0.15,2.100898e-07,2.071022e-07,1.0267548e-06,2621474,-0.016887568,-0.0057894974,-0.01507378,0.4,0.005442251,0.0054180096,1.9507475e-05,8944899,-0.16924803,0.00719879,0.01664402,0.5,0.0007984365,0.0006884205,0.00084342103,1,1,1,0,1,0
97518558,97411481,2621474,-0.0022804127,-0.0005697409,0.0012074145,0.15,2.1087557e-07,2.0788833e-07,1.027536e-06,2621474,-0.016833587,-0.0056734015,-0.015061114,0.4,0.0054421616,0.0054177684,1.9509735e-05,8944899,-0.16980304,0.006430131,0.015664434,0.5,0.0007979637,0.0006862504,0.0008402648,1,1,1,0,1,0
97560877,97453854,2621474,-0.0022841794,-0.00054807344,0.0011980535,0.15,2.085047e-07,2.0618849e-07,1.0271731e-06,2621474,-0.014649558,-0.0063556754,-0.015118305,0.4,0.0054164915,0.0054109283,1.9476975e-05,8944899,-0.1702428,0.0066968985,0.015727647,0.5,0.0007955091,0.0006850012,0.0008402404,1,1,1,0,1,0
97582025,97475037,2621474,-0.00228412,-0.00054809207,0.0011982817,0.15,2.0872874e-07,2.0641282e-07,1.0273926e-06,2621474,-0.014649558,-0.0063556754,-0.015118305,0.4,0.0054164925,0.005410929,1.9477982e-05,8944899,-0.17090367,0.006457069,0.01467904,0.5,0.0007949732,0.0006841383,0.00083878095,1,1,1,0,1,0
97751567,97644569,2621474,-0.002256602,-0.00052709045,0.0011997303,0.15,2.0799456e-07,2.0618185e-07,1.0284109e-06,2621474,-0.013195916,-0.0073934025,-0.015096959,0.4,0.005396486,0.005405225,1.945097e-05,8944899,-0.17064786,0.0065608276,0.013820199,0.5,0.0007921178,0.00067855715,0.0008346505,1,1,1,0,1,0
97921070,97814089,2621474,-0.0022564274,-0.0005271392,0.0012003896,0.15,2.097898e-07,2.0797782e-07,1.0301935e-06,2621474,-0.013030733,-0.00703537,-0.015058529,0.4,0.0053963214,0.0054047075,1.9459872e-05,8944899,-0.17151651,0.0051541505,0.015593303,0.5,0.0007893774,0.0006742785,0.0008293942,1,1,1,0,1,0
97952832,97845872,2621474,-0.002229981,-0.0004996301,0.0012013807,0.15,2.076863e-07,2.0634207e-07,1.0300641e-06,2621474,-0.011371218,-0.0088681355,-0.015110587,0.4,0.005378016,0.0053994223,1.942879e-05,8944899,-0.17129645,0.004915581,0.015619507,0.5,0.0007879566,0.00067360525,0.0008293818,1,1,1,0,1,0
98058774,97951831,2621474,-0.0022298754,-0.0004996634,0.0012018139,0.15,2.0880857e-07,2.0746477e-07,1.031178e-06,2621474,-0.011287584,-0.008671195,-0.0150905745,0.4,0.005377937,0.0053991536,1.9435394e-05,8944899,-0.17213225,0.0045640236,0.015186649,0.5,0.0007847751,0.0006715995,0.00082662946,1,1,1,0,1,0
98154256,98047153,2621474,-0.0022428022,-0.0004939885,0.0011946311,0.15,2.0730457e-07,2.0652432e-07,1.0315729e-06,2621474,-0.010418615,-0.008374939,-0.01510166,0.4,0.0053584184,0.0053934953,1.9406763e-05,8944899,-0.17274277,0.005423687,0.015779832,0.5,0.0007822977,0.00066948304,0.00082468166,1,1,1,0,1,0
98270802,98163657,2621474,-0.002242708,-0.00049402745,0.0011950545,0.15,2.0853814e-07,2.0775823e-07,1.0327982e-06,2621474,-0.010330449,-0.008167444,-0.015080683,0.4,0.0053583034,0.0053931023,1.9412562e-05,8944899,-0.17314452,0.0048418054,0.016978016,0.5,0.00078066316,0.00066625787,0.000821779,1,1,1,0,1,0
98355330,98248385,2621474,-0.0022498702,-0.00050231663,0.0011934998,0.15,2.0700584e-07,2.0674804e-07,1.0330317e-06,2621474,-0.0103697805,-0.00670678,-0.014981461,0.4,0.0053405445,0.005387876,1.9384162e-05,8944899,-0.17351517,0.0051332703,0.01690678,0.5,0.000777706,0.00066408474,0.00082144816,1,1,1,0,1,0
98408405,98301414,2621474,-0.00224983,-0.00050233427,0.0011937068,0.15,2.075681e-07,2.0731044e-07,1.0335898e-06,2621474,-0.010344497,-0.0066353353,-0.014975017,0.4,0.005340508,0.0053877393,1.9387526e-05,8944899,-0.17453682,0.004376491,0.017292956,0.5,0.0007764933,0.0006620491,0.00082019967,1,1,1,0,1,0
98472042,98365001,2621474,-0.0022497864,-0.00050235813,0.0011939228,0.15,2.0824187e-07,2.0798433e-07,1.0342593e-06,2621474,-0.010314285,-0.006582696,-0.014968565,0.4,0.0053404705,0.005387624,1.9386773e-05,8944899,-0.17463174,0.0033363674,0.014824803,0.5,0.000774422,0.00065941765,0.00081215164,1,1,1,0,1,0
98546146,98439089,2621474,-0.002249743,-0.00050238287,0.0011941398,0.15,2.0902597e-07,2.0876855e-07,1.0350392e-06,2621474,-0.010260484,-0.0064591523,-0.014955944,0.4,0.00534043,0.0053874697,1.9389943e-05,8944899,-0.17382368,0.0033263725,0.013997215,0.5,0.00076489866,0.000658274,0.00080143916,1,1,1,0,1,0
98610402,98502647,2621474,-0.0022254197,-0.00052361924,0.0011959326,0.15,2.0762539e-07,2.0759471e-07,1.0356952e-06,2621474,-0.01026667,-0.0064418977,-0.014956186,0.4,0.005340429,0.0053874417,1.9392955e-05,8944899,-0.17282683,0.0037433032,0.012638546,0.5,0.0007592744,0.0006553838,0.000795802,1,1,1,0,1,0
98683856,98576913,2621474,-0.0022253746,-0.0005236473,0.0011961508,0.15,2.0841317e-07,2.0838262e-07,1.0364788e-06,2621474,-0.010200126,-0.0062951418,-0.014940832,0.4,0.005340352,0.0053871702,1.9394467e-05,8944899,-0.17294417,0.0025796974,0.012560201,0.5,0.00075909245,0.0006539653,0.00079514866,1,1,1,0,1,0
98747639,98640395,2621474,-0.0022211848,-0.000546677,0.0011978353,0.15,2.0717201e-07,2.0723998e-07,1.0370085e-06,2621474,-0.0122259855,-0.0058252173,-0.014949837,0.4,0.0053266576,0.0053799353,1.9365092e-05,8944899,-0.17323557,0.0030925681,0.012221577,0.5,0.0007581966,0.00065272005,0.000793225,1,1,1,0,1,0
98948670,98841679,2621474,-0.002235595,-0.00056037377,0.0012069745,0.15,2.0751546e-07,2.0757552e-07,1.0387367e-06,2621474,-0.013435617,-0.0059661707,-0.015085395,0.4,0.005314444,0.0053719077,1.9343819e-05,8944899,-0.17340873,0.0024347038,0.012341405,0.5,0.00075558055,0.0006507972,0.0007913734,1,1,1,0,1,0
98959620,98852314,2621474,-0.002235554,-0.0005603869,0.0012071752,0.15,2.0762837e-07,2.0768861e-07,1.0388457e-06,2621474,-0.013441764,-0.0059495172,-0.015085629,0.4,0.005314441,0.0053718793,1.9344832e-05,8944899,-0.17170718,0.0031231595,0.009440311,0.5,0.0007538831,0.00064848276,0.0007885666,1,1,1,0,1,0
99022819,98915920,2621474,-0.0022355006,-0.00056041236,0.0012073873,0.15,2.083025e-07,2.0836289e-07,1.0395158e-06,2621474,-0.01336975,-0.005818942,-0.01507019,0.4,0.005314408,0.0053717624,1.9347188e-05,8944899,-0.17189942,0.0023064,0.01076021,0.5,0.0007528342,0.00064735994,0.0007874159,1,1,1,0,1,0
99097023,98990025,2621474,-0.0022354405,-0.0005604429,0.0012076051,0.15,2.0908682e-07,2.0914739e-07,1.0402961e-06,2621474,-0.0133081805,-0.0056791333,-0.015055965,0.4,0.0053143683,0.005371607,1.9349436e-05,8944899,-0.1730935,0.002055489,0.010578717,0.5,0.0007484349,0.00064610795,0.00078302587,1,1,1,0,1,0
99149935,99043058,2621474,-0.002227794,-0.00054447836,0.0012034365,0.15,2.0760334e-07,2.0787043e-07,1.0407346e-06,2621474,-0.011406247,-0.0048225946,-0.0148789445,0.4,0.0052968105,0.005362435,1.9319146e-05,8944899,-0.17324455,0.0020611384,0.010600701,0.5,0.0007482358,0.0006460866,0.0007830222,1,1,1,0,1,0
99234932,99127733,2621474,-0.0022276961,-0.00054451387,0.0012038493,0.15,2.0849926e-07,2.0876669e-07,1.0416223e-06,2621474,-0.01133758,-0.0046424884,-0.014862171,0.4,0.005296736,0.005362135,1.932379e-05,8944899,-0.17480677,0.0010203858,0.007925474,0.5,0.0007468459,0.0006421471,0.00077976903,1,1,1,0,1,0
99372520,99265557,2621474,-0.0022270936,-0.0005448842,0.0012041767,0.15,2.0804964e-07,2.0842661e-07,1.0429288e-06,2621474,-0.011634672,-0.0051180474,-0.01491504,0.4,0.0052819913,0.0053530526,1.9297764e-05,8944899,-0.1741562,0.0011620356,0.008696862,0.5,0.0007448593,0.0006396514,0.00077785156,1,1,1,0,1,0
99436032,99329062,2621474,-0.002227036,-0.0005449038,0.0012043839,0.15,2.0872157e-07,2.0909873e-07,1.0435966e-06,2621474,-0.011578086,-0.004986515,-0.014901888,0.4,0.005281919,0.0053527774,1.9300409e-05,8944899,-0.17573802,-0.00033581653,0.009947872,0.5,0.00074026256,0.00063736044,0.000773656,1,1,1,0,1,0
99573765,99466835,2621474,-0.0022050282,-0.0005026097,0.0012003409,0.15,2.0802405e-07,2.087484e-07,1.0448787e-06,2621474,-0.011507106,-0.004827532,-0.014885628,0.4,0.0052818465,0.005352487,1.9307894e-05,8944899,-0.17541258,-0.0015373748,0.009835301,0.5,0.00073739677,0.0006334517,0.0007698804,1,1,1,0,1,0
99647929,99540939,2621474,-0.0022049744,-0.00050262664,0.0012005477,0.15,2.0880836e-07,2.0953289e-07,1.0456587e-06,2621474,-0.0114630265,-0.004744937,-0.014876161,0.4,0.005281813,0.0053523593,1.9310191e-05,8944899,-0.17535865,-0.0010284975,0.011307147,0.5,0.0007346295,0.00063230906,0.00076686585,1,1,1,0,1,0
99711527,99604486,2621474,-0.0022049246,-0.00050264224,0.0012007518,0.15,2.094812e-07,2.102059e-07,1.0463273e-06,2621474,-0.011440287,-0.0046753897,-0.014870236,0.4,0.0052817734,0.005352198,1.9311425e-05,8944899,-0.17438465,-0.0012981134,0.008811243,0.5,0.0007325692,0.00062931055,0.0007635394,1,1,1,0,1,0
99785694,99678626,2621474,-0.0021705637,-0.00047285907,0.0011883856,0.15,2.083803e-07,2.0921586e-07,1.0469566e-06,2621474,-0.011400274,-0.0046000388,-0.0148616405,0.4,0.005281736,0.005352059,1.9312607e-05,8944899,-0.17428684,-0.0031748554,0.010419325,0.5,0.00073125627,0.00062733586,0.0007621543,1,1,1,0,1,0
99849181,99742235,2621474,-0.0021705038,-0.00047287572,0.0011885939,0.15,2.0905445e-07,2.0989019e-07,1.0476268e-06,2621474,-0.0113589475,-0.0044949204,-0.014851687,0.4,0.0052817008,0.0053519057,1.9316947e-05,8944899,-0.17546439,-0.0041080257,0.011090364,0.5,0.0007283115,0.0006258126,0.0007598413,1,1,1,0,1,0
99955170,99848132,2621474,-0.0021661909,-0.000475707,0.001189305,0.15,2.0812516e-07,2.0924719e-07,1.0487254e-06,2621474,-0.010938065,-0.002564732,-0.01466323,0.4,0.005265155,0.005341823,1.9290166e-05,8944899,-0.17558794,-0.004653732,0.011710419,0.5,0.00072711945,0.00062435295,0.00075946684,1,1,1,0,1,0
99987043,99879977,2621474,-0.0021661348,-0.00047572213,0.001189512,0.15,2.0846299e-07,2.0958521e-07,1.0490592e-06,2621474,-0.010909698,-0.0024840315,-0.014656062,0.4,0.005265118,0.005341672,1.9291543e-05,8944899,-0.17611043,-0.0048312317,0.010246665,0.5,0.00072616973,0.0006222794,0.0007572054,1,1,1,0,1,0
100061063,99954128,2621474,-0.002166077,-0.000475738,0.0011897205,0.15,2.0924828e-07,2.1037069e-07,1.0498402e-06,2621474,-0.010879588,-0.002399597,-0.014648498,0.4,0.005265084,0.0053415187,1.929689e-05,8944899,-0.17330374,-0.003747355,0.008926994,0.5,0.00072268036,0.00061977166,0.000754143,1,1,1,0,1,0
100124751,100017652,2621474,-0.0021660198,-0.0004757539,0.0011899299,0.15,2.0992064e-07,2.1104323e-07,1.0505083e-06,2621474,-0.010852436,-0.0023203944,-0.014641547,0.4,0.0052650473,0.0053413594,1.9301158e-05,8944899,-0.17297885,-0.0046152743,0.008342465,0.5,0.0007215379,0.0006186823,0.0007537692,1,1,1,0,1,0
100156408,100049431,2621474,-0.0021319939,-0.00042611614,0.0011829525,0.15,2.0841675e-07,2.0963643e-07,1.0506772e-06,2621474,-0.009155037,-0.0064630494,-0.01461307,0.4,0.005250434,0.0053303163,1.9268917e-05,8944899,-0.17305891,-0.004737756,0.008343154,0.5,0.00072099536,0.0006185087,0.00075376173,1,1,1,0,1,0
100198930,100091832,2621474,-0.0021319336,-0.00042613197,0.0011831637,0.15,2.0886598e-07,2.1008587e-07,1.0511222e-06,2621474,-0.009130398,-0.0063878186,-0.014606602,0.4,0.0052503976,0.005330164,1.9271287e-05,8944899,-0.1719824,-0.0060827676,0.009900794,0.5,0.0007200888,0.0006165572,0.0007525586,1,1,1,0,1,0
