timestamp,timestamp_sample,control[0],control[1],control[2],control[3],control[4],control[5],control[6],control[7],control[8],control[9],control[10],control[11],reversible_flags
80401530,80401175,-0.012915704,0.014353918,-0.013040775,0.015602563,nan,nan,nan,nan,nan,nan,nan,nan,15
80402859,80402508,0.00124417,-0.0036019753,-0.008029759,0.014387565,nan,nan,nan,nan,nan,nan,nan,nan,15
80601519,80601168,0.027435483,-0.02807664,-0.012194051,0.016835207,nan,nan,nan,nan,nan,nan,nan,nan,15
80702157,80701806,0.043428037,-0.04990389,0.0022261613,0.008249685,nan,nan,nan,nan,nan,nan,nan,nan,15
80801452,80801101,0.011506345,-0.022033129,0.006125333,0.008401452,nan,nan,nan,nan,nan,nan,nan,nan,15
80902146,80901798,-0.012331843,0.011793027,-0.019159006,0.023697825,nan,nan,nan,nan,nan,nan,nan,nan,15
81001446,81001099,-0.006856182,0.008697617,-0.027713068,0.029871635,nan,nan,nan,nan,nan,nan,nan,nan,15
81102193,81101838,0.030008057,-0.008539507,-0.0028488627,-0.014619688,nan,nan,nan,nan,nan,nan,nan,nan,15
81201427,81201079,0.036902152,-0.044715986,0.023725279,-0.011911447,nan,nan,nan,nan,nan,nan,nan,nan,15
81302043,81301695,0.00052580686,-0.008277421,0.0074794074,0.004272207,nan,nan,nan,nan,nan,nan,nan,nan,15
81401331,81400987,0.012920601,-0.016080372,-0.035484042,0.04264381,nan,nan,nan,nan,nan,nan,nan,nan,15
81501958,81501612,0.035165884,-0.015283876,-0.020004041,0.004122034,nan,nan,nan,nan,nan,nan,nan,nan,15
81601340,81600993,0.0065485695,-0.003921684,0.007938974,-0.0065658595,nan,nan,nan,nan,nan,nan,nan,nan,15
81702024,81701654,0.026117412,-0.014678223,0.009610154,-0.017049342,nan,nan,nan,nan,nan,nan,nan,nan,15
81801311,81800967,-0.010353714,0.003836693,-0.0069749514,0.017491974,nan,nan,nan,nan,nan,nan,nan,nan,15
81901956,81901610,0.039374273,-0.03716289,-0.017567711,0.01935632,nan,nan,nan,nan,nan,nan,nan,nan,15
82001275,82000927,0.016706264,-0.0026521985,-0.0018574997,-0.008196564,nan,nan,nan,nan,nan,nan,nan,nan,15
82101867,82101520,-0.00325628,0.0045483974,0.002119719,0.0005881633,nan,nan,nan,nan,nan,nan,nan,nan,15
82201278,82200924,0.007747568,0.015432902,-0.012150837,-0.0070296335,nan,nan,nan,nan,nan,nan,nan,nan,15
82301864,82301519,0.022934467,-0.008276377,0.0010494677,-0.011707556,nan,nan,nan,nan,nan,nan,nan,nan,15
82401217,82400846,0.018529052,-0.021071585,-0.018719243,0.025261777,nan,nan,nan,nan,nan,nan,nan,nan,15
82501868,82501519,-0.023544451,0.026657494,-0.015650766,0.016537724,nan,nan,nan,nan,nan,nan,nan,nan,15
82601138,82600794,-0.013678453,0.027856184,-0.03098153,0.020803798,nan,nan,nan,nan,nan,nan,nan,nan,15
82701816,82701472,0.009277339,-0.0064941505,-0.008439812,0.009656624,nan,nan,nan,nan,nan,nan,nan,nan,15
82801116,82800770,0.025695032,-0.024806095,-0.008302232,0.011413297,nan,nan,nan,nan,nan,nan,nan,nan,15
82901774,82901427,0.033370674,-0.038475446,0.012195725,-0.0030909523,nan,nan,nan,nan,nan,nan,nan,nan,15
83002387,83002039,0.005966234,0.016592572,-0.038078688,0.019519884,nan,nan,nan,nan,nan,nan,nan,nan,15
83101710,83101337,-0.025075236,0.018315805,-0.013095401,0.023854833,nan,nan,nan,nan,nan,nan,nan,nan,15
83202335,83201991,-0.013944324,0.008882508,-0.017011058,0.026072875,nan,nan,nan,nan,nan,nan,nan,nan,15
83301673,83301327,-0.0025905918,0.0016407038,-0.015830802,0.020780692,nan,nan,nan,nan,nan,nan,nan,nan,15
83402342,83401986,0.026271023,-0.02009762,0.008618865,-0.010792267,nan,nan,nan,nan,nan,nan,nan,nan,15
83501698,83501349,0.01630242,-0.022738906,0.021209631,-0.010773145,nan,nan,nan,nan,nan,nan,nan,nan,15
83602292,83601939,-0.01986589,-0.018094381,0.017630344,0.024329927,nan,nan,nan,nan,nan,nan,nan,nan,15
83701592,83701226,0.019850641,0.013796756,-0.031888783,0.0022413852,nan,nan,nan,nan,nan,nan,nan,nan,15
83802248,83801905,-0.0003125465,0.01020769,-0.029427089,0.023531947,nan,nan,nan,nan,nan,nan,nan,nan,15
83901580,83901233,-0.006165816,0.011393958,0.002444924,-0.0036730657,nan,nan,nan,nan,nan,nan,nan,nan,15
84002237,84001889,-0.0107275555,-0.008000491,0.003882746,0.018845301,nan,nan,nan,nan,nan,nan,nan,nan,15
84101540,84101190,-0.020287182,-0.00048188798,0.013624272,0.011144797,nan,nan,nan,nan,nan,nan,nan,nan,15
84202195,84201849,-0.017939461,0.00038711226,0.018667093,0.0028852571,nan,nan,nan,nan,nan,nan,nan,nan,15
84301527,84301184,0.025268672,7.9060206e-05,-0.023821566,0.0024738347,nan,nan,nan,nan,nan,nan,nan,nan,15
84402172,84401828,0.034234416,-0.02241905,0.014919333,-0.022734698,nan,nan,nan,nan,nan,nan,nan,nan,15
84501510,84501161,-0.016656095,-0.00769154,0.029395033,-0.0010473969,nan,nan,nan,nan,nan,nan,nan,nan,15
84602176,84601825,0.0029325169,-0.0014414374,-0.041718602,0.04422752,nan,nan,nan,nan,nan,nan,nan,nan,15
84701471,84701122,0.0023539565,0.013335097,-0.03801936,0.026330305,nan,nan,nan,nan,nan,nan,nan,nan,15
84802158,84801806,-0.009290954,0.013986109,-0.0008530611,0.00015790583,nan,nan,nan,nan,nan,nan,nan,nan,15
84901425,84901077,-0.0013910288,-0.0027732595,-0.0056008715,0.01376516,nan,nan,nan,nan,nan,nan,nan,nan,15
85002184,85001839,0.016163308,-0.009714685,-0.015171565,0.012722943,nan,nan,nan,nan,nan,nan,nan,nan,15
85101411,85101065,0.020258334,-0.026437301,0.007922433,0.0022565327,nan,nan,nan,nan,nan,nan,nan,nan,15
85201980,85201635,0.002024754,0.014349293,0.003992554,0.016111167,nan,nan,nan,nan,nan,nan,nan,nan,15
85301342,85300998,0.025549103,0.004073526,0.074590966,-0.042062014,nan,nan,nan,nan,nan,nan,nan,nan,15
85401950,85401600,-0.028944338,0.07521174,0.026391475,0.05448449,nan,nan,nan,nan,nan,nan,nan,nan,15
85501308,85500963,0.17742644,0.053220414,-0.035521783,-0.06438717,nan,nan,nan,nan,nan,nan,nan,nan,15
85601942,85601596,0.023335513,0.10083282,0.026751,0.049456842,nan,nan,nan,nan,nan,nan,nan,nan,15
85701240,85700894,0.026837535,0.10859444,0.23974413,-0.12775871,nan,nan,nan,nan,nan,nan,nan,nan,15
85801919,85801572,-0.08305682,0.09546608,0.14326844,0.14605686,nan,nan,nan,nan,nan,nan,nan,nan,15
85902568,85902219,0.394868,-0.116298296,-0.1328971,0.21079244,nan,nan,nan,nan,nan,nan,nan,nan,15
86001908,86001556,-0.20262097,0.45524156,0.33073932,-0.19105144,nan,nan,nan,nan,nan,nan,nan,nan,15
86101237,86100890,0.29951248,-0.107522875,-0.020850299,0.2681604,nan,nan,nan,nan,nan,nan,nan,nan,15
86201867,86201519,-0.1663172,0.36082634,0.50137806,-0.15357974,nan,nan,nan,nan,nan,nan,nan,nan,15
86301209,86300861,0.2931688,-0.07513278,-0.29323778,0.6595759,nan,nan,nan,nan,nan,nan,nan,nan,15
86401876,86401519,-0.22755603,0.46903288,0.5466168,-0.2605781,nan,nan,nan,nan,nan,nan,nan,nan,15
86501111,86500763,0.39746717,-0.31062385,-0.21978204,0.5047354,nan,nan,nan,nan,nan,nan,nan,nan,15
86601798,86601448,-0.11363104,0.3915297,0.32326522,-0.17533019,nan,nan,nan,nan,nan,nan,nan,nan,15
86701138,86700764,0.17200498,-0.21613283,-0.16050003,0.63087565,nan,nan,nan,nan,nan,nan,nan,nan,15
86801722,86801373,-0.16296291,0.29017216,0.47416803,-0.16778757,nan,nan,nan,nan,nan,nan,nan,nan,15
86902349,86902004,0.15954931,-0.20227188,-0.20903195,0.56591344,nan,nan,nan,nan,nan,nan,nan,nan,15
87001709,87001332,-0.15143566,0.34187245,0.3667641,-0.14746514,nan,nan,nan,nan,nan,nan,nan,nan,15
87102334,87101988,0.07586715,-0.057545736,-0.2958246,0.57643044,nan,nan,nan,nan,nan,nan,nan,nan,15
87201705,87201357,0.007922348,0.1802797,0.011218802,0.118367255,nan,nan,nan,nan,nan,nan,nan,nan,15
87302313,87301962,-0.103789344,0.041030064,0.1139418,0.23672682,nan,nan,nan,nan,nan,nan,nan,nan,15
87401614,87401262,0.19394377,-0.17060485,-0.12164996,0.37254986,nan,nan,nan,nan,nan,nan,nan,nan,15
87502293,87501939,-0.019212553,0.18509811,0.16663085,-0.006686749,nan,nan,nan,nan,nan,nan,nan,nan,15
87601600,87601231,0.23207274,-0.2345696,-0.12760697,0.32579002,nan,nan,nan,nan,nan,nan,nan,nan,15
87702236,87701889,-0.16846319,0.29258442,0.19869499,-0.096259624,nan,nan,nan,nan,nan,nan,nan,nan,15
87801602,87801251,-0.031060696,0.038059905,-0.029219918,0.25541213,nan,nan,nan,nan,nan,nan,nan,nan,15
87902190,87901844,-0.1275854,0.22172105,-0.09039266,0.20713553,nan,nan,nan,nan,nan,nan,nan,nan,15
88001535,88001184,0.05572918,0.052180238,0.15961376,-0.03780481,nan,nan,nan,nan,nan,nan,nan,nan,15
88102174,88101830,0.051474236,0.01433872,-0.016985184,0.031731445,nan,nan,nan,nan,nan,nan,nan,nan,15
88201514,88201163,0.35363066,-0.08188638,-0.022922575,0.23117825,nan,nan,nan,nan,nan,nan,nan,nan,15
88302176,88301830,0.18100493,-0.07722823,0.32922342,0.046999875,nan,nan,nan,nan,nan,nan,nan,nan,15
88401424,88401079,0.061038796,0.19093122,0.21040636,0.109728046,nan,nan,nan,nan,nan,nan,nan,nan,15
88503469,88503119,0.08578959,0.070178546,0.11661719,0.20741464,nan,nan,nan,nan,nan,nan,nan,nan,15
88601437,88601089,0.45683098,-0.3072851,0.23914216,0.09131195,nan,nan,nan,nan,nan,nan,nan,nan,15
88702158,88701807,0.1111965,0.015266649,-0.043289974,0.3968268,nan,nan,nan,nan,nan,nan,nan,nan,15
88801407,88801061,-0.17156221,0.32260233,0.17584749,0.15311237,nan,nan,nan,nan,nan,nan,nan,nan,15
88902184,88901839,0.15435812,0.017364362,0.60192466,-0.2936472,nan,nan,nan,nan,nan,nan,nan,nan,15
89001329,89000983,-0.113843754,0.40845633,0.4184934,-0.23310597,nan,nan,nan,nan,nan,nan,nan,nan,15
89101960,89101614,0.31708816,0.0060052327,0.15755607,-0.0006494944,nan,nan,nan,nan,nan,nan,nan,nan,15
89201295,89200948,0.35178456,-0.21718019,0.16890834,0.17648727,nan,nan,nan,nan,nan,nan,nan,nan,15
89301980,89301629,0.08559545,0.13819394,0.31632313,-0.06011255,nan,nan,nan,nan,nan,nan,nan,nan,15
89401318,89400971,-0.0589309,0.17354405,-0.010396358,0.37578318,nan,nan,nan,nan,nan,nan,nan,nan,15
89501962,89501615,0.07543344,0.015772086,0.28640285,0.10239159,nan,nan,nan,nan,nan,nan,nan,nan,15
89601257,89600912,0.21614882,-0.16623431,0.17101468,0.25907075,nan,nan,nan,nan,nan,nan,nan,nan,15
89701917,89701570,0.2194003,-0.016545698,-0.29280582,0.5699512,nan,nan,nan,nan,nan,nan,nan,nan,15
89801215,89800870,-0.32769802,0.57222503,0.34994158,-0.11446863,nan,nan,nan,nan,nan,nan,nan,nan,15
89901875,89901524,0.37998933,-0.20343637,0.036981262,0.26646575,nan,nan,nan,nan,nan,nan,nan,nan,15
90001177,90000826,-0.26666155,0.494045,0.39599904,-0.14338247,nan,nan,nan,nan,nan,nan,nan,nan,15
90101871,90101523,0.14442123,0.01364573,-0.4316944,0.7536274,nan,nan,nan,nan,nan,nan,nan,nan,15
90201140,90200769,-0.357841,0.48695052,0.40715295,-0.05626244,nan,nan,nan,nan,nan,nan,nan,nan,15
90301807,90301456,0.38047758,-0.18525031,0.118783966,0.16598873,nan,nan,nan,nan,nan,nan,nan,nan,15
90401131,90400786,-0.19089513,0.3970683,0.19454895,0.07927786,nan,nan,nan,nan,nan,nan,nan,nan,15
90501804,90501459,0.4891656,-0.34791777,-0.043084864,0.38183698,nan,nan,nan,nan,nan,nan,nan,nan,15
90602366,90602019,-0.3059876,0.5258194,0.4769342,-0.21676601,nan,nan,nan,nan,nan,nan,nan,nan,15
90701713,90701363,0.24516085,-0.045309886,-0.38323024,0.6633793,nan,nan,nan,nan,nan,nan,nan,nan,15
90802346,90801998,-0.13037361,0.3503269,0.38993454,-0.12988783,nan,nan,nan,nan,nan,nan,nan,nan,15
90901712,90901363,0.23770067,-0.013047459,-0.07260376,0.3279505,nan,nan,nan,nan,nan,nan,nan,nan,15
91002335,91001990,0.14758597,0.115840785,0.0018086338,0.21476458,nan,nan,nan,nan,nan,nan,nan,nan,15
91101631,91101283,-0.027756233,0.16469945,0.13771538,0.20534137,nan,nan,nan,nan,nan,nan,nan,nan,15
91202302,91201950,-0.12591802,0.33038643,0.14104769,0.13448386,nan,nan,nan,nan,nan,nan,nan,nan,15
91301582,91301235,0.4781761,-0.2861612,-0.1646853,0.45267043,nan,nan,nan,nan,nan,nan,nan,nan,15
91402291,91401939,-0.15340184,0.48605987,0.51154447,-0.36420253,nan,nan,nan,nan,nan,nan,nan,nan,15
91501584,91501216,0.112864465,-0.07526647,-0.07592417,0.51832616,nan,nan,nan,nan,nan,nan,nan,nan,15
91602237,91601891,-0.14295161,0.40072104,0.31699166,-0.09476111,nan,nan,nan,nan,nan,nan,nan,nan,15
91701594,91701247,0.29075918,-0.13678049,0.027072182,0.2989491,nan,nan,nan,nan,nan,nan,nan,nan,15
91802207,91801861,-0.07871855,0.3215682,0.3713772,-0.13422686,nan,nan,nan,nan,nan,nan,nan,nan,15
91901534,91901160,0.4549477,-0.28095207,-0.40077028,0.70677465,nan,nan,nan,nan,nan,nan,nan,nan,15
92002194,92001848,0.025702113,0.4096318,0.3338678,-0.2892017,nan,nan,nan,nan,nan,nan,nan,nan,15
92101503,92101154,0.40651938,-0.22473364,-0.35436615,0.65258044,nan,nan,nan,nan,nan,nan,nan,nan,15
92202184,92201836,-0.27564493,0.50040984,0.47906467,-0.22382957,nan,nan,nan,nan,nan,nan,nan,nan,15
92301484,92301124,0.27635282,-0.117197536,-0.07779799,0.39864266,nan,nan,nan,nan,nan,nan,nan,nan,15
92402203,92401842,-0.2193792,0.5520061,0.30541635,-0.15804328,nan,nan,nan,nan,nan,nan,nan,nan,15
92501453,92501081,0.37391078,-0.25298885,-0.15956517,0.5186432,nan,nan,nan,nan,nan,nan,nan,nan,15
92602186,92601833,-0.24731934,0.55812585,0.42782557,-0.25863206,nan,nan,nan,nan,nan,nan,nan,nan,15
92701403,92701054,0.35684672,-0.09359526,-0.3802276,0.59697616,nan,nan,nan,nan,nan,nan,nan,nan,15
92802024,92801654,-0.29098204,0.5086159,0.4308242,-0.16845809,nan,nan,nan,nan,nan,nan,nan,nan,15
92901314,92900966,0.39245436,-0.14533822,-0.27659032,0.50947416,nan,nan,nan,nan,nan,nan,nan,nan,15
93001987,93001641,-0.08745504,0.46125084,0.26884553,-0.16264136,nan,nan,nan,nan,nan,nan,nan,nan,15
93101304,93100952,0.40890497,-0.21017578,-0.49855563,0.77982646,nan,nan,nan,nan,nan,nan,nan,nan,15
93202016,93201640,-0.2638658,0.5418691,0.3467316,-0.13287243,nan,nan,nan,nan,nan,nan,nan,nan,15
93301285,93300939,0.46904543,-0.20734967,-0.40228772,0.6299516,nan,nan,nan,nan,nan,nan,nan,nan,15
93401966,93401618,-0.14031641,0.42706755,0.34549227,-0.10443067,nan,nan,nan,nan,nan,nan,nan,nan,15
93501260,93500913,0.23487902,-0.08823618,-0.106869884,0.46587473,nan,nan,nan,nan,nan,nan,nan,nan,15
93601928,93601579,0.025191654,0.23780794,0.3672311,-0.054352943,nan,nan,nan,nan,nan,nan,nan,nan,15
93701191,93700847,0.17094718,0.026851684,0.08154366,0.3504615,nan,nan,nan,nan,nan,nan,nan,nan,15
93801871,93801520,0.30212924,0.12017249,0.09641495,0.130406,nan,nan,nan,nan,nan,nan,nan,nan,15
93901170,93900821,-0.21659936,0.42948285,0.5551492,-0.19684134,nan,nan,nan,nan,nan,nan,nan,nan,15
94001869,94001521,0.42083248,-0.2231202,-0.18923356,0.51189023,nan,nan,nan,nan,nan,nan,nan,nan,15
94101182,94100836,-0.19098125,0.4731836,0.2259364,-0.002947458,nan,nan,nan,nan,nan,nan,nan,nan,15
94201811,94201460,0.44620413,-0.1552178,-0.08517403,0.27418768,nan,nan,nan,nan,nan,nan,nan,nan,15
94301118,94300771,-0.13292067,0.43665144,0.47168157,-0.29541233,nan,nan,nan,nan,nan,nan,nan,nan,15
94401759,94401412,0.6139635,-0.37211543,-0.29700375,0.57581306,nan,nan,nan,nan,nan,nan,nan,nan,15
94502356,94502006,-0.32636333,0.62004507,0.6243567,-0.31700712,nan,nan,nan,nan,nan,nan,nan,nan,15
94601682,94601336,0.30954805,-0.111076966,-0.34159952,0.76199824,nan,nan,nan,nan,nan,nan,nan,nan,15
94702357,94702009,-0.24630123,0.4531674,0.632451,-0.22605689,nan,nan,nan,nan,nan,nan,nan,nan,15
94801639,94801291,0.39715588,-0.20102406,-0.41873217,0.8534688,nan,nan,nan,nan,nan,nan,nan,nan,15
94902323,94901968,-0.23771572,0.5912456,0.42976248,-0.15420087,nan,nan,nan,nan,nan,nan,nan,nan,15
95001627,95001280,0.33240908,-0.15723771,-0.35571152,0.7920536,nan,nan,nan,nan,nan,nan,nan,nan,15
95102326,95101958,-0.14286438,0.3352722,0.24225083,0.1882093,nan,nan,nan,nan,nan,nan,nan,nan,15
95201603,95201256,0.27146542,-0.008040146,-0.28404635,0.55482435,nan,nan,nan,nan,nan,nan,nan,nan,15
95302295,95301941,0.085661516,0.11004515,-0.0051120813,0.2894054,nan,nan,nan,nan,nan,nan,nan,nan,15
95401600,95401250,-0.035205804,0.21141723,0.4227839,-0.118995376,nan,nan,nan,nan,nan,nan,nan,nan,15
95502228,95501884,0.4647299,-0.1904595,-0.38865042,0.59438,nan,nan,nan,nan,nan,nan,nan,nan,15
95601514,95601163,-0.16452312,0.44542468,0.31411964,-0.11502119,nan,nan,nan,nan,nan,nan,nan,nan,15
95702182,95701837,0.3568725,-0.123873614,-0.17036942,0.4330891,nan,nan,nan,nan,nan,nan,nan,nan,15
95801533,95801159,-0.14777812,0.49058425,0.2760663,-0.10069483,nan,nan,nan,nan,nan,nan,nan,nan,15
95902140,95901795,0.35202423,-0.21027343,-0.32109445,0.7106655,nan,nan,nan,nan,nan,nan,nan,nan,15
96001449,96001102,-0.1519755,0.36126637,0.56157875,-0.18601406,nan,nan,nan,nan,nan,nan,nan,nan,15
96102174,96101828,0.58734256,-0.2736435,-0.055477258,0.34433764,nan,nan,nan,nan,nan,nan,nan,nan,15
96201471,96201120,-0.11425403,0.33186692,0.5090417,-0.08815131,nan,nan,nan,nan,nan,nan,nan,nan,15
96302152,96301799,0.39571914,0.010745619,-0.27195865,0.49656868,nan,nan,nan,nan,nan,nan,nan,nan,15
96401435,96401083,-0.13533606,0.55112755,0.45538217,-0.18322806,nan,nan,nan,nan,nan,nan,nan,nan,15
96502158,96501808,0.48785865,-0.2211448,-0.25913227,0.6577717,nan,nan,nan,nan,nan,nan,nan,nan,15
96601334,96600986,-0.3894547,0.6171108,0.5851991,-0.14432238,nan,nan,nan,nan,nan,nan,nan,nan,15
96701996,96701630,0.45881203,-0.17566225,-0.040021554,0.4044163,nan,nan,nan,nan,nan,nan,nan,nan,15
96801298,96800953,-0.1240835,0.4324979,0.45911852,-0.10478244,nan,nan,nan,nan,nan,nan,nan,nan,15
96901948,96901600,0.5355647,-0.22426358,-0.063437596,0.4192836,nan,nan,nan,nan,nan,nan,nan,nan,15
97001331,97000986,-0.2502252,0.35010707,0.44521302,0.11604731,nan,nan,nan,nan,nan,nan,nan,nan,15
97101977,97101624,0.045699175,0.19438861,0.069111586,0.33320192,nan,nan,nan,nan,nan,nan,nan,nan,15
97201290,97200941,0.45188484,-0.07583222,-0.3058541,0.5159082,nan,nan,nan,nan,nan,nan,nan,nan,15
97301945,97301598,-0.1315411,0.3901712,0.31739148,-0.0960216,nan,nan,nan,nan,nan,nan,nan,nan,15
97401254,97400908,0.33130974,-0.15365034,-0.25969315,0.5694601,nan,nan,nan,nan,nan,nan,nan,nan,15
97501870,97501521,-0.32075828,0.37134025,0.3101113,0.14524175,nan,nan,nan,nan,nan,nan,nan,nan,15
97601191,97600846,0.42149106,-0.18778865,-0.16618125,0.47479847,nan,nan,nan,nan,nan,nan,nan,nan,15
97701869,97701520,0.035544943,0.3311995,0.2953141,-0.09335089,nan,nan,nan,nan,nan,nan,nan,nan,15
97801194,97800846,0.4952274,-0.18434441,-0.13270245,0.3881021,nan,nan,nan,nan,nan,nan,nan,nan,15
97901782,97901435,0.18520698,0.096917056,0.16073573,0.1118289,nan,nan,nan,nan,nan,nan,nan,nan,15
98002464,98002114,-0.19610961,0.3818261,0.1966532,0.16174433,nan,nan,nan,nan,nan,nan,nan,nan,15
98101768,98101419,0.3312582,0.005238449,-0.16542467,0.36810055,nan,nan,nan,nan,nan,nan,nan,nan,15
98202449,98202100,-0.33047602,0.64225495,0.5497461,-0.32813302,nan,nan,nan,nan,nan,nan,nan,nan,15
98301759,98301414,0.3833422,-0.10249529,-0.2582368,0.5155127,nan,nan,nan,nan,nan,nan,nan,nan,15
98402358,98402008,-0.17660183,0.42802936,0.0672355,0.2868161,nan,nan,nan,nan,nan,nan,nan,nan,15
98501753,98501404,0.074972145,0.16394387,0.0017780901,0.37869582,nan,nan,nan,nan,nan,nan,nan,nan,15
98602311,98601961,-0.21269302,0.54274625,0.5971286,-0.3032337,nan,nan,nan,nan,nan,nan,nan,nan,15
98701660,98701313,0.2391488,-0.06737556,-0.053732615,0.48684016,nan,nan,nan,nan,nan,nan,nan,nan,15
98802312,98801964,-0.093775466,0.37354305,0.3204898,0.041341245,nan,nan,nan,nan,nan,nan,nan,nan,15
98901614,98901264,0.49965632,-0.13509198,-0.2237918,0.49159777,nan,nan,nan,nan,nan,nan,nan,nan,15
99002299,99001907,-0.008376926,0.4245904,-0.088890746,0.26012915,nan,nan,nan,nan,nan,nan,nan,nan,15
99101564,99101215,0.2651389,-0.040198956,-0.10374921,0.4535988,nan,nan,nan,nan,nan,nan,nan,nan,15
99202290,99201939,-0.036215425,0.20340048,0.38888785,0.026718955,nan,nan,nan,nan,nan,nan,nan,nan,15
99301562,99301216,0.1477768,0.15982813,0.1986855,0.0927838,nan,nan,nan,nan,nan,nan,nan,nan,15
99402180,99401830,0.22743315,0.09669277,-0.16299711,0.4195499,nan,nan,nan,nan,nan,nan,nan,nan,15
99501509,99501160,-0.1786494,0.5655809,0.13928108,0.0727206,nan,nan,nan,nan,nan,nan,nan,nan,15
99602177,99601831,0.099294715,0.07449386,0.09226821,0.3162381,nan,nan,nan,nan,nan,nan,nan,nan,15
99701538,99701161,0.008284915,0.23392373,0.5198083,-0.16587226,nan,nan,nan,nan,nan,nan,nan,nan,15
99802178,99801832,0.3838278,-0.10665494,-0.24500085,0.52592736,nan,nan,nan,nan,nan,nan,nan,nan,15
99901496,99901148,-0.30051044,0.5601738,0.42453054,-0.12188777,nan,nan,nan,nan,nan,nan,nan,nan,15
100002176,100001828,0.34715754,-0.110233024,-0.38086724,0.68401694,nan,nan,nan,nan,nan,nan,nan,nan,15
100101478,100101126,-0.14578927,0.43537146,0.32323626,-0.07087631,nan,nan,nan,nan,nan,nan,nan,nan,15
100202145,100201798,0.13120127,-0.07519082,-0.08048818,0.55792975,nan,nan,nan,nan,nan,nan,nan,nan,15
100301450,100301079,-0.26411796,0.4943024,0.4847784,-0.13061035,nan,nan,nan,nan,nan,nan,nan,nan,15
100402009,100401659,0.38130748,-0.16339386,-0.049615286,0.41093278,nan,nan,nan,nan,nan,nan,nan,nan,15
100501339,100500990,-0.12779655,0.2881654,0.48814437,-0.051481035,nan,nan,nan,nan,nan,nan,nan,nan,15
100602021,100601626,0.30440593,-0.053714387,-0.13575906,0.4844547,nan,nan,nan,nan,nan,nan,nan,nan,15
100701336,100700986,-0.14497432,0.48855492,0.29841897,0.010861667,nan,nan,nan,nan,nan,nan,nan,nan,15
100802001,100801654,0.45186406,-0.15510024,-0.1543612,0.50209475,nan,nan,nan,nan,nan,nan,nan,nan,15
100901251,100900906,-0.041517146,0.38422763,0.48432183,-0.18229829,nan,nan,nan,nan,nan,nan,nan,nan,15
101001942,101001565,0.32250437,-0.07496287,-0.08843672,0.48948818,nan,nan,nan,nan,nan,nan,nan,nan,15
101101284,101100939,0.06225539,0.37238905,0.32734513,-0.0981839,nan,nan,nan,nan,nan,nan,nan,nan,15
101201930,101201587,0.14831185,0.08164542,-0.0431854,0.5024268,nan,nan,nan,nan,nan,nan,nan,nan,15
101301254,101300908,0.009853768,0.26049507,0.45514342,-0.02691645,nan,nan,nan,nan,nan,nan,nan,nan,15
101401867,101401520,0.36945906,-0.019987809,-0.027318394,0.36850137,nan,nan,nan,nan,nan,nan,nan,nan,15
101501193,101500847,0.30988058,0.003587666,0.1941007,0.1853716,nan,nan,nan,nan,nan,nan,nan,nan,15
101601890,101601519,0.35351282,-0.07644955,-0.023961259,0.46177575,nan,nan,nan,nan,nan,nan,nan,nan,15
101701193,101700845,-0.23332605,0.40230674,0.33767802,0.1963522,nan,nan,nan,nan,nan,nan,nan,nan,15
101801802,101801456,-0.16269663,0.42211643,0.17717753,0.21448699,nan,nan,nan,nan,nan,nan,nan,nan,15
101902454,101902109,0.3910189,-0.08782017,-0.16444518,0.47708756,nan,nan,nan,nan,nan,nan,nan,nan,15
102001773,102001426,-0.20287967,0.41347182,0.2391258,0.1770314,nan,nan,nan,nan,nan,nan,nan,nan,15
102101089,102100741,0.41810122,-0.14554833,-0.31295118,0.6455671,nan,nan,nan,nan,nan,nan,nan,nan,15
102201723,102201371,-0.24520575,0.50819844,0.5905243,-0.21211459,nan,nan,nan,nan,nan,nan,nan,nan,15
102302356,102302006,0.53121233,-0.18587227,-0.31500298,0.6211971,nan,nan,nan,nan,nan,nan,nan,nan,15
102401656,102401309,-0.046980243,0.4727602,0.19348219,0.06723101,nan,nan,nan,nan,nan,nan,nan,nan,15
102502367,102502015,0.14969474,0.097632036,-0.4079428,0.82126653,nan,nan,nan,nan,nan,nan,nan,nan,15
102601639,102601290,-0.31560352,0.57710594,0.19356799,0.23445891,nan,nan,nan,nan,nan,nan,nan,nan,15
102702319,102701967,0.48936808,-0.15701818,-0.050717074,0.34541482,nan,nan,nan,nan,nan,nan,nan,nan,15
102801620,102801275,-0.03585842,0.3737409,0.101378165,0.04073933,nan,nan,nan,nan,nan,nan,nan,nan,15
102902278,102901908,0.31353077,-0.025961697,-0.22783428,0.4202652,nan,nan,nan,nan,nan,nan,nan,nan,15
103001605,103001256,-0.120095,0.25318906,0.29487512,0.052030817,nan,nan,nan,nan,nan,nan,nan,nan,15
103102297,103101939,0.3076287,-0.14976622,-0.34677783,0.6967949,nan,nan,nan,nan,nan,nan,nan,nan,15
103201562,103201216,-0.15645134,0.43837374,0.4341942,-0.17117044,nan,nan,nan,nan,nan,nan,nan,nan,15
103302176,103301832,0.31415254,-0.22675557,-0.1313112,0.6080204,nan,nan,nan,nan,nan,nan,nan,nan,15
103401513,103401164,-0.22589968,0.5496179,0.44312736,-0.14386581,nan,nan,nan,nan,nan,nan,nan,nan,15
103502175,103501830,0.4771238,-0.17109239,-0.24882783,0.56103337,nan,nan,nan,nan,nan,nan,nan,nan,15
103601534,103601158,-0.076129474,0.5173999,0.51773393,-0.34193215,nan,nan,nan,nan,nan,nan,nan,nan,15
103702149,103701804,0.41637257,-0.13752392,-0.2926335,0.6427509,nan,nan,nan,nan,nan,nan,nan,nan,15
103801466,103801116,0.10331402,0.15562026,0.21592735,0.14667463,nan,nan,nan,nan,nan,nan,nan,nan,15
103902241,103901869,0.11829622,0.08492626,0.21451135,0.18549177,nan,nan,nan,nan,nan,nan,nan,nan,15
104001381,104001036,0.15850285,0.14717789,0.33580396,-0.027423063,nan,nan,nan,nan,nan,nan,nan,nan,15
104102185,104101830,0.23855226,-0.0532138,-0.05608025,0.51801485,nan,nan,nan,nan,nan,nan,nan,nan,15
104201424,104201053,0.025516842,0.30939233,0.33583647,0.011572278,nan,nan,nan,nan,nan,nan,nan,nan,15
104302164,104301808,0.20922406,-0.020414487,-0.16628253,0.6567131,nan,nan,nan,nan,nan,nan,nan,nan,15
104401399,104401052,0.21491553,0.087914005,0.05353204,0.28543782,nan,nan,nan,nan,nan,nan,nan,nan,15
104501997,104501650,0.05970337,0.12307634,0.1591126,0.31227654,nan,nan,nan,nan,nan,nan,nan,nan,15
104601342,104600989,0.430001,-0.084439084,0.052533824,0.26207706,nan,nan,nan,nan,nan,nan,nan,nan,15
104701967,104701615,-0.09804794,0.44139823,0.28781927,0.053909913,nan,nan,nan,nan,nan,nan,nan,nan,15
104801277,104800932,0.47087002,-0.19929956,0.013266202,0.36086023,nan,nan,nan,nan,nan,nan,nan,nan,15
104901943,104901573,-0.22280219,0.6179523,0.38660786,-0.1412079,nan,nan,nan,nan,nan,nan,nan,nan,15
105001285,105000939,0.083128706,0.20630735,0.1155289,0.19208765,nan,nan,nan,nan,nan,nan,nan,nan,15
105101871,105101524,0.19600162,0.033220895,-0.054866813,0.40344006,nan,nan,nan,nan,nan,nan,nan,nan,15
105201178,105200832,-0.030077891,0.28438905,0.293811,0.06070342,nan,nan,nan,nan,nan,nan,nan,nan,15
105301868,105301520,0.17728385,0.12281306,-0.16027974,0.47275892,nan,nan,nan,nan,nan,nan,nan,nan,15
105401182,105400834,0.051303428,0.24759029,0.03593881,0.29889828,nan,nan,nan,nan,nan,nan,nan,nan,15
105501894,105501522,0.08127441,0.08417324,-0.030983282,0.5164901,nan,nan,nan,nan,nan,nan,nan,nan,15
105601140,105600794,-0.08988641,0.43029952,0.3500019,-0.028514339,nan,nan,nan,nan,nan,nan,nan,nan,15
105701773,105701427,0.3622876,-0.1206008,-0.22303696,0.59852976,nan,nan,nan,nan,nan,nan,nan,nan,15
105802458,105802108,-0.04081736,0.3368852,0.20381871,0.1441843,nan,nan,nan,nan,nan,nan,nan,nan,15
105901726,105901375,0.44219428,-0.084157884,-0.33136988,0.5674966,nan,nan,nan,nan,nan,nan,nan,nan,15
106001108,106000761,-0.08451282,0.32448348,-0.1363974,0.4490544,nan,nan,nan,nan,nan,nan,nan,nan,15
106101742,106101389,0.1744463,0.09341956,0.25538287,0.025209315,nan,nan,nan,nan,nan,nan,nan,nan,15
106202343,106201995,0.4898953,-0.19113414,0.23590964,0.006922595,nan,nan,nan,nan,nan,nan,nan,nan,15
106301691,106301336,-0.20070027,0.4550223,0.47573057,-0.19770159,nan,nan,nan,nan,nan,nan,nan,nan,15
106402354,106402002,0.33660206,-0.05634061,-0.4050959,0.6586303,nan,nan,nan,nan,nan,nan,nan,nan,15
106501666,106501318,-0.28252932,0.53872144,0.30527464,0.0061100265,nan,nan,nan,nan,nan,nan,nan,nan,15
106602341,106601992,0.640297,-0.28376946,-0.18829778,0.36243448,nan,nan,nan,nan,nan,nan,nan,nan,15
106701584,106701238,-0.14531003,0.38267642,0.13611203,0.17168139,nan,nan,nan,nan,nan,nan,nan,nan,15
106802280,106801908,0.22739889,0.0010508873,-0.118109494,0.44537312,nan,nan,nan,nan,nan,nan,nan,nan,15
106901570,106901220,-0.446382,0.37978238,0.18615492,-0.11555533,nan,nan,nan,nan,nan,nan,nan,nan,15
107002209,107001862,-0.8349883,0.7168886,0.43980426,-0.31770462,nan,nan,nan,nan,nan,nan,nan,nan,15
107101557,107101202,-1.0,0.9283936,0.49912333,-0.423517,nan,nan,nan,nan,nan,nan,nan,nan,15
107202181,107201832,-1.0,1.0,0.398062,-0.39806217,nan,nan,nan,nan,nan,nan,nan,nan,15
107301527,107301171,-1.0,1.0,0.3238576,-0.32385775,nan,nan,nan,nan,nan,nan,nan,nan,15
107402182,107401835,-0.42041183,0.42041135,1.0,-1.0,nan,nan,nan,nan,nan,nan,nan,nan,15
107501514,107501163,-0.055501636,0.9080269,0.09939151,-0.9479168,nan,nan,nan,nan,nan,nan,nan,nan,15
107602178,107601829,-0.89204484,0.83752185,0.87435824,-0.8158353,nan,nan,nan,nan,nan,nan,nan,nan,15
107701446,107701099,-0.5301119,0.6583282,0.59641814,-0.72063446,nan,nan,nan,nan,nan,nan,nan,nan,15
107802179,107801887,-0.5747622,0.6573316,0.63247395,-0.71104336,nan,nan,nan,nan,nan,nan,nan,nan,15
