timestamp,timestamp_sample,control_mode_flags,output_tracking_error[0],output_tracking_error[1],output_tracking_error[2],filter_fault_flags,pos_horiz_accuracy,pos_vert_accuracy,mag_test_ratio,vel_test_ratio,pos_test_ratio,hgt_test_ratio,tas_test_ratio,hagl_test_ratio,beta_test_ratio,time_slip,accel_device_id,gyro_device_id,baro_device_id,mag_device_id,mag_inclination_deg,mag_inclination_ref_deg,mag_strength_gs,mag_strength_ref_gs,gps_check_fail_flags,innovation_check_flags,solution_status_flags,reset_count_vel_ne,reset_count_vel_d,reset_count_pos_ne,reset_count_pod_d,reset_count_quat,pre_flt_fail_innov_heading,pre_flt_fail_innov_vel_horiz,pre_flt_fail_innov_vel_vert,pre_flt_fail_innov_height,pre_flt_fail_mag_field_disturbed,health_flags,timeout_flags
80398307,80291291,171865803351,0.00015596885,0.0035532014,0.0054095765,0,0.33212298,0.25372583,0.0,0.056339398,0.02237539,0.029392209,0.0,nan,0.0,0.0,2621474,2621474,3997730,8944899,72.45882,58.358376,0.45093635,0.46025112,0,0,895,2,2,2,2,2,0,0,0,0,0,0,0
80408715,80301832,171865803351,0.00015587635,0.003389316,0.0052794726,0,0.33297786,0.25422767,0.0,0.056339398,0.02237539,0.029392209,0.0,nan,0.0,0.0,2621474,2621474,3997730,8944899,72.45882,58.358376,0.45093635,0.46025112,0,0,895,2,2,2,2,2,0,0,0,0,0,0,0
80599918,80492529,171798694487,6.99106e-05,0.0013525699,0.004011844,0,0.332149,0.25357005,0.0,0.014057854,0.024704743,0.029657729,0.0,nan,0.0,0.0,2621474,2621474,3997730,8944899,70.9027,58.358376,0.4567825,0.46025112,0,0,895,2,2,2,2,2,0,0,0,0,0,0,0
80800545,80693849,171798694487,0.00012832938,0.0032470464,0.0030342157,0,0.3322446,0.25344402,0.0,0.045728832,0.023735331,0.028566886,0.0,nan,0.0,0.0,2621474,2621474,3997730,8944899,71.428635,58.358376,0.45779338,0.46025112,0,0,895,2,2,2,2,2,0,0,0,0,0,0,0
81001885,80895150,171798694487,0.000103541075,0.0023663603,0.0030409354,0,0.33241805,0.25333852,0.0,0.056566104,0.02391044,0.035374932,0.0,nan,0.0,0.0,2621474,2621474,3997730,8944899,71.339195,58.358376,0.4556689,0.46025112,0,0,895,2,2,2,2,2,0,0,0,0,0,0,0
81192632,81085825,171798694487,0.00013463672,0.0043668705,0.008162017,0,0.33169964,0.2527223,0.0,0.025334207,0.025711035,0.030552462,0.0,nan,0.0,0.0,2621474,2621474,3997730,8944899,70.99285,58.358376,0.45721608,0.46025112,0,0,895,2,2,2,2,2,0,0,0,0,0,0,0
81393822,81287121,171798694487,0.0002117474,0.007062644,0.012608463,0,0.33184683,0.25261253,0.0,0.03196022,0.025182188,0.03171322,0.0,nan,0.0,0.0,2621474,2621474,3997730,8944899,72.39207,58.358376,0.45533144,0.46025112,0,0,895,2,2,2,2,2,0,0,0,0,0,0,0
81595115,81488419,171798694487,0.00018890161,0.0034880987,0.0070201424,0,0.33198372,0.25252178,0.0,0.037233554,0.027308041,0.03330736,0.0,nan,0.0,0.0,2621474,2621474,3997730,8944899,71.86772,58.358376,0.45206708,0.46025112,0,0,895,2,2,2,2,2,0,0,0,0,0,0,0
81796443,81689655,171798694487,0.0001059993,0.004261065,0.008688255,0,0.3321228,0.25244617,0.0,0.019379431,0.02633929,0.033124536,0.0,nan,0.0,0.0,2621474,2621474,3997730,8944899,71.369865,58.358376,0.45630437,0.46025112,0,0,895,2,2,2,2,2,0,0,0,0,0,0,0
81997708,81890946,171798694487,9.6981064e-05,0.003451245,0.0062203305,0,0.33232352,0.25241065,0.0,0.018952064,0.026512794,0.027673464,0.0,nan,0.0,0.0,2621474,2621474,3997730,8944899,71.14378,58.358376,0.45397595,0.46025112,0,0,895,2,2,2,2,2,0,0,0,0,0,0,0
82199037,82092241,171798694487,7.995667e-05,0.0026621323,0.0070894537,0,0.33252636,0.2523899,0.0,0.02087908,0.028042708,0.028971862,0.0,nan,0.0,0.0,2621474,2621474,3997730,8944899,70.65059,58.358376,0.45843345,0.46025112,0,0,895,2,2,2,2,2,0,0,0,0,0,0,0
82400297,82293581,171798694487,3.6464662e-05,0.001854978,0.0041546132,0,0.33266982,0.25236145,0.0,0.024894308,0.025937237,0.032345243,0.0,nan,0.0,0.0,2621474,2621474,3997730,8944899,71.46528,58.358376,0.45483297,0.46025112,0,0,895,2,2,2,2,2,0,0,0,0,0,0,0
82601550,82494846,171798694487,1.7944767e-05,0.0011653648,0.0041182027,0,0.33281386,0.2523486,0.0,0.022331264,0.026636263,0.027689967,0.0,nan,0.0,0.0,2621474,2621474,3997730,8944899,71.24686,58.358376,0.45743376,0.46025112,0,0,895,2,2,2,2,2,0,0,0,0,0,0,0
82792312,82685579,171798694487,0.0001366808,0.004947195,0.009634602,0,0.33215973,0.25252017,0.0,0.024456315,0.02735425,0.03498576,0.0,nan,0.0,0.0,2621474,2621474,3997730,8944899,70.75153,58.358376,0.45857364,0.46025112,0,0,895,2,2,2,2,2,0,0,0,0,0,0,0
82993570,82886832,171798694487,0.00014927973,0.0038971172,0.009326785,0,0.33235788,0.2525468,0.0,0.036057293,0.028323853,0.0210035,0.0,nan,0.0,0.0,2621474,2621474,3997730,8944899,71.25014,58.358376,0.45793268,0.46025112,0,0,895,2,2,2,2,2,0,0,0,0,0,0,0
83194900,83088151,171798694487,0.000120696364,0.0047939983,0.01121689,0,0.3325445,0.252587,0.0,0.023324836,0.030129874,0.025877092,0.0,nan,0.0,0.0,2621474,2621474,3997730,8944899,71.8183,58.358376,0.45399442,0.46025112,0,0,895,2,2,2,2,2,0,0,0,0,0,0,0
83396161,83289399,171798694487,5.241517e-05,0.002186956,0.008173414,0,0.33270928,0.25262007,0.0,0.014069428,0.028747475,0.028895898,0.0,nan,0.0,0.0,2621474,2621474,3997730,8944899,70.92013,58.358376,0.45779154,0.46025112,0,0,895,2,2,2,2,2,0,0,0,0,0,0,0
83597433,83490685,171798694487,5.2169857e-05,0.0023125536,0.0078875,0,0.3327943,0.25263628,0.0,0.017059106,0.029074937,0.022758573,0.0,nan,0.0,0.0,2621474,2621474,3997730,8944899,70.963684,58.358376,0.45542,0.46025112,0,0,895,2,2,2,2,2,0,0,0,0,0,0,0
83798839,83691986,171798694487,7.770442e-05,0.0023690304,0.0025369828,0,0.33300567,0.25270322,0.0,0.03252579,0.026918167,0.04417693,0.0,nan,0.0,0.0,2621474,2621474,3997730,8944899,71.401245,58.358376,0.45540228,0.46025112,0,0,895,2,2,2,2,2,0,0,0,0,0,0,0
84000053,83893326,171798694487,9.220232e-05,0.0030181122,0.004054094,0,0.33320403,0.25276887,0.0,0.020575495,0.028084148,0.037806332,0.0,nan,0.0,0.0,2621474,2621474,3997730,8944899,70.72987,58.358376,0.4582429,0.46025112,0,0,895,2,2,2,2,2,0,0,0,0,0,0,0
84201313,84094563,171798694487,0.0001223277,0.003538802,0.006767847,0,0.33337787,0.2528308,0.0,0.052580852,0.029116843,0.03333621,0.0,nan,0.0,0.0,2621474,2621474,3997730,8944899,71.662636,58.358376,0.44978407,0.46025112,0,0,895,2,2,2,2,2,0,0,0,0,0,0,0
84402569,84295851,171798694487,0.00010916499,0.0026579942,0.0051062885,0,0.33354023,0.2528913,0.0,0.019145442,0.027777916,0.030080698,0.0,nan,0.0,0.0,2621474,2621474,3997730,8944899,71.03246,58.358376,0.45367995,0.46025112,0,0,895,2,2,2,2,2,0,0,0,0,0,0,0
84593545,84486578,171798694487,0.00018913842,0.005106667,0.0060492666,0,0.33285433,0.25245318,0.0,0.05078324,0.027213864,0.029267633,0.0,nan,0.0,0.0,2621474,2621474,3997730,8944899,71.11382,58.358376,0.4549307,0.46025112,0,0,895,2,2,2,2,2,0,0,0,0,0,0,0
84794942,84687827,171798694487,2.8119895e-05,0.0010193874,0.002276509,0,0.33300474,0.25252822,0.0,0.03737113,0.027434142,0.025394466,0.0,nan,0.0,0.0,2621474,2621474,3997730,8944899,70.42668,58.358376,0.45634034,0.46025112,0,0,895,2,2,2,2,2,0,0,0,0,0,0,0
84996184,84889135,171798694487,5.6437155e-05,0.0029399246,0.0054374957,0,0.33314627,0.2526049,0.0,0.0483257,0.029028224,0.024878804,0.0,nan,0.0,0.0,2621474,2621474,3997730,8944899,71.07782,58.358376,0.4554589,0.46025112,0,0,895,2,2,2,2,2,0,0,0,0,0,0,0
85197199,85090401,171798694487,9.440906e-05,0.0031923184,0.004471041,0,0.33329177,0.25268394,0.0,0.041094635,0.027201029,0.017296467,0.0,nan,0.0,0.0,2621474,2621474,3997730,8944899,71.14626,58.358376,0.4551515,0.46025112,0,0,895,2,2,2,2,2,0,0,0,0,0,0,0
85398510,85291798,171798694487,0.00023216015,0.005011348,0.0072247647,0,0.33343557,0.25276715,0.0,0.032920353,0.028318835,0.024540007,0.0,nan,0.0,0.0,2621474,2621474,3997730,8944899,71.80406,58.358376,0.44907948,0.46025112,0,0,895,2,2,2,2,2,0,0,0,0,0,0,0
85599869,85493057,171799743191,0.00068462687,0.00666993,0.013177086,0,0.33358055,0.25284734,0.0,0.033277668,0.032303397,0.065581605,0.0,nan,0.0,0.0,2621474,2621474,3997730,8944899,73.65681,58.358376,0.42425853,0.46025112,0,0,831,2,2,2,2,2,0,0,0,0,0,0,0
85801062,85694334,171799743191,0.0002334638,0.0022468225,0.0054711667,0,0.33377078,0.25295728,0.0,0.017012572,0.033260133,0.038234457,0.0,nan,0.0,0.0,2621474,2621474,3997730,8944899,74.57873,58.358376,0.43518105,0.46025112,0,0,831,2,2,2,2,2,0,0,0,0,0,0,0
86002377,85895583,171799743191,0.00034437835,0.0045748227,0.008140963,0,0.3339491,0.25306454,0.0,0.023285668,0.032284226,0.03526205,0.0,nan,0.0,0.0,2621474,2621474,3997730,8944899,72.11467,58.358376,0.40575796,0.46025112,0,0,831,2,2,2,2,2,0,0,0,0,0,0,0
86192916,86086319,171799743191,0.0009855857,0.010819506,0.020640222,0,0.33327308,0.25332883,0.0,0.051900145,0.030577157,0.04190234,0.0,nan,0.0,0.0,2621474,2621474,3997730,8944899,69.946106,58.358376,0.38963762,0.46025112,0,0,831,2,2,2,2,2,0,0,0,0,0,0,0
86394421,86287560,171799743191,0.0024940039,0.019303637,0.034095958,0,0.33340025,0.2534336,0.0,0.07886793,0.03205301,0.06480721,0.0,nan,0.0,0.0,2621474,2621474,3997730,8944899,72.27351,58.358376,0.38479242,0.46025112,0,0,831,2,2,2,2,2,0,0,0,0,0,0,0
86595586,86488862,171799743191,0.004389194,0.020382926,0.03497266,0,0.33336407,0.25348455,0.0,0.07972372,0.031326916,0.05887893,0.0,nan,0.0,0.0,2621474,2621474,3997730,8944899,72.57655,58.358376,0.44675562,0.46025112,0,0,831,2,2,2,2,2,0,0,0,0,0,0,0
86796964,86690153,171799743191,0.007206697,0.021935923,0.03893696,0,0.33335575,0.2535505,0.0,0.06808242,0.031573556,0.057090096,0.0,nan,0.0,0.0,2621474,2621474,3997730,8944899,73.13154,58.358376,0.4214903,0.46025112,0,0,831,2,2,2,2,2,0,0,0,0,0,0,0
86998505,86891454,171799743191,0.0046760873,0.01664951,0.030186048,0,0.33335972,0.2536365,0.0,0.042799022,0.029979447,0.038799897,0.0,nan,0.0,0.0,2621474,2621474,3997730,8944899,75.96507,58.358376,0.45768514,0.46025112,0,0,831,2,2,2,2,2,0,0,0,0,0,0,0
87200097,87092720,171799743191,0.0036270795,0.015591089,0.031291064,0,0.33337033,0.2537312,0.0,0.07935024,0.03186526,0.03261277,0.0,nan,0.0,0.0,2621474,2621474,3997730,8944899,74.527794,58.358376,0.4917389,0.46025112,0,0,831,2,2,2,2,2,0,0,0,0,0,0,0
87400786,87294006,171799743191,0.00015982796,0.0031782782,0.013164498,0,0.33334503,0.25383627,0.0,0.033554476,0.028460147,0.04182485,0.0,nan,0.0,0.0,2621474,2621474,3997730,8944899,76.39578,58.358376,0.47413376,0.46025112,0,0,831,2,2,2,2,2,0,0,0,0,0,0,0
87602012,87495294,171799743191,0.06114499,0.011179076,0.0141072655,0,0.33323243,0.25392893,0.35254392,0.05196765,0.024422944,0.032078594,0.0,nan,0.0,0.0,2621474,2621474,3997730,8944899,76.591896,58.358376,0.51853013,0.46025112,0,0,831,2,2,2,2,2,0,0,0,0,0,0,0
87792628,87685999,171799743191,0.022873674,0.020423744,0.027013026,0,0.3323452,0.25355098,0.0,0.065689266,0.024105167,0.02824716,0.0,nan,0.0,0.0,2621474,2621474,3997730,8944899,78.82875,58.358376,0.5337918,0.46025112,0,0,831,2,2,2,2,2,0,0,0,0,0,0,0
87994012,87887330,171799743191,0.0015550185,0.016081324,0.02632614,0,0.33231926,0.2536827,0.0,0.044403963,0.024172897,0.030357676,0.0,nan,0.0,0.0,2621474,2621474,3997730,8944899,78.4132,58.358376,0.52566457,0.46025112,0,0,831,2,2,2,2,2,0,0,0,0,0,0,0
88195216,88088631,171799743191,0.0014992834,0.008485395,0.018522158,0,0.33234906,0.25384033,0.0,0.03164629,0.023577932,0.030419324,0.0,nan,0.0,0.0,2621474,2621474,3997730,8944899,75.312935,58.358376,0.5302203,0.46025112,0,0,831,2,2,2,2,2,0,0,0,0,0,0,0
88396575,88289902,171799743191,0.0012774013,0.010763632,0.019461863,0,0.3322893,0.25397155,0.0,0.042347737,0.021930603,0.0466531,0.0,nan,0.0,0.0,2621474,2621474,3997730,8944899,76.8141,58.358376,0.52839994,0.46025112,0,0,831,2,2,2,2,2,0,0,0,0,0,0,0
88597828,88491162,171799743191,0.044220276,0.07798153,0.08785955,0,0.332189,0.2541175,0.0,0.27641562,0.028118292,0.038873542,0.0,nan,0.0,0.0,2621474,2621474,3997730,8944899,71.10031,58.358376,0.47760114,0.46025112,0,0,831,2,2,2,2,2,0,0,0,0,0,0,0
88799117,88692431,34360789703,0.047516834,0.093760334,0.108891934,0,0.3322361,0.25427276,0.0,0.28465015,0.033974744,0.030385047,0.0,nan,0.0,0.0,2621474,2621474,3997730,8944899,61.672207,58.358376,0.42526764,0.46025112,0,0,831,2,2,2,2,2,0,0,0,0,0,0,0
89000416,88893712,34360789703,0.0070846104,0.036479365,0.055665646,0,0.33238178,0.25443068,0.0,0.15114592,0.022227334,0.027958797,0.0,nan,0.0,0.0,2621474,2621474,3997730,8944899,61.202713,58.358376,0.42143533,0.46025112,0,0,831,2,2,2,2,2,0,0,0,0,0,0,0
89201669,89095034,34369178311,0.0072786035,0.0123403445,0.011864895,0,0.33261055,0.25459832,0.0,0.13595647,0.017222676,0.02501056,0.0,nan,0.0,0.0,2621474,2621474,3997730,8944899,59.24826,58.358376,0.41682044,0.46025112,0,0,831,2,2,2,2,2,0,0,0,0,0,0,0
89392524,89285725,34369178311,0.021756524,0.04744025,0.052668452,0,0.3319328,0.254256,0.0,0.16173373,0.013320285,0.029099463,0.0,nan,0.0,0.0,2621474,2621474,3997730,8944899,62.846527,58.358376,0.39399794,0.46025112,0,0,831,2,2,2,2,2,0,0,0,0,0,0,0
89593911,89487058,34369178311,0.014956068,0.036730926,0.050924137,0,0.33220392,0.25443733,0.0,0.090029284,0.014988054,0.027519934,0.0,nan,0.0,0.0,2621474,2621474,3997730,8944899,66.734184,58.358376,0.44250205,0.46025112,0,0,831,2,2,2,2,2,0,0,0,0,0,0,0
89795047,89688324,34369178311,0.008922576,0.027017724,0.04480452,0,0.33236548,0.2553061,0.0,0.050236013,0.012994097,0.023653029,0.0,nan,0.0,0.0,2621474,2621474,3997730,8944899,65.07605,58.358376,0.3598026,0.46025112,0,0,831,2,2,2,2,2,0,0,0,0,0,0,0
89996312,89889601,34369178311,0.009331842,0.03167264,0.053059842,0,0.33254585,0.25554848,0.0,0.09600065,0.014526138,0.035578955,0.0,nan,0.0,0.0,2621474,2621474,3997730,8944899,61.47532,58.358376,0.37979802,0.46025112,0,0,831,2,2,2,2,2,0,0,0,0,0,0,0
90197619,90090939,34369178311,0.016279336,0.038840383,0.05606183,0,0.332586,0.25578558,0.0,0.097347334,0.01612006,0.023770249,0.0,nan,0.0,0.0,2621474,2621474,3997730,8944899,67.94965,58.358376,0.32933262,0.46025112,0,0,831,2,2,2,2,2,0,0,0,0,0,0,0
90398854,90292216,34369178311,0.011196916,0.02791782,0.04722902,0,0.33260423,0.25604847,0.0,0.11698369,0.01733255,0.027576583,0.0,nan,0.0,0.0,2621474,2621474,3997730,8944899,65.62001,58.358376,0.3507691,0.46025112,0,0,831,2,2,2,2,2,0,0,0,0,0,0,0
90600207,90493478,34369178311,0.009280431,0.021447537,0.040517863,0,0.3324964,0.25631005,0.0,0.08611508,0.015949791,0.02598987,0.0,nan,0.0,0.0,2621474,2621474,3997730,8944899,58.070354,58.358376,0.35754842,0.46025112,0,0,831,2,2,2,2,2,0,0,0,0,0,0,0
90801374,90694788,34369178311,0.0021531957,0.017242987,0.028353402,0,0.33248353,0.25660947,0.0,0.07897791,0.02049575,0.026074039,0.0,nan,0.0,0.0,2621474,2621474,3997730,8944899,59.905914,58.358376,0.34965873,0.46025112,0,0,831,2,2,2,2,2,0,0,0,0,0,0,0
91002729,90896031,34369178311,0.004620983,0.019083122,0.03038444,0,0.332439,0.25691274,0.0,0.06225763,0.021959476,0.023965714,0.0,nan,0.0,0.0,2621474,2621474,3997730,8944899,66.333755,58.358376,0.31958157,0.46025112,0,0,831,2,2,2,2,2,0,0,0,0,0,0,0
91193552,91086799,34369178311,0.0036982128,0.01050149,0.023816034,0,0.33154887,0.2567131,0.0,0.07420103,0.021098575,0.03313862,0.0,nan,0.0,0.0,2621474,2621474,3997730,8944899,65.90083,58.358376,0.3482419,0.46025112,0,0,831,2,2,2,2,2,0,0,0,0,0,0,0
91395130,91288088,34369178311,0.0033849766,0.015212897,0.024682846,0,0.33145782,0.2570144,0.0,0.11093111,0.020526594,0.02917762,0.0,nan,0.0,0.0,2621474,2621474,3997730,8944899,64.2594,58.358376,0.42698982,0.46025112,0,0,831,2,2,2,2,2,0,0,0,0,0,0,0
91596424,91489334,34369178311,0.0022465298,0.009958042,0.013438274,0,0.33128938,0.25728753,0.0,0.067634344,0.023246374,0.025742369,0.0,nan,0.0,0.0,2621474,2621474,3997730,8944899,66.06229,58.358376,0.39176208,0.46025112,0,0,831,2,2,2,2,2,0,0,0,0,0,0,0
91797395,91690668,34369178311,0.0056007532,0.0066311555,0.014392105,0,0.33107904,0.2575482,0.0,0.07243852,0.023070194,0.03335529,0.0,nan,0.0,0.0,2621474,2621474,3997730,8944899,65.24241,58.358376,0.36132756,0.46025112,0,0,831,2,2,2,2,2,0,0,0,0,0,0,0
91998770,91891919,34369178311,0.001456119,0.00740783,0.021110322,0,0.33078054,0.25777617,0.0,0.08913611,0.020045057,0.041360486,0.0,nan,0.0,0.0,2621474,2621474,3997730,8944899,59.134266,58.358376,0.38168105,0.46025112,0,0,831,2,2,2,2,2,0,0,0,0,0,0,0
92200047,92093156,34369178311,0.0016599525,0.013021517,0.020191161,0,0.3305734,0.25801122,0.0,0.08097439,0.020080408,0.03455927,0.0,nan,0.0,0.0,2621474,2621474,3997730,8944899,61.746307,58.358376,0.3976615,0.46025112,0,0,831,2,2,2,2,2,0,0,0,0,0,0,0
92401274,92294459,34369178311,0.0031903079,0.013432582,0.022097224,0,0.33035886,0.25825378,0.0,0.07602762,0.020798225,0.06392349,0.0,nan,0.0,0.0,2621474,2621474,3997730,8944899,67.2647,58.358376,0.35068884,0.46025112,0,0,831,2,2,2,2,2,0,0,0,0,0,0,0
92602638,92495749,34369178311,0.001310086,0.006205524,0.017894777,0,0.3300968,0.25848517,0.0,0.039866615,0.019781858,0.060832158,0.0,nan,0.0,0.0,2621474,2621474,3997730,8944899,59.79874,58.358376,0.40021196,0.46025112,0,0,831,2,2,2,2,2,0,0,0,0,0,0,0
92793223,92686510,34369178311,0.003286678,0.016124047,0.030098649,0,0.32914084,0.2582389,0.0,0.068475954,0.022787094,0.05856268,0.0,nan,0.0,0.0,2621474,2621474,3997730,8944899,60.88433,58.358376,0.39704567,0.46025112,0,0,831,2,2,2,2,2,0,0,0,0,0,0,0
92994606,92887740,34369178311,0.0036977117,0.015450423,0.030007599,0,0.32902786,0.25849494,0.0,0.04088204,0.025010291,0.04963297,0.0,nan,0.0,0.0,2621474,2621474,3997730,8944899,63.354652,58.358376,0.37824917,0.46025112,0,0,831,2,2,2,2,2,0,0,0,0,0,0,0
93195818,93089040,34369178311,0.003430883,0.014055527,0.02624547,0,0.32891673,0.25874105,0.0,0.0467008,0.024585683,0.047956865,0.0,nan,0.0,0.0,2621474,2621474,3997730,8944899,62.85514,58.358376,0.44368774,0.46025112,0,0,831,2,2,2,2,2,0,0,0,0,0,0,0
93397128,93290334,34369178311,0.0016877693,0.011795438,0.027318327,0,0.32858485,0.25894126,0.0,0.05457755,0.039922193,0.06891024,0.0,nan,0.0,0.0,2621474,2621474,3997730,8944899,62.965183,58.358376,0.39994854,0.46025112,0,0,831,2,2,2,2,2,0,0,0,0,0,0,0
93598774,93491630,34369178311,0.0015608111,0.005502139,0.019204311,0,0.32805085,0.25908744,0.0,0.011825875,0.04017046,0.059403434,0.0,nan,0.0,0.0,2621474,2621474,3997730,8944899,59.108486,58.358376,0.4176041,0.46025112,0,0,831,2,2,2,2,2,0,0,0,0,0,0,0
93800224,93692893,34369178311,0.0008770209,0.017431654,0.034972366,0,0.32738897,0.25990722,0.0,0.14024423,0.03526114,0.060311526,0.0,nan,0.0,0.0,2621474,2621474,3997730,8944899,59.27266,58.358376,0.3817885,0.46025112,0,0,831,2,2,2,2,2,0,0,0,0,0,0,0
94000925,93894314,34369178311,0.0030443454,0.035645265,0.048762552,0,0.32663703,0.2599906,0.0,0.16966139,0.030810254,0.045731574,0.0,nan,0.0,0.0,2621474,2621474,3997730,8944899,57.450226,58.358376,0.4118999,0.46025112,0,0,831,2,2,2,2,2,0,0,0,0,0,0,0
94202279,94095583,34369178311,0.0056947353,0.033263784,0.048159935,0,0.32599923,0.26007423,0.0,0.13368034,0.025262117,0.042420525,0.0,nan,0.0,0.0,2621474,2621474,3997730,8944899,54.052322,58.358376,0.42725047,0.46025112,0,0,831,2,2,2,2,2,0,0,0,0,0,0,0
94392889,94286218,34369178311,0.0023596361,0.038142238,0.061611176,0,0.32451245,0.25963017,0.0,0.17670377,0.023616532,0.047088794,0.0,nan,0.0,0.0,2621474,2621474,3997730,8944899,62.542835,58.358376,0.40643734,0.46025112,0,0,831,2,2,2,2,2,0,0,0,0,0,0,0
94594153,94487451,34369178311,0.003434351,0.046243984,0.0725909,0,0.3238331,0.2596664,0.0,0.16940732,0.01598403,0.0572168,0.0,nan,0.0,0.0,2621474,2621474,3997730,8944899,62.002064,58.358376,0.3894768,0.46025112,0,0,831,2,2,2,2,2,0,0,0,0,0,0,0
94795509,94688775,34369178311,0.0012485489,0.04771197,0.07756634,0,0.32325155,0.25973055,0.0,0.20485438,0.01837051,0.03734891,0.0,nan,0.0,0.0,2621474,2621474,3997730,8944899,68.04187,58.358376,0.40030864,0.46025112,0,0,831,2,2,2,2,2,0,0,0,0,0,0,0
94996793,94890096,34369178311,0.0050451793,0.042855665,0.07292629,0,0.32272795,0.25978687,0.0,0.13225162,0.015740888,0.050863914,0.0,nan,0.0,0.0,2621474,2621474,3997730,8944899,63.15071,58.358376,0.38680658,0.46025112,0,0,831,2,2,2,2,2,0,0,0,0,0,0,0
95198073,95091342,34369178311,0.0019690641,0.030898549,0.05052064,0,0.32230395,0.25984555,0.0,0.1466561,0.013660155,0.04926105,0.0,nan,0.0,0.0,2621474,2621474,3997730,8944899,64.329315,58.358376,0.41050446,0.46025112,0,0,831,2,2,2,2,2,0,0,0,0,0,0,0
95399613,95292623,34369178311,0.0041861637,0.008081854,0.009680731,0,0.32181147,0.25987247,0.0,0.036142625,0.016748874,0.055640124,0.0,nan,0.0,0.0,2621474,2621474,3997730,8944899,65.966705,58.358376,0.38300884,0.46025112,0,0,831,2,2,2,2,2,0,0,0,0,0,0,0
95600725,95493941,34369178311,0.0016522215,0.04093818,0.05687568,0,0.3214329,0.2599214,0.0,0.16934831,0.02539381,0.05559731,0.0,nan,0.0,0.0,2621474,2621474,3997730,8944899,64.630356,58.358376,0.3525078,0.46025112,0,0,831,2,2,2,2,2,0,0,0,0,0,0,0
95801973,95695224,34369178311,0.004789185,0.039013453,0.06470232,0,0.32100648,0.2599764,0.0,0.10171288,0.030099545,0.07099743,0.0,nan,0.0,0.0,2621474,2621474,3997730,8944899,66.082596,58.358376,0.4314185,0.46025112,0,0,831,2,2,2,2,2,0,0,0,0,0,0,0
95992562,95885872,34369178311,0.0039461227,0.031653218,0.056686312,0,0.31957468,0.25951883,0.0,0.07591503,0.031332437,0.05699417,0.0,nan,0.0,0.0,2621474,2621474,3997730,8944899,69.89541,58.358376,0.33256605,0.46025112,0,0,831,2,2,2,2,2,0,0,0,0,0,0,0
96193871,96087205,34369178311,0.0015389891,0.037423447,0.065931745,0,0.3189488,0.2595562,0.0,0.17262939,0.037591703,0.076137505,0.0,nan,0.0,0.0,2621474,2621474,3997730,8944899,67.88396,58.358376,0.32025743,0.46025112,0,0,831,2,2,2,2,2,0,0,0,0,0,0,0
96395193,96288474,34369178311,0.012881443,0.034533143,0.051815238,0,0.31840917,0.25958627,0.0,0.12744655,0.030170705,0.074269876,0.0,nan,0.0,0.0,2621474,2621474,3997730,8944899,58.146034,58.358376,0.28656352,0.46025112,0,0,831,2,2,2,2,2,0,0,0,0,0,0,0
96596511,96489821,34369178311,0.0018473236,0.014333427,0.032032967,0,0.3178995,0.25962478,0.0,0.048432454,0.03354126,0.06936379,0.0,nan,0.0,0.0,2621474,2621474,3997730,8944899,61.205856,58.358376,0.36650538,0.46025112,0,0,831,2,2,2,2,2,0,0,0,0,0,0,0
96797847,96691119,34369178311,0.0014383917,0.023781786,0.040105183,0,0.31746906,0.25970525,0.0,0.07841412,0.030737896,0.0678075,0.0,nan,0.0,0.0,2621474,2621474,3997730,8944899,65.66864,58.358376,0.39808285,0.46025112,0,0,831,2,2,2,2,2,0,0,0,0,0,0,0
96999072,96892361,34369178311,0.0056131673,0.030792877,0.047088098,0,0.3171114,0.25977373,0.0,0.115617536,0.032955278,0.070376985,0.0,nan,0.0,0.0,2621474,2621474,3997730,8944899,60.812286,58.358376,0.36151934,0.46025112,0,0,831,2,2,2,2,2,0,0,0,0,0,0,0
97200349,97093626,34369178311,0.0015083055,0.024539342,0.038889572,0,0.31681913,0.2598507,0.0,0.06527931,0.02976273,0.0716639,0.0,nan,0.0,0.0,2621474,2621474,3997730,8944899,55.441074,58.358376,0.3982114,0.46025112,0,0,831,2,2,2,2,2,0,0,0,0,0,0,0
97401684,97294933,34369178311,0.0015761985,0.022098549,0.035662368,0,0.3165199,0.25990984,0.0,0.14488119,0.024903059,0.058353692,0.0,nan,0.0,0.0,2621474,2621474,3997730,8944899,57.215424,58.358376,0.36078623,0.46025112,0,0,831,2,2,2,2,2,0,0,0,0,0,0,0
97592311,97485675,34369178311,0.0032488306,0.023192123,0.032898083,0,0.31541008,0.26015937,0.0,0.095431,0.02090198,0.0727355,0.0,nan,0.0,0.0,2621474,2621474,3997730,8944899,60.27284,58.358376,0.42475858,0.46025112,0,0,831,2,2,2,2,2,0,0,0,0,0,0,0
97793893,97686939,34369178311,0.001910593,0.032754056,0.049595878,0,0.315358,0.2602479,0.0,0.14451136,0.01556036,0.08049281,0.0,nan,0.0,0.0,2621474,2621474,3997730,8944899,60.798504,58.358376,0.3738507,0.46025112,0,0,831,2,2,2,2,2,0,0,0,0,0,0,0
97995296,97888196,34369178311,0.0044673374,0.036965318,0.06189006,0,0.31535107,0.26036867,0.0,0.15311511,0.009913191,0.07359333,0.0,nan,0.0,0.0,2621474,2621474,3997730,8944899,66.26908,58.358376,0.32205686,0.46025112,0,0,831,2,2,2,2,2,0,0,0,0,0,0,0
98196618,98089520,34369178311,0.0021247272,0.017962148,0.032891914,0,0.31539598,0.2604943,0.0,0.04903869,0.009688993,0.05500753,0.0,nan,0.0,0.0,2621474,2621474,3997730,8944899,58.60339,58.358376,0.3563757,0.46025112,0,0,831,2,2,2,2,2,0,0,0,0,0,0,0
98397598,98290835,34369178311,0.0027366334,0.014730038,0.03011165,0,0.31551692,0.26062515,0.0,0.20208937,0.00917568,0.061349332,0.0,nan,0.0,0.0,2621474,2621474,3997730,8944899,61.278595,58.358376,0.35891372,0.46025112,0,0,831,2,2,2,2,2,0,0,0,0,0,0,0
98598770,98492073,34369178311,0.0012721071,0.0197884,0.02769806,0,0.31561863,0.2607539,0.0,0.138386,0.017046802,0.07703379,0.0,nan,0.0,0.0,2621474,2621474,3997730,8944899,64.04932,58.358376,0.40510765,0.46025112,0,0,831,2,2,2,2,2,0,0,0,0,0,0,0
98800105,98693406,34369178311,0.0011359693,0.029098272,0.038427286,0,0.31579614,0.26090586,0.0,0.10634223,0.0137246875,0.07072401,0.0,nan,0.0,0.0,2621474,2621474,3997730,8944899,61.073307,58.358376,0.35183868,0.46025112,0,0,831,2,2,2,2,2,0,0,0,0,0,0,0
99001314,98894699,34369178311,0.0032933485,0.027557362,0.038539622,0,0.31601453,0.26105684,0.0,0.13928883,0.011510366,0.08280896,0.0,nan,0.0,0.0,2621474,2621474,3997730,8944899,69.58234,58.358376,0.32066673,0.46025112,0,0,831,2,2,2,2,2,0,0,0,0,0,0,0
99202657,99095930,34369178311,0.000797312,0.0120016895,0.030825373,0,0.31619516,0.2611865,0.0,0.29437733,0.005710942,0.06088604,0.0,nan,0.0,0.0,2621474,2621474,3997730,8944899,58.091785,58.358376,0.41769058,0.46025112,0,0,831,2,2,2,2,2,0,0,0,0,0,0,0
99393383,99286645,34369178311,0.00025020554,0.0039257165,0.009627142,0,0.31555524,0.260842,0.0,0.028103668,0.004440854,0.039579935,0.0,nan,0.0,0.0,2621474,2621474,3997730,8944899,58.845867,58.358376,0.41844428,0.46025112,0,0,831,2,2,2,2,2,0,0,0,0,0,0,0
99594703,99488050,34369178311,0.0019756546,0.038703766,0.058692567,0,0.3157639,0.26096037,0.0,0.20537978,0.008273077,0.038358092,0.0,nan,0.0,0.0,2621474,2621474,3997730,8944899,60.04134,58.358376,0.4078323,0.46025112,0,0,831,2,2,2,2,2,0,0,0,0,0,0,0
99795978,99689318,34369178311,0.0031245858,0.044039197,0.06991803,0,0.31596753,0.2610489,0.0,0.20304944,0.014745291,0.056651473,0.0,nan,0.0,0.0,2621474,2621474,3997730,8944899,58.526657,58.358376,0.35985452,0.46025112,0,0,831,2,2,2,2,2,0,0,0,0,0,0,0
99997280,99890575,34369178311,0.0007937052,0.025487766,0.054703716,0,0.31620905,0.26115167,0.0,0.28291672,0.010650223,0.05282495,0.0,nan,0.0,0.0,2621474,2621474,3997730,8944899,59.06015,58.358376,0.42855147,0.46025112,0,0,831,2,2,2,2,2,0,0,0,0,0,0,0
100198944,100091832,34369178311,0.0021111553,0.045680255,0.07713566,0,0.31647992,0.26127872,0.0,0.2405121,0.020803457,0.046264917,0.0,nan,0.0,0.0,2621474,2621474,3997730,8944899,68.59636,58.358376,0.33661902,0.46025112,0,0,831,2,2,2,2,2,0,0,0,0,0,0,0
100400240,100293082,34369178311,0.004981973,0.03149869,0.060213707,0,0.3167879,0.2614228,0.0,0.2333808,0.01164575,0.049617313,0.0,nan,0.0,0.0,2621474,2621474,3997730,8944899,59.1594,58.358376,0.36632395,0.46025112,0,0,831,2,2,2,2,2,0,0,0,0,0,0,0
100601450,100494413,34369178311,0.0020397762,0.025642153,0.04933613,0,0.31709117,0.2615755,0.0,0.10277029,0.014378397,0.035949968,0.0,nan,0.0,0.0,2621474,2621474,3997730,8944899,55.532475,58.358376,0.31157285,0.46025112,0,0,831,2,2,2,2,2,0,0,0,0,0,0,0
100802476,100695653,34369178311,0.0014015046,0.011716401,0.030850142,0,0.3174746,0.26175743,0.0,0.21509466,0.010467111,0.04131128,0.0,nan,0.0,0.0,2621474,2621474,3997730,8944899,67.46074,58.358376,0.4204442,0.46025112,0,0,831,2,2,2,2,2,0,0,0,0,0,0,0
100993120,100886364,34369178311,0.0024357026,0.004439588,0.013565187,0,0.3169716,0.26217756,0.0,0.030513141,0.011509113,0.03875757,0.0,nan,0.0,0.0,2621474,2621474,3997730,8944899,67.86187,58.358376,0.37888917,0.46025112,0,0,831,2,2,2,2,2,0,0,0,0,0,0,0
101194449,101087650,34369178311,0.0038106716,0.017274838,0.021294387,0,0.31738394,0.2624024,0.0,0.06506386,0.0080363685,0.04628758,0.0,nan,0.0,0.0,2621474,2621474,3997730,8944899,66.68613,58.358376,0.37156072,0.46025112,0,0,831,2,2,2,2,2,0,0,0,0,0,0,0
101395731,101288966,34369178311,0.007645728,0.025482636,0.03604483,0,0.31780598,0.26263088,0.0,0.16744368,0.0072913356,0.043137044,0.0,nan,0.0,0.0,2621474,2621474,3997730,8944899,66.16356,58.358376,0.38495812,0.46025112,0,0,831,2,2,2,2,2,0,0,0,0,0,0,0
101596993,101490234,34369178311,0.00060445635,0.0135042025,0.0205796,0,0.318203,0.26286024,0.0,0.044382706,0.0057966504,0.04153029,0.0,nan,0.0,0.0,2621474,2621474,3997730,8944899,52.714222,58.358376,0.37813273,0.46025112,0,0,831,2,2,2,2,2,0,0,0,0,0,0,0
101798217,101691514,34369178311,0.0005156756,0.012458146,0.020107988,0,0.31859565,0.26309976,0.0,0.115526505,0.0030693645,0.051514234,0.0,nan,0.0,0.0,2621474,2621474,3997730,8944899,61.797363,58.358376,0.33619854,0.46025112,0,0,831,2,2,2,2,2,0,0,0,0,0,0,0
101999856,101892812,34369178311,0.0011443621,0.016736854,0.026204802,0,0.3189964,0.26336476,0.0,0.09693767,0.00089684094,0.044469833,0.0,nan,0.0,0.0,2621474,2621474,3997730,8944899,67.13685,58.358376,0.3100728,0.46025112,0,0,831,2,2,2,2,2,0,0,0,0,0,0,0
102200807,102094179,34369178311,0.0023191702,0.025226075,0.040894907,0,0.3194153,0.26362658,0.0,0.07280549,0.0057248105,0.039332047,0.0,nan,0.0,0.0,2621474,2621474,3997730,8944899,66.42091,58.358376,0.38948804,0.46025112,0,0,831,2,2,2,2,2,0,0,0,0,0,0,0
102402105,102295555,34369178311,0.0030839904,0.041175313,0.06337973,0,0.31978703,0.26388028,0.0,0.14087415,0.010711258,0.052111145,0.0,nan,0.0,0.0,2621474,2621474,3997730,8944899,59.34631,58.358376,0.41713122,0.46025112,0,0,831,2,2,2,2,2,0,0,0,0,0,0,0
102592795,102486124,34369178311,0.0011401667,0.039377052,0.07000879,0,0.3191579,0.26359278,0.0,0.15048125,0.014407814,0.046090078,0.0,nan,0.0,0.0,2621474,2621474,3997730,8944899,55.457157,58.358376,0.33993667,0.46025112,0,0,831,2,2,2,2,2,0,0,0,0,0,0,0
102794068,102687428,34369178311,0.0030972937,0.02016424,0.038229153,0,0.31940398,0.26383582,0.0,0.10760337,0.015040052,0.053132355,0.0,nan,0.0,0.0,2621474,2621474,3997730,8944899,71.101776,58.358376,0.3782178,0.46025112,0,0,831,2,2,2,2,2,0,0,0,0,0,0,0
102995334,102888720,34369178311,0.00679619,0.03379726,0.054917097,0,0.31947696,0.26401404,0.0,0.29875377,0.014140702,0.039812677,0.0,nan,0.0,0.0,2621474,2621474,3997730,8944899,58.30222,58.358376,0.43587568,0.46025112,0,0,831,2,2,2,2,2,0,0,0,0,0,0,0
103196690,103089960,34369178311,0.010485974,0.030666621,0.047826767,0,0.31965268,0.2641644,0.0,0.17745933,0.011983406,0.042857528,0.0,nan,0.0,0.0,2621474,2621474,3997730,8944899,63.434315,58.358376,0.37437397,0.46025112,0,0,831,2,2,2,2,2,0,0,0,0,0,0,0
103397874,103291291,34369178311,0.0070106466,0.029897604,0.05029818,0,0.3196441,0.26430738,0.0,0.11419998,0.015386105,0.043912195,0.0,nan,0.0,0.0,2621474,2621474,3997730,8944899,58.990734,58.358376,0.38771975,0.46025112,0,0,831,2,2,2,2,2,0,0,0,0,0,0,0
103599282,103492547,34369178311,0.005139562,0.021258734,0.0385311,0,0.31955522,0.2644573,0.0,0.077590175,0.014432774,0.045617633,0.0,nan,0.0,0.0,2621474,2621474,3997730,8944899,62.288795,58.358376,0.3779228,0.46025112,0,0,831,2,2,2,2,2,0,0,0,0,0,0,0
103800502,103693848,34369178311,0.0012821541,0.00718986,0.018376663,0,0.31948245,0.26463196,0.0,0.16989984,0.012047457,0.04713574,0.0,nan,0.0,0.0,2621474,2621474,3997730,8944899,56.81717,58.358376,0.42616636,0.46025112,0,0,831,2,2,2,2,2,0,0,0,0,0,0,0
104001799,103895144,34369178311,0.003910759,0.008150322,0.014302249,0,0.31930625,0.26477957,0.0,0.08087882,0.01205295,0.04366166,0.0,nan,0.0,0.0,2621474,2621474,3997730,8944899,56.86856,58.358376,0.39301047,0.46025112,0,0,831,2,2,2,2,2,0,0,0,0,0,0,0
104192576,104085828,34369178311,0.009105589,0.021693189,0.027896868,0,0.31840995,0.26446843,0.0,0.07774894,0.008127622,0.04131355,0.0,nan,0.0,0.0,2621474,2621474,3997730,8944899,54.108837,58.358376,0.3969119,0.46025112,0,0,831,2,2,2,2,2,0,0,0,0,0,0,0
104393806,104287131,34369178311,0.0013314094,0.013449164,0.024364239,0,0.31843913,0.26543373,0.0,0.12974079,0.011165985,0.040822804,0.0,nan,0.0,0.0,2621474,2621474,3997730,8944899,58.637302,58.358376,0.40652752,0.46025112,0,0,831,2,2,2,2,2,0,0,0,0,0,0,0
104595420,104488428,34369178311,0.0008191688,0.00722896,0.016626198,0,0.31837967,0.2656136,0.0,0.031117357,0.007690406,0.034029435,0.0,nan,0.0,0.0,2621474,2621474,3997730,8944899,56.504513,58.358376,0.40993923,0.46025112,0,0,831,2,2,2,2,2,0,0,0,0,0,0,0
104796621,104689710,34369178311,0.0032792883,0.012904446,0.020582477,0,0.31842828,0.26582074,0.0,0.075653486,0.0063151936,0.024169134,0.0,nan,0.0,0.0,2621474,2621474,3997730,8944899,59.374477,58.358376,0.37019572,0.46025112,0,0,831,2,2,2,2,2,0,0,0,0,0,0,0
104997653,104890998,34369178311,0.0047574453,0.01593862,0.022556948,0,0.31843388,0.26598176,0.0,0.1041996,0.0040043313,0.053218156,0.0,nan,0.0,0.0,2621474,2621474,3997730,8944899,58.735332,58.358376,0.40295252,0.46025112,0,0,831,2,2,2,2,2,0,0,0,0,0,0,0
105198975,105092311,34369178311,0.0046977215,0.020178571,0.028189905,0,0.31852153,0.26618227,0.0,0.11000065,0.0071273698,0.043633565,0.0,nan,0.0,0.0,2621474,2621474,3997730,8944899,67.46277,58.358376,0.3886739,0.46025112,0,0,831,2,2,2,2,2,0,0,0,0,0,0,0
105400224,105293583,34369178311,0.0029997067,0.028103126,0.044684708,0,0.31866062,0.26637197,0.0,0.1612055,0.009986142,0.03922694,0.0,nan,0.0,0.0,2621474,2621474,3997730,8944899,55.14402,58.358376,0.369542,0.46025112,0,0,831,2,2,2,2,2,0,0,0,0,0,0,0
105601540,105494904,34369178311,0.0021876884,0.041127387,0.06712248,0,0.31885025,0.2665778,0.0,0.17085415,0.014398216,0.034613244,0.0,nan,0.0,0.0,2621474,2621474,3997730,8944899,62.152493,58.358376,0.36946702,0.46025112,0,0,831,2,2,2,2,2,0,0,0,0,0,0,0
105802823,105696139,34369178311,0.0030890724,0.03227504,0.05057176,0,0.31897625,0.26678294,0.0,0.07620945,0.014668497,0.036568064,0.0,nan,0.0,0.0,2621474,2621474,3997730,8944899,62.089764,58.358376,0.37323847,0.46025112,0,0,831,2,2,2,2,2,0,0,0,0,0,0,0
105993556,105886834,34369178311,0.001922268,0.01276011,0.028115103,0,0.31819215,0.26647672,0.0,0.15920252,0.014457009,0.048699968,0.0,nan,0.0,0.0,2621474,2621474,3997730,8944899,61.406902,58.358376,0.34003222,0.46025112,0,0,831,2,2,2,2,2,0,0,0,0,0,0,0
106194911,106088136,34369178311,0.004919069,0.01601952,0.026056362,0,0.3183374,0.26669538,0.0,0.20217568,0.014209059,0.0452895,0.0,nan,0.0,0.0,2621474,2621474,3997730,8944899,55.05547,58.358376,0.42096162,0.46025112,0,0,831,2,2,2,2,2,0,0,0,0,0,0,0
106396129,106289427,34369178311,0.0020678241,0.028599853,0.045391444,0,0.31855333,0.26691765,0.0,0.13694695,0.005768194,0.03707861,0.0,nan,0.0,0.0,2621474,2621474,3997730,8944899,50.70024,58.358376,0.39723814,0.46025112,0,0,831,2,2,2,2,2,0,0,0,0,0,0,0
106597433,106490736,34369178311,0.0022551597,0.019167366,0.037125196,0,0.31873232,0.26713616,0.0,0.10367427,0.006585484,0.043069117,0.0,nan,0.0,0.0,2621474,2621474,3997730,8944899,58.341415,58.358376,0.40661582,0.46025112,0,0,831,2,2,2,2,2,0,0,0,0,0,0,0
106799076,106692004,34369178311,0.009044733,0.034836777,0.05532449,0,0.31904623,0.26738614,0.0,0.16710941,0.0020826103,0.041398406,0.0,nan,0.0,0.0,2621474,2621474,3997730,8944899,54.18739,58.358376,0.335329,0.46025112,0,0,831,2,2,2,2,2,0,0,0,0,0,0,0
107000345,106893267,34369178311,0.0008746427,0.015448157,0.035603292,0,0.31927413,0.26761162,0.0,0.27048567,0.011012896,0.01814896,0.0,nan,0.0,0.0,2621474,2621474,3997730,8944899,64.57303,58.358376,0.4466901,0.46025112,0,0,831,2,2,2,2,2,0,0,0,0,0,0,0
107201345,107094569,34369178311,0.00558694,0.016910734,0.024370901,0,0.31965375,0.26789066,0.0,0.1421926,0.0107445195,0.025313195,0.0,nan,0.0,0.0,2621474,2621474,3997730,8944899,64.175385,58.358376,0.46074897,0.46025112,0,0,831,2,2,2,2,2,0,0,0,0,0,0,0
107402566,107295928,34368129607,0.0030091275,0.0155567415,0.025626214,0,0.3199197,0.26806766,0.0,0.10917653,0.006911197,0.028900353,0.0,nan,0.0,0.0,2621474,2621474,3997730,8944899,47.887356,58.358376,0.48842156,0.46025112,0,8,895,2,2,2,2,2,0,0,0,0,0,0,0
107593330,107486600,171807083111,0.14560978,0.2347706,0.19611312,0,0.31944197,0.2677129,1.8305176,0.69296527,0.015512163,0.02331872,0.0,nan,0.0,0.0,2621474,2621474,3997730,8944899,40.800686,58.358376,0.5005782,0.46025112,0,8,895,2,2,2,2,2,0,1,1,0,0,0,0
107794745,107687860,34368129607,0.05591298,0.07339456,0.12583712,0,0.32365048,0.26931375,0.0,0.5962801,0.0049281064,0.01769259,0.0,nan,0.0,0.0,2621474,2621474,3997730,8944899,63.686134,58.358376,0.35592481,0.46025112,0,8,895,2,2,2,2,2,0,0,1,0,0,0,0
