timestamp,roll_body,pitch_body,yaw_body,yaw_sp_move_rate,q_d[0],q_d[1],q_d[2],q_d[3],thrust_body[0],thrust_body[1],thrust_body[2],reset_integral,fw_control_yaw_wheel
80398440,-0.0,-0.0,-0.14066505,0.0,0.9975277,-0.0,0.0,-0.07027455,0.0,0.0,-0.001,0,0
80408779,-0.0,-0.0,-0.14064719,0.0,0.9975283,-0.0,0.0,-0.07026564,0.0,0.0,-0.001,0,0
80546362,-0.0,-0.0,-0.1396645,0.0,0.9975627,-0.0,0.0,-0.0697755,0.0,0.0,-0.001,0,0
80600019,-0.0,-0.0,-0.14010696,0.0,0.99754727,-0.0,0.0,-0.0699962,0.0,0.0,-0.001,0,0
80652410,-0.0,-0.0,-0.14009665,0.0,0.9975477,-0.0,0.0,-0.06999105,0.0,0.0,-0.001,0,0
80694768,-0.0,-0.0,-0.1409413,0.0,0.99751794,-0.0,0.0,-0.070412345,0.0,0.0,-0.001,0,0
80747695,-0.0,-0.0,-0.14013238,0.0,0.9975464,-0.0,0.0,-0.070008874,0.0,0.0,-0.001,0,0
80800684,-0.0,-0.0,-0.13970259,0.0,0.9975614,-0.0,0.0,-0.06979451,0.0,0.0,-0.001,0,0
80843094,-0.0,-0.0,-0.14069799,0.0,0.9975265,-0.0,0.0,-0.070290975,0.0,0.0,-0.001,0,0
80896098,-0.0,-0.0,-0.1397852,0.0,0.9975585,-0.0,0.0,-0.06983571,0.0,0.0,-0.001,0,0
80950232,-0.0,-0.0,-0.13955681,0.0,0.99756646,-0.0,0.0,-0.0697218,0.0,0.0,-0.001,0,0
81001987,-0.0,-0.0,-0.14039026,0.0,0.9975373,-0.0,0.0,-0.07013751,0.0,0.0,-0.001,0,0
81044527,-0.0,-0.0,-0.14097552,0.0,0.99751675,-0.0,0.0,-0.07042941,0.0,0.0,-0.001,0,0
81097290,-0.0,-0.0,-0.14020222,0.0,0.99754393,-0.0,0.0,-0.07004371,0.0,0.0,-0.001,0,0
81151220,-0.0,-0.0,-0.14042883,0.0,0.997536,-0.0,0.0,-0.07015674,0.0,0.0,-0.001,0,0
81192699,-0.0,-0.0,-0.14015946,0.0,0.9975454,-0.0,0.0,-0.07002238,0.0,0.0,-0.001,0,0
81245682,-0.0,-0.0,-0.13954449,0.0,0.99756694,-0.0,0.0,-0.06971566,0.0,0.0,-0.001,0,0
81298554,-0.0,-0.0,-0.138847,0.0,0.99759114,-0.0,0.0,-0.06936775,0.0,0.0,-0.001,0,0
81351842,-0.0,-0.0,-0.1389016,0.0,0.99758923,-0.0,0.0,-0.06939498,0.0,0.0,-0.001,0,0
81393891,-0.0,-0.0,-0.14010474,0.0,0.9975474,-0.0,0.0,-0.0699951,0.0,0.0,-0.001,0,0
81446861,-0.0,-0.0,-0.13894007,0.0,0.9975879,-0.0,0.0,-0.069414176,0.0,0.0,-0.001,0,0
81500260,-0.0,-0.0,-0.13886248,0.0,0.9975906,-0.0,0.0,-0.06937547,0.0,0.0,-0.001,0,0
81553001,-0.0,-0.0,-0.1391402,0.0,0.997581,-0.0,0.0,-0.069514,0.0,0.0,-0.001,0,0
81595240,-0.0,-0.0,-0.13914889,0.0,0.99758065,-0.0,0.0,-0.06951833,0.0,0.0,-0.001,0,0
81648235,-0.0,-0.0,-0.14077157,0.0,0.99752396,-0.0,0.0,-0.070327684,0.0,0.0,-0.001,0,0
81701479,-0.0,-0.0,-0.14016928,0.0,0.99754506,-0.0,0.0,-0.07002728,0.0,0.0,-0.001,0,0
81743602,-0.0,-0.0,-0.13991301,0.0,0.99755406,-0.0,0.0,-0.06989946,0.0,0.0,-0.001,0,0
81796540,-0.0,-0.0,-0.139083,0.0,0.997583,-0.0,0.0,-0.06948546,0.0,0.0,-0.001,0,0
81849754,-0.0,-0.0,-0.13868016,0.0,0.997597,-0.0,0.0,-0.06928453,0.0,0.0,-0.001,0,0
81902784,-0.0,-0.0,-0.13922708,0.0,0.99757797,-0.0,0.0,-0.06955733,0.0,0.0,-0.001,0,0
81945158,-0.0,-0.0,-0.13866003,0.0,0.99759763,-0.0,0.0,-0.06927449,0.0,0.0,-0.001,0,0
81997806,-0.0,-0.0,-0.13837536,0.0,0.9976075,-0.0,0.0,-0.0691325,0.0,0.0,-0.001,0,0
82050912,-0.0,-0.0,-0.13897261,0.0,0.9975868,-0.0,0.0,-0.069430396,0.0,0.0,-0.001,0,0
82093150,-0.0,-0.0,-0.13844277,0.0,0.99760514,-0.0,0.0,-0.069166124,0.0,0.0,-0.001,0,0
82146355,-0.0,-0.0,-0.1381678,0.0,0.9976146,-0.0,0.0,-0.06902896,0.0,0.0,-0.001,0,0
82199138,-0.0,-0.0,-0.14000653,0.0,0.9975508,-0.0,0.0,-0.06994611,0.0,0.0,-0.001,0,0
82252386,-0.0,-0.0,-0.14011337,0.0,0.99754703,-0.0,0.0,-0.0699994,0.0,0.0,-0.001,0,0
82294535,-0.0,-0.0,-0.13946477,0.0,0.9975697,-0.0,0.0,-0.06967589,0.0,0.0,-0.001,0,0
82347554,-0.0,-0.0,-0.14002734,0.0,0.9975501,-0.0,0.0,-0.06995648,0.0,0.0,-0.001,0,0
82400395,-0.0,-0.0,-0.13960895,0.0,0.9975647,-0.0,0.0,-0.0697478,0.0,0.0,-0.001,0,0
82442746,-0.0,-0.0,-0.13952251,0.0,0.99756765,-0.0,0.0,-0.06970468,0.0,0.0,-0.001,0,0
82495767,-0.0,-0.0,-0.13914603,0.0,0.99758077,-0.0,0.0,-0.0695169,0.0,0.0,-0.001,0,0
82548734,-0.0,-0.0,-0.13976933,0.0,0.9975591,-0.0,0.0,-0.069827795,0.0,0.0,-0.001,0,0
82601675,-0.0,-0.0,-0.14002709,0.0,0.9975501,-0.0,0.0,-0.069956355,0.0,0.0,-0.001,0,0
82644056,-0.0,-0.0,-0.13961853,0.0,0.9975643,-0.0,0.0,-0.06975258,0.0,0.0,-0.001,0,0
82697017,-0.0,-0.0,-0.13987957,0.0,0.99755526,-0.0,0.0,-0.06988278,0.0,0.0,-0.001,0,0
82750195,-0.0,-0.0,-0.1398849,0.0,0.997555,-0.0,0.0,-0.06988543,0.0,0.0,-0.001,0,0
82792377,-0.0,-0.0,-0.13989495,0.0,0.99755466,-0.0,0.0,-0.06989045,0.0,0.0,-0.001,0,0
82845331,-0.0,-0.0,-0.13978727,0.0,0.9975585,-0.0,0.0,-0.06983674,0.0,0.0,-0.001,0,0
82898322,-0.0,-0.0,-0.13965173,0.0,0.9975632,-0.0,0.0,-0.06976913,0.0,0.0,-0.001,0,0
82951558,-0.0,-0.0,-0.13992621,0.0,0.9975536,-0.0,0.0,-0.06990604,0.0,0.0,-0.001,0,0
82993635,-0.0,-0.0,-0.13989519,0.0,0.99755466,-0.0,0.0,-0.069890566,0.0,0.0,-0.001,0,0
83046588,-0.0,-0.0,-0.13912117,0.0,0.99758166,-0.0,0.0,-0.06950451,0.0,0.0,-0.001,0,0
83099938,-0.0,-0.0,-0.13898359,0.0,0.9975864,-0.0,0.0,-0.06943588,0.0,0.0,-0.001,0,0
83152847,-0.0,-0.0,-0.13906288,0.0,0.9975837,-0.0,0.0,-0.069475435,0.0,0.0,-0.001,0,0
83195026,-0.0,-0.0,-0.13929726,0.0,0.9975755,-0.0,0.0,-0.069592334,0.0,0.0,-0.001,0,0
83247950,-0.0,-0.0,-0.13899587,0.0,0.997586,-0.0,0.0,-0.069442004,0.0,0.0,-0.001,0,0
83300858,-0.0,-0.0,-0.13928421,0.0,0.997576,-0.0,0.0,-0.069585815,0.0,0.0,-0.001,0,0
83343397,-0.0,-0.0,-0.13993043,0.0,0.99755347,-0.0,0.0,-0.06990815,0.0,0.0,-0.001,0,0
83396259,-0.0,-0.0,-0.13992822,0.0,0.9975535,-0.0,0.0,-0.069907054,0.0,0.0,-0.001,0,0
83449134,-0.0,-0.0,-0.13975112,0.0,0.9975597,-0.0,0.0,-0.06981871,0.0,0.0,-0.001,0,0
83502270,-0.0,-0.0,-0.14015009,0.0,0.9975457,-0.0,0.0,-0.07001772,0.0,0.0,-0.001,0,0
83544735,-0.0,-0.0,-0.14035037,0.0,0.99753875,-0.0,0.0,-0.0701176,0.0,0.0,-0.001,0,0
83597535,-0.0,-0.0,-0.14037569,0.0,0.99753785,-0.0,0.0,-0.07013023,0.0,0.0,-0.001,0,0
83650539,-0.0,-0.0,-0.13896464,0.0,0.9975871,-0.0,0.0,-0.069426425,0.0,0.0,-0.001,0,0
83693115,-0.0,-0.0,-0.13716105,0.0,0.9976493,-0.0,0.0,-0.06852677,0.0,0.0,-0.001,0,0
83746082,-0.0,-0.0,-0.13786711,0.0,0.99762505,-0.0,0.0,-0.06887898,0.0,0.0,-0.001,0,0
83798944,-0.0,-0.0,-0.13981998,0.0,0.9975573,-0.0,0.0,-0.06985306,0.0,0.0,-0.001,0,0
83851750,-0.0,-0.0,-0.13944854,0.0,0.9975702,-0.0,0.0,-0.06966779,0.0,0.0,-0.001,0,0
83894104,-0.0,-0.0,-0.1390372,0.0,0.9975846,-0.0,0.0,-0.06946262,0.0,0.0,-0.001,0,0
83947467,-0.0,-0.0,-0.13923281,0.0,0.9975778,-0.0,0.0,-0.069560185,0.0,0.0,-0.001,0,0
84000152,-0.0,-0.0,-0.1390418,0.0,0.9975844,-0.0,0.0,-0.06946492,0.0,0.0,-0.001,0,0
84053086,-0.0,-0.0,-0.13861036,0.0,0.99759936,-0.0,0.0,-0.069249704,0.0,0.0,-0.001,0,0
84095435,-0.0,-0.0,-0.13787831,0.0,0.9976247,-0.0,0.0,-0.06888457,0.0,0.0,-0.001,0,0
84148677,-0.0,-0.0,-0.13816033,0.0,0.9976149,-0.0,0.0,-0.06902524,0.0,0.0,-0.001,0,0
84201415,-0.0,-0.0,-0.13853675,0.0,0.9976019,-0.0,0.0,-0.069212995,0.0,0.0,-0.001,0,0
84244139,-0.0,-0.0,-0.13980694,0.0,0.99755776,-0.0,0.0,-0.069846556,0.0,0.0,-0.001,0,0
84296669,-0.0,-0.0,-0.13924538,0.0,0.9975773,-0.0,0.0,-0.06956645,0.0,0.0,-0.001,0,0
84350695,-0.0,-0.0,-0.13973838,0.0,0.99756014,-0.0,0.0,-0.06981236,0.0,0.0,-0.001,0,0
84402667,-0.0,-0.0,-0.14092645,0.0,0.9975185,-0.0,0.0,-0.07040493,0.0,0.0,-0.001,0,0
84445150,-0.0,-0.0,-0.14042115,0.0,0.99753624,-0.0,0.0,-0.07015291,0.0,0.0,-0.001,0,0
84498025,-0.0,-0.0,-0.13783638,0.0,0.99762607,-0.0,0.0,-0.068863645,0.0,0.0,-0.001,0,0
84551308,-0.0,-0.0,-0.1378327,0.0,0.99762625,-0.0,0.0,-0.06886181,0.0,0.0,-0.001,0,0
84593641,-0.0,-0.0,-0.13806285,0.0,0.99761826,-0.0,0.0,-0.06897662,0.0,0.0,-0.001,0,0
84646415,-0.0,-0.0,-0.13821447,0.0,0.9976131,-0.0,0.0,-0.06905224,0.0,0.0,-0.001,0,0
84699354,-0.0,-0.0,-0.13873562,0.0,0.997595,-0.0,0.0,-0.0693122,0.0,0.0,-0.001,0,0
84752530,-0.0,-0.0,-0.13859968,0.0,0.9975997,-0.0,0.0,-0.06924438,0.0,0.0,-0.001,0,0
84795040,-0.0,-0.0,-0.13942534,0.0,0.9975711,-0.0,0.0,-0.06965622,0.0,0.0,-0.001,0,0
84847643,-0.0,-0.0,-0.1391116,0.0,0.99758196,-0.0,0.0,-0.06949973,0.0,0.0,-0.001,0,0
84900685,-0.0,-0.0,-0.13931248,0.0,0.99757504,-0.0,0.0,-0.06959992,0.0,0.0,-0.001,0,0
84942972,-0.0,-0.0,-0.13896488,0.0,0.9975871,-0.0,0.0,-0.06942654,0.0,0.0,-0.001,0,0
84996283,-0.0,-0.0,-0.139005,0.0,0.99758565,-0.0,0.0,-0.06944656,0.0,0.0,-0.001,0,0
85048905,-0.0,-0.0,-0.13900733,0.0,0.9975856,-0.0,0.0,-0.069447726,0.0,0.0,-0.001,0,0
85101986,-0.0,-0.0,-0.13945234,0.0,0.9975701,-0.0,0.0,-0.06966969,0.0,0.0,-0.001,0,0
85144275,-0.0,-0.0,-0.13961376,0.0,0.9975645,-0.0,0.0,-0.0697502,0.0,0.0,-0.001,0,0
85197327,0.011416743,-0.028101623,-0.13850272,0.0,0.9974939,0.0047218828,-0.014411396,-0.06910805,0.0,0.0,-0.010145115,0,0
85250192,-0.0011682988,-0.03201184,-0.13850273,0.0,0.9974745,-0.001690173,-0.015926454,-0.06919647,0.0,0.0,-0.014504723,0,0
85292617,0.007868176,-0.008746256,-0.13850272,0.0,0.997587,0.0036220104,-0.004634818,-0.06917766,0.0,0.0,-0.015537895,0,0
85345964,0.003283843,0.0038992453,-0.13850273,0.0,0.99759966,0.0017728879,0.0018313315,-0.069198996,0.0,0.0,-0.019483104,0,0
85398607,-0.00819127,-0.0022681435,-0.1385027,0.0,0.99759376,-0.0041642766,-0.0008479432,-0.069200024,0.0,0.0,-0.035230204,0,0
85451468,0.004164634,-0.023119345,-0.13850272,0.0,0.997536,0.0012773218,-0.011675761,-0.069167234,0.0,0.0,-0.036324058,0,0
85493917,0.025011333,-0.009555124,-0.13850272,0.0,0.9975178,0.012144662,-0.0056310296,-0.06913021,0.0,0.0,-0.03268448,0,0
85547235,-0.029903548,-0.017007407,-0.13850272,0.0,0.9974467,-0.015503189,-0.0074477424,-0.06931262,0.0,0.0,-0.053193007,0,0
85599968,-0.0018183783,-0.0037388352,-0.13850273,0.0,0.99760085,-0.0010363642,-0.0018020227,-0.069197565,0.0,0.0,-0.05034595,0,0
85652722,-0.006644476,-0.012028448,-0.13850272,0.0,0.99757814,-0.0037303648,-0.005769858,-0.069214314,0.0,0.0,-0.049194474,0,0
85695237,-0.014543046,-0.005291318,-0.13850273,0.0,0.99757195,-0.007437068,-0.0021360905,-0.06921315,0.0,0.0,-0.06185435,0,0
85748325,0.0337746,-0.022955816,-0.13850272,0.0,0.99740857,0.016050817,-0.012616914,-0.068988234,0.0,0.0,-0.074439295,0,0
85801159,-0.016850155,-0.021578511,-0.13850273,0.0,0.99750334,-0.009150826,-0.010179862,-0.06928022,0.0,0.0,-0.07632241,0,0
85843572,-0.007691137,-0.009372034,-0.13850272,0.0,0.99758357,-0.0041605495,-0.004408639,-0.06921273,0.0,0.0,-0.08812613,0,0
85896704,0.031141557,-0.031644598,-0.13850273,0.0,0.99737436,0.014436222,-0.016859056,-0.068933204,0.0,0.0,-0.08911627,0,0
85950339,-0.010721853,-0.012949914,-0.13850272,0.0,0.99756545,-0.00579597,-0.0060883528,-0.06922821,0.0,0.0,-0.09674532,0,0
86002471,-0.022187317,-0.02120153,-0.1385027,0.0,0.99747753,-0.01179969,-0.009806929,-0.06930519,0.0,0.0,-0.10157474,0,0
86044848,0.006363519,-0.027564859,-0.13850272,0.0,0.9975063,0.002220172,-0.013969032,-0.06914536,0.0,0.0,-0.12181584,0,0
86098120,0.038598422,-0.015710466,-0.13850272,0.0,0.997397,0.018707719,-0.009170169,-0.06902976,0.0,0.0,-0.10383132,0,0
86151038,0.019928865,-0.028937366,-0.13850272,0.0,0.9974591,0.008938253,-0.015122199,-0.06904152,0.0,0.0,-0.13945161,0,0
86193001,-0.020252688,-0.016289348,-0.13850272,0.0,0.9975131,-0.010665108,-0.007423978,-0.06927245,0.0,0.0,-0.13557689,0,0
86246064,0.0134801185,-0.023051068,-0.13850272,0.0,0.99751955,0.005925921,-0.011963743,-0.06911235,0.0,0.0,-0.15552294,0,0
86299051,0.043785095,-0.030566575,-0.1385027,0.0,0.9972707,0.020778531,-0.016756987,-0.068837605,0.0,0.0,-0.14793086,0,0
86352326,-0.010856739,-0.026868733,-0.13850272,0.0,0.9974933,-0.0063444055,-0.013025978,-0.0692615,0.0,0.0,-0.14379553,0,0
86394485,-0.036946177,-0.0428208,-0.1385027,0.0,0.9971769,-0.019904684,-0.020075908,-0.06956285,0.0,0.0,-0.1318789,0,0
86447633,0.048715133,-0.056652766,-0.13850272,0.0,0.9969548,0.022327805,-0.029930929,-0.06845959,0.0,0.0,-0.11122468,0,0
86500244,0.058387734,-0.043997604,-0.13850273,0.0,0.99698114,0.027591253,-0.023954278,-0.06850925,0.0,0.0,-0.101034775,0,0
86542700,0.010281939,-0.0685437,-0.13850272,0.0,0.9970163,0.0027546324,-0.034538087,-0.06897874,0.0,0.0,-0.10688508,0,0
86595678,0.0032541114,-0.04842746,-0.13850273,0.0,0.99731207,-5.2648553e-05,-0.024265852,-0.06913635,0.0,0.0,-0.10645843,0,0
86648905,0.036901128,-0.04756055,-0.13850272,0.0,0.99718165,0.016755026,-0.024993272,-0.068727046,0.0,0.0,-0.09753086,0,0
86701631,0.036124233,-0.05308064,-0.13850272,0.0,0.9971222,0.016175525,-0.027718598,-0.06868222,0.0,0.0,-0.10792851,0,0
86744035,0.0036460157,-0.05220595,-0.13850273,0.0,0.99726486,1.2003703e-05,-0.02616351,-0.06912487,0.0,0.0,-0.114148736,0,0
86797063,0.014506834,-0.06573644,-0.13850272,0.0,0.9970545,0.004958179,-0.033284303,-0.06891903,0.0,0.0,-0.10416855,0,0
86849970,0.044270065,-0.053385317,-0.14094424,0.0,0.99695987,0.020191573,-0.028174648,-0.06978221,0.0,0.0,-0.08496531,0,0
86902800,0.011863595,-0.03171322,-0.14699787,0.0,0.9971642,0.0047506783,-0.016248388,-0.07332845,0.0,0.0,-0.08502197,0,0
86945489,-0.0033868572,-0.05406035,-0.14867441,0.0,0.9968692,-0.0036953844,-0.026826479,-0.07428716,0.0,0.0,-0.09524109,0,0
86998605,-0.008252014,-0.08051386,-0.15113765,0.0,0.99631715,-0.007149314,-0.039819602,-0.07560069,0.0,0.0,-0.102598965,0,0
87051219,0.040503636,-0.074911475,-0.15192807,0.0,0.99627,0.017336566,-0.038867082,-0.07506608,0.0,0.0,-0.083949395,0,0
87093574,0.008725552,-0.07348953,-0.15222657,0.0,0.99643445,0.0015537845,-0.036961306,-0.075827956,0.0,0.0,-0.07473182,0,0
87146785,-0.024398398,-0.09693322,-0.15158224,0.0,0.9958395,-0.015817707,-0.04738237,-0.07621335,0.0,0.0,-0.080536455,0,0
87200195,0.012360667,-0.090256765,-0.15268959,0.0,0.99607426,0.0027152807,-0.04545169,-0.075913556,0.0,0.0,-0.07743177,0,0
87252519,0.031048793,-0.07568743,-0.1538627,0.0,0.99625343,0.0125593245,-0.038910467,-0.076205604,0.0,0.0,-0.0661893,0,0
87294930,-0.01310326,-0.09668249,-0.1562284,0.0,0.99573994,-0.010294722,-0.047663376,-0.078257576,0.0,0.0,-0.07197734,0,0
87348118,-0.011959079,-0.07506668,-0.15575689,0.0,0.99623156,-0.008876527,-0.036945246,-0.07796727,0.0,0.0,-0.0800574,0,0
87400891,0.011976325,-0.07489603,-0.15258503,0.0,0.9963913,0.0031130074,-0.03778578,-0.07594019,0.0,0.0,-0.062049944,0,0
87443325,0.007057126,-0.060159866,-0.1564775,0.0,0.996492,0.0011655235,-0.03025887,-0.078017324,0.0,0.0,-0.06556469,0,0
87496144,-0.00854199,-0.10073751,-0.15820496,0.0,0.9955827,-0.008230647,-0.049852498,-0.07913343,0.0,0.0,-0.08145742,0,0
87549984,-0.000732007,-0.09279486,-0.15627617,0.0,0.99587446,-0.0039849128,-0.046210725,-0.077991515,0.0,0.0,-0.067800365,0,0
87602107,-0.0019032389,-0.04287572,-0.17084965,0.0,0.9961224,-0.0027768887,-0.021276863,-0.08532164,0.0,0.0,-0.051990684,0,0
87644636,-0.0043672496,-0.06570366,-0.1869663,0.0,0.9950874,-0.0052389773,-0.032498695,-0.093367875,0.0,0.0,-0.054129127,0,0
87697556,-0.022848977,-0.08775829,-0.20043528,0.0,0.9939097,-0.015744386,-0.042500224,-0.100445755,0.0,0.0,-0.054097272,0,0
87751544,0.027192,-0.059972163,-0.20759723,0.0,0.994121,0.010410152,-0.0312255,-0.10315074,0.0,0.0,-0.04649591,0,0
87792697,-0.0129544325,-0.052885287,-0.21873444,0.0,0.99363834,-0.00932202,-0.025574308,-0.1092791,0.0,0.0,-0.058297854,0,0
87845785,-0.025837205,-0.04804001,-0.22565837,0.0,0.9932371,-0.015536327,-0.022408945,-0.112856366,0.0,0.0,-0.052302085,0,0
87898836,0.026935386,-0.065638326,-0.22008476,0.0,0.99337465,0.009775379,-0.034090023,-0.10931209,0.0,0.0,-0.04750246,0,0
87952005,-0.01113285,-0.13562544,-0.22226445,0.0,0.99148977,-0.013034141,-0.0667258,-0.11102186,0.0,0.0,-0.047583986,0,0
87994075,-0.022664115,-0.10848166,-0.2232144,0.0,0.9921847,-0.017282508,-0.052613243,-0.11181524,0.0,0.0,-0.057429597,0,0
88047039,0.015860273,-0.0711704,-0.21911536,0.0,0.9933749,0.0039876252,-0.036229786,-0.10898556,0.0,0.0,-0.03548296,0,0
88100138,-0.000111352296,-0.06026082,-0.22203484,0.0,0.99339265,-0.003392937,-0.029934227,-0.11074089,0.0,0.0,-0.023639396,0,0
88153027,-0.005984648,-0.05023176,-0.22182578,0.0,0.99352926,-0.0057526575,-0.024627713,-0.1107249,0.0,0.0,-0.04288463,0,0
88195308,-0.0,-0.0,-0.22642125,0.0,0.9935985,-0.0,0.0,-0.112968944,0.0,0.0,-0.12,0,0
88248346,-0.0,-0.0,-0.22617719,0.0,0.9936123,-0.0,0.0,-0.11284769,0.0,0.0,-0.12,0,0
88301657,-0.0,-0.0,-0.21363617,0.0,0.99430037,-0.0,0.0,-0.10661509,0.0,0.0,-0.12,0,0
88343704,-0.0,-0.0,-0.21071397,0.0,0.9944551,-0.0,0.0,-0.10516217,0.0,0.0,-0.12,0,0
88396681,0.053480927,0.0050372337,-0.2186322,0.0,0.99366504,0.026852276,-0.00041430222,-0.1091261,0.0,0.0,-0.13273709,0,0
88449948,0.05983951,0.010426588,-0.22111788,0.0,0.99341905,0.030307187,0.0018784984,-0.110437974,0.0,0.0,-0.12,0,0
88502984,0.04265128,0.02324253,-0.22364104,0.0,0.9934339,0.022485884,0.009166463,-0.11180098,0.0,0.0,-0.12,0,0
88545100,0.04445288,0.009475056,-0.2241391,0.0,0.99345845,0.022614632,0.0022211643,-0.11191086,0.0,0.0,-0.12,0,0
88597924,0.07403358,0.006562439,-0.23344235,0.0,0.99249595,0.037138183,-0.001053177,-0.11649652,0.0,0.0,-0.12,0,0
88650938,0.068978764,0.022440901,-0.2422819,0.0,0.99197185,0.03558278,0.0069645867,-0.12114947,0.0,0.0,-0.12,0,0
88693292,0.07740387,0.027150843,-0.25103888,0.0,0.99123275,0.04008252,0.008614676,-0.12560596,0.0,0.0,-0.12,0,0
88746502,0.08209459,0.016674774,-0.24498191,-0.037515704,0.9915951,0.04174472,0.003254075,-0.122417286,0.0,0.0,-0.12,0,0
88799239,0.08474621,0.0029295196,-0.25182566,-0.080888174,0.9911841,0.042208817,-0.003867775,-0.1255291,0.0,0.0,-0.12,0,0
88852562,0.06273593,0.000689057,-0.26656622,-0.050616574,0.9906419,0.031130422,-0.0038264643,-0.13283418,0.0,0.0,-0.12,0,0
88894659,0.07198618,0.003785717,-0.27503332,-0.031656876,0.9899068,0.03590485,-0.0030592168,-0.13706209,0.0,0.0,-0.12,0,0
88947857,0.07877283,-0.009098401,-0.27231535,-0.017462926,0.9899906,0.03839438,-0.009848357,-0.13545322,0.0,0.0,-0.12,0,0
89000535,0.0893637,0.022802856,-0.2739444,-0.008635068,0.98951143,0.04580097,0.005184498,-0.13690363,0.0,0.0,-0.12,0,0
89043026,0.068066716,0.012924267,-0.28405046,-0.0053912583,0.98930633,0.03459765,0.0015769881,-0.14168102,0.0,0.0,-0.12,0,0
89096015,0.08053214,0.018321605,-0.28896466,-0.0029745838,0.9886839,0.04115197,0.0032621713,-0.14422235,0.0,0.0,-0.12,0,0
89149130,0.069234,0.0020322304,-0.29457816,-0.001859295,0.98857427,0.03438437,-0.004074763,-0.1467039,0.0,0.0,-0.12,0,0
89201796,0.09150948,0.01501367,-0.2973097,-0.00092034484,0.98785746,0.04634371,0.0006421179,-0.14828834,0.0,0.0,-0.12,0,0
89244262,0.07794449,0.012985196,-0.29981893,-0.00057500397,0.9879752,0.0394935,0.000596007,-0.1494822,0.0,0.0,-0.12,0,0
89297248,0.070284866,0.020671753,-0.3143565,-0.01901861,0.98695356,0.036317095,0.0047024963,-0.15678553,0.0,0.0,-0.12,0,0
89350855,0.092293136,0.01715917,-0.31861645,-0.022263797,0.9861871,0.04690394,0.001144218,-0.15885128,0.0,0.0,-0.12,0,0
89392598,0.081875674,0.009230381,-0.31248802,-0.01395624,0.98695123,0.041144997,-0.0018133168,-0.15566361,0.0,0.0,-0.12,0,0
89445591,0.05133601,0.013054301,-0.30871022,-0.007703106,0.9877386,0.026362676,0.0025016216,-0.15385453,0.0,0.0,-0.12,0,0
89498520,0.070191994,-0.001583506,-0.31863505,-0.0038092246,0.9867319,0.034518886,-0.006347885,-0.15851924,0.0,0.0,-0.12,0,0
89551794,0.084562115,-0.004962857,-0.32855824,-0.0023746332,0.98566896,0.041293804,-0.009358444,-0.16329105,0.0,0.0,-0.12,0,0
89593980,0.06315547,0.019345965,-0.33825278,-0.001485969,0.9851433,0.032747895,0.004215995,-0.16853051,0.0,0.0,-0.12,0,0
89646865,0.010007477,0.023040747,-0.3451185,-0.0008218823,0.985061,0.0069071054,0.010489785,-0.17174739,0.0,0.0,-0.12,0,0
89700120,0.043076545,0.027473941,-0.36218274,-0.00040485564,0.9832735,0.02365586,0.009630334,-0.18033546,0.0,0.0,-0.12,0,0
89753017,0.036118183,0.012177159,-0.3640822,-0.00025316604,0.98327774,0.018861463,0.0027178288,-0.1811126,0.0,0.0,-0.12,0,0
89795152,-0.0014268615,0.014381327,-0.3590544,-0.00014012243,0.98390347,0.0005820386,0.0072024246,-0.1785547,0.0,0.0,-0.12,0,0
89848190,0.029331032,-0.008890258,-0.36776212,-8.7545974e-05,0.98303795,0.013604932,-0.0070511233,-0.182761,0.0,0.0,-0.12,0,0
89901099,0.07703078,-0.0040440126,-0.37014753,-4.3281223e-05,0.98220605,0.0374764,-0.009071799,-0.18380567,0.0,0.0,-0.12,0,0
89943728,0.05063147,0.0012459784,-0.3702046,-2.6985661e-05,0.9825994,0.02499524,-0.0040466385,-0.18400359,0.0,0.0,-0.12,0,0
89996441,-0.02434587,-0.009949388,-0.3630537,-1.4934935e-05,0.98347324,-0.012870499,-0.0026950557,-0.1805755,0.0,0.0,-0.12,0,0
90049896,-0.0099700615,-0.003847334,-0.38151556,-9.325894e-06,0.9818451,-0.0052593052,-0.0009435776,-0.1896097,0.0,0.0,-0.12,0,0
90102452,0.047258817,-0.04249393,-0.38816005,-4.611248e-06,0.980827,0.019082068,-0.025396483,-0.192274,0.0,0.0,-0.12,0,0
90144921,0.054135088,-0.03040751,-0.38227123,-2.879009e-06,0.9813943,0.023681156,-0.020061743,-0.18947844,0.0,0.0,-0.12,0,0
90197728,0.0015395664,-0.039518885,-0.37938347,-1.5909499e-06,0.98187333,-0.002969693,-0.019548856,-0.18850437,0.0,0.0,-0.12,0,0
90250786,0.008121185,-0.02835695,-0.3885806,-9.914428e-07,0.9810894,0.0012464538,-0.014695023,-0.19299275,0.0,0.0,-0.12,0,0
90293433,0.03884324,-0.024252018,-0.3884176,-6.2102697e-07,0.9809889,0.016714206,-0.015643187,-0.19270864,0.0,0.0,-0.12,0,0
90346249,0.05427741,-0.008284732,-0.39698339,-3.432589e-07,0.9800179,0.025785815,-0.009410326,-0.19700636,0.0,0.0,-0.12,0,0
90398986,0.017826227,0.0046247113,-0.39529476,-1.6965596e-07,0.9804857,0.009193489,0.0005170667,-0.19637494,0.0,0.0,-0.12,0,0
90451976,-0.009127481,0.010096832,-0.4044362,-1.05918524e-07,0.9796055,-0.003456752,0.005862053,-0.2008155,0.0,0.0,-0.12,0,0
90494290,0.010338989,0.009767816,-0.40289623,-6.6086564e-08,0.979748,0.0060420707,0.0037507236,-0.20010807,0.0,0.0,-0.12,0,0
90547382,0.023130607,0.0041016056,-0.40856335,-3.658055e-08,0.9791346,0.011740555,-0.00033809993,-0.20287304,0.0,0.0,-0.12,0,0
90600307,-0.03648707,-0.0028361606,-0.41246217,-1.8074642e-08,0.9786405,-0.018146275,0.002347761,-0.20476335,0.0,0.0,-0.12,0,0
90653211,-0.017554646,0.006487357,-0.41568828,-1.12718155e-08,0.9784411,-0.007918953,0.0049849167,-0.20631403,0.0,0.0,-0.12,0,0
90695699,0.05325821,-0.0086851,-0.41777182,-6.232403e-09,0.9779305,0.025146738,-0.009768011,-0.20718156,0.0,0.0,-0.12,0,0
90748838,0.048238102,-0.010816098,-0.4226954,-3.897752e-09,0.9774778,0.022445595,-0.010345228,-0.20958622,0.0,0.0,-0.12,0,0
90801476,0.004090452,0.011164801,-0.42835936,-1.9283648e-09,0.9771314,0.0031849698,0.0050201113,-0.21255332,0.0,0.0,-0.12,0,0
90844782,-0.037165195,0.010643065,-0.4252119,-1.1956784e-09,0.97732264,-0.017040212,0.009121586,-0.21087182,0.0,0.0,-0.12,0,0
90896952,0.030320678,0.009592835,-0.4219485,-6.645051e-10,0.97768855,0.015827768,0.0015149025,-0.20945726,0.0,0.0,-0.12,0,0
90950160,0.05346793,-0.008199682,-0.4220971,-4.1582926e-10,0.9774772,0.025278904,-0.009607086,-0.2093015,0.0,0.0,-0.12,0,0
91002858,0.009583092,-0.015163309,-0.42043537,-2.0539505e-10,0.9779538,0.0031038583,-0.008414425,-0.20862888,0.0,0.0,-0.12,0,0
91045256,-0.033749823,-0.01630149,-0.4231082,-1.2831966e-10,0.9775052,-0.018208595,-0.0044247056,-0.2100772,0.0,0.0,-0.12,0,0
91098221,0.031682134,-0.012070535,-0.42740488,-7.08057e-11,0.97713226,0.014200006,-0.009256569,-0.21195568,0.0,0.0,-0.12,0,0
91151479,0.05842873,-0.0029145665,-0.42872328,-4.4262666e-11,0.97670346,0.028231764,-0.0076370197,-0.21259114,0.0,0.0,-0.12,0,0
91193619,0.022994284,-0.020399626,-0.4313777,-2.757771e-11,0.976739,0.0090471255,-0.012423081,-0.21388055,0.0,0.0,-0.12,0,0
91246503,0.022009274,-0.021322075,-0.4312405,-1.5257068e-11,0.9767543,0.008468203,-0.012767641,-0.21381363,0.0,0.0,-0.12,0,0
91299845,0.06829405,0.005795383,-0.43250203,-7.5205155e-12,0.97611403,0.03396647,-0.0044969087,-0.21454011,0.0,0.0,-0.12,0,0
91352665,0.022692533,-0.009478588,-0.43720195,-4.7131726e-12,0.97613966,0.010048172,-0.0070867105,-0.21679524,0.0,0.0,-0.12,0,0
91395250,0.017694958,-0.0066732033,-0.43627745,-2.591835e-12,0.9762647,0.007915597,-0.00517207,-0.21637434,0.0,0.0,-0.12,0,0
91447792,0.056595393,0.00036931745,-0.43419543,-1.62465e-12,0.9761346,0.027669528,-0.005914156,-0.21531525,0.0,0.0,-0.12,0,0
91500838,0.07110148,-0.02033797,-0.43328506,-8.034024e-13,0.9760348,0.032526202,-0.01756453,-0.21445195,0.0,0.0,-0.12,0,0
91543134,0.012870971,-0.011812253,-0.43204293,-5.0495697e-13,0.97672886,0.005019842,-0.007148085,-0.21429996,0.0,0.0,-0.12,0,0
91596521,0.0080283545,-0.03920626,-0.44019622,-2.773997e-13,0.9756979,-0.00036297558,-0.020005072,-0.21820489,0.0,0.0,-0.12,0,0
91649035,0.054102167,-0.03665186,-0.44658345,-1.7402974e-13,0.9747631,0.022315469,-0.023851909,-0.2208393,0.0,0.0,-0.12,0,0
91702138,0.07051027,-0.04260626,-0.4421103,-8.5963165e-14,0.9750038,0.02971468,-0.028496923,-0.21834068,0.0,0.0,-0.12,0,0
91744823,0.0031121515,-0.057293963,-0.4417618,-5.3568488e-14,0.9753131,-0.0047577303,-0.028287917,-0.21895556,0.0,0.0,-0.12,0,0
91797498,0.028719984,-0.0602627,-0.4423756,-2.9665964e-14,0.9751891,0.0073945117,-0.03253868,-0.21884435,0.0,0.0,-0.12,0,0
91850348,0.09051443,-0.019329224,-0.44130784,-1.850116e-14,0.9748056,0.042029724,-0.019321987,-0.2182068,0.0,0.0,-0.12,0,0
91892762,0.055170882,-0.012342858,-0.4513751,-1.1586467e-14,0.97428924,0.025501478,-0.012184671,-0.22352122,0.0,0.0,-0.12,0,0
91946031,0.007478283,-0.023592671,-0.46640667,-6.39676e-15,0.97286683,0.00091166934,-0.012340712,-0.23103477,0.0,0.0,-0.12,0,0
91998901,-0.009870393,-0.00029897733,-0.45619005,-3.1588933e-15,0.97408694,-0.004841152,0.00097033835,-0.22612028,0.0,0.0,-0.12,0,0
92051657,0.051653083,-0.010614326,-0.4493807,-1.9761588e-15,0.97455484,0.023992134,-0.010925559,-0.22259346,0.0,0.0,-0.12,0,0
92093943,0.07519124,-0.028112562,-0.4500753,-1.2322234e-15,0.9741186,0.033501178,-0.022078123,-0.22244836,0.0,0.0,-0.12,0,0
92147624,0.009526629,-0.024674334,-0.44905496,-6.824264e-16,0.9748273,0.0018966654,-0.013087502,-0.22256899,0.0,0.0,-0.12,0,0
92200144,0.015414088,-0.039499827,-0.45304465,-3.3672373e-16,0.97426856,0.0030734013,-0.020974118,-0.22439127,0.0,0.0,-0.12,0,0
92252884,0.049782775,-0.04003467,-0.45618483,-2.1076153e-16,0.9737153,0.019714717,-0.025118262,-0.22551915,0.0,0.0,-0.12,0,0
92295310,0.059025593,-0.03518432,-0.45707822,-1.1645223e-16,0.9735412,0.024753153,-0.023810655,-0.2259156,0.0,0.0,-0.12,0,0
92348589,0.032470364,-0.037806664,-0.4590072,-7.274079e-17,0.973547,0.0115063945,-0.022096744,-0.22712474,0.0,0.0,-0.12,0,0
92401374,0.02985629,-0.05294863,-0.4583335,-3.5927253e-17,0.9734961,0.008519535,-0.029166142,-0.2266764,0.0,0.0,-0.12,0,0
92443803,0.08629578,-0.031885523,-0.45721656,-2.2445056e-17,0.9731085,0.03839745,-0.025286859,-0.22571276,0.0,0.0,-0.12,0,0
92496929,-0.0,-0.0,-0.45901087,0.0,0.973779,-0.0,0.0,-0.22749595,0.0,0.0,-0.12,0,0
92549902,0.033076994,-0.018511655,-0.4693054,-7.757501e-18,0.9724561,0.013932138,-0.012845759,-0.23231459,0.0,0.0,-0.12,0,0
92602738,0.0063088443,-0.035481017,-0.4651454,-3.8268605e-18,0.9729316,-0.0010196213,-0.017988803,-0.23038985,0.0,0.0,-0.12,0,0
92645054,0.048720542,-0.028493458,-0.45872036,-2.3934477e-18,0.97350323,0.020479584,-0.019406358,-0.22692607,0.0,0.0,-0.12,0,0
92698231,0.10073375,-0.017766388,-0.45934856,-1.3185314e-18,0.9725692,0.047001842,-0.020100087,-0.2269272,0.0,0.0,-0.12,0,0
92751244,0.052046858,-0.04568783,-0.4616392,-8.2655583e-19,0.9730317,0.020099897,-0.028179914,-0.22805974,0.0,0.0,-0.12,0,0
92793293,0.010614185,-0.03347015,-0.46250507,-5.167188e-19,0.97325045,0.0013296761,-0.017504793,-0.22907513,0.0,0.0,-0.12,0,0
92846210,0.055849962,-0.034275874,-0.46276706,-2.8419646e-19,0.9729374,0.023244837,-0.023076002,-0.2287356,0.0,0.0,-0.12,0,0
92899410,0.06789147,-0.047371484,-0.464195,-1.406264e-19,0.97253746,0.027575383,-0.03083969,-0.22904006,0.0,0.0,-0.12,0,0
92952385,0.028571054,-0.039141294,-0.46646845,-8.8032315e-20,0.972703,0.009373075,-0.022338599,-0.23078558,0.0,0.0,-0.12,0,0
92994675,0.025186706,-0.036227528,-0.4667876,-5.506958e-20,0.9727031,0.008060777,-0.020532332,-0.23100244,0.0,0.0,-0.12,0,0
93047972,0.06344636,-0.045367066,-0.46374393,-3.0355496e-20,0.97266334,0.02565148,-0.029350357,-0.22892492,0.0,0.0,-0.12,0,0
93100484,0.082676284,-0.050084766,-0.46724808,-1.5022227e-20,0.97193754,0.034399215,-0.033902965,-0.23022765,0.0,0.0,-0.12,0,0
93153677,0.04032515,-0.036361758,-0.4719852,-9.384512e-21,0.9720102,0.015349415,-0.022385465,-0.23336568,0.0,0.0,-0.123324856,0,0
93195931,0.009157143,-0.049484905,-0.47359082,-5.1782787e-21,0.97181356,-0.0013542179,-0.025123049,-0.2344043,0.0,0.0,-0.12296563,0,0
93249207,0.04701459,-0.06858702,-0.47640294,-3.2380486e-21,0.9711144,0.014740095,-0.038852356,-0.23496819,0.0,0.0,-0.122422256,0,0
93301893,0.06740628,-0.061906032,-0.47866678,-1.6000108e-21,0.97072667,0.025388362,-0.038033023,-0.23579384,0.0,0.0,-0.12370316,0,0
93344247,0.03556738,-0.049914386,-0.4830535,-9.999835e-22,0.9706242,0.01129338,-0.028478486,-0.23864219,0.0,0.0,-0.13248174,0,0
93397227,-0.016251255,-0.054440632,-0.48164687,-5.515536e-22,0.97069734,-0.014379221,-0.024493411,-0.23862092,0.0,0.0,-0.1316784,0,0
93450549,0.04972207,-0.056376133,-0.47377694,-3.4408452e-22,0.9715509,0.017542422,-0.033220213,-0.23383239,0.0,0.0,-0.1312206,0,0
93492499,0.08734835,-0.054175764,-0.47546768,-2.1550203e-22,0.9708697,0.03604439,-0.036575954,-0.23404063,0.0,0.0,-0.12641193,0,0
93545394,0.04674622,-0.05026343,-0.48146814,-1.0665581e-22,0.97073144,0.016700344,-0.029968007,-0.23770486,0.0,0.0,-0.13638712,0,0
93598875,0.030104516,-0.049793743,-0.48192483,-5.854869e-23,0.9707872,0.008672261,-0.027763115,-0.23817252,0.0,0.0,-0.14679195,0,0
93651498,0.07329026,-0.046407033,-0.48190936,-3.673102e-23,0.9704002,0.030036096,-0.031256344,-0.23757999,0.0,0.0,-0.14992899,0,0
93693985,0.052729458,-0.039265487,-0.48789108,-2.2972698e-23,0.96999335,0.020836238,-0.02540962,-0.24090055,0.0,0.0,-0.15745102,0,0
93747082,0.022712335,-0.007858592,-0.49136043,-1.2638015e-23,0.96991295,0.010059239,-0.006572975,-0.24315532,0.0,0.0,-0.16335213,0,0
93800353,0.06275758,-0.018854706,-0.486859,-6.229022e-24,0.9700675,0.02817616,-0.016706496,-0.24061604,0.0,0.0,-0.15851328,0,0
93852675,0.074208215,-0.02726045,-0.48820615,-3.9168577e-24,0.96971875,0.03270067,-0.022181295,-0.2410067,0.0,0.0,-0.15025948,0,0
93895193,0.029103074,-0.036136568,-0.4778123,-2.159997e-24,0.97139823,0.009860434,-0.020995073,-0.23632087,0.0,0.0,-0.14279784,0,0
93948308,0.07464003,-0.009447482,-0.4778123,-1.3479851e-24,0.9709518,0.035134163,-0.013415621,-0.23630133,0.0,0.0,-0.13821559,0,0
94001023,0.092623755,0.016241401,-0.4778123,-6.6793193e-25,0.97043467,0.04689854,-0.0030734586,-0.23674375,0.0,0.0,-0.13167882,0,0
94043432,0.07109167,0.024500784,-0.48432338,-4.1736584e-25,0.97003144,0.037434556,0.0033636165,-0.240055,0.0,0.0,-0.12884313,0,0
94096391,0.028758708,0.00073797436,-0.4845462,-2.3036863e-25,0.9706934,0.014047441,-0.003091458,-0.23989032,0.0,0.0,-0.12463128,0,0
94150273,0.06781152,-0.009895845,-0.48701206,-1.4360992e-25,0.9699694,0.031706505,-0.012972413,-0.24080239,0.0,0.0,-0.12,0,0
94202378,0.09164733,0.025061805,-0.4854167,-7.112625e-26,0.9694576,0.04746989,0.0011423466,-0.24061856,0.0,0.0,-0.12,0,0
94244791,0.027955703,0.0058864374,-0.48459402,-4.4443265e-26,0.97068053,0.014275155,-0.0004966639,-0.23994863,0.0,0.0,-0.12,0,0
94297732,0.0028516934,0.01226453,-0.4560008,-2.45411e-26,0.97409904,0.0027749862,0.005651242,-0.22603418,0.0,0.0,-0.12,0,0
94351234,0.039505154,0.03232733,-0.45600075,-1.52862e-26,0.9737309,0.022890223,0.011277796,-0.22626746,0.0,0.0,-0.12411414,0,0
94392977,0.09246314,0.044637628,-0.45600078,-9.5931865e-27,0.972604,0.050046768,0.011272773,-0.22673708,0.0,0.0,-0.13016434,0,0
94445949,0.051788215,0.056565598,-0.4625124,-5.3020963e-27,0.9724959,0.031671286,0.021585086,-0.22974467,0.0,0.0,-0.14329067,0,0
94498959,0.0007448674,0.042889215,-0.4658516,-2.6182097e-27,0.97276956,0.005311871,0.020777954,-0.23077998,0.0,0.0,-0.15398055,0,0
94552173,0.039008487,0.033399973,-0.47408584,-1.6371086e-27,0.97163975,0.022875713,0.01164992,-0.23506843,0.0,0.0,-0.16299817,0,0
94594271,0.095386066,0.028831884,-0.4785344,-1.0226104e-27,0.9701435,0.049724415,0.0026915,-0.23736435,0.0,0.0,-0.15471746,0,0
94647309,0.08018628,0.024831362,-0.46954423,-5.646839e-28,0.9715951,0.04186559,0.0027417704,-0.23290049,0.0,0.0,-0.15869555,0,0
94700170,0.027307725,0.010682495,-0.46661758,-2.7921408e-28,0.97278535,0.014518096,0.002039425,-0.23124406,0.0,0.0,-0.15452228,0,0
94753471,0.07398091,0.029426813,-0.47451273,-1.7433608e-28,0.9710885,0.039397843,0.0055997404,-0.23537943,0.0,0.0,-0.15955208,0,0
94795637,0.1331845,0.03643429,-0.47569266,-9.622642e-29,0.9692471,0.06894137,0.0019884561,-0.23622693,0.0,0.0,-0.15771712,0,0
94848482,0.08657405,0.040329818,-0.47521132,-6.021639e-29,0.9705911,0.04679073,0.009395191,-0.23595598,0.0,0.0,-0.16031861,0,0
94901846,0.05477951,0.036751192,-0.47539595,-2.965503e-29,0.9712355,0.030936766,0.011403758,-0.23582698,0.0,0.0,-0.15732743,0,0
94943938,0.07523322,0.027480459,-0.47779536,-1.8582642e-29,0.9706982,0.039785177,0.0044417884,-0.23694406,0.0,0.0,-0.15380237,0,0
94996930,0.12040548,0.03253996,-0.474184,-1.0258217e-29,0.96990585,0.06228984,0.0016556543,-0.23537195,0.0,0.0,-0.15049693,0,0
95049903,0.057940453,0.022737829,-0.4505387,-6.3772694e-30,0.97418845,0.03077083,0.0046070544,-0.22358178,0.0,0.0,-0.15695235,0,0
95103124,0.03434673,-0.012665992,-0.45712984,-3.1618334e-30,0.973854,0.015290863,-0.010058212,-0.22643612,0.0,0.0,-0.15482132,0,0
95145419,0.09198908,-0.014489615,-0.46510035,-1.9772116e-30,0.972104,0.043071646,-0.01763815,-0.2298859,0.0,0.0,-0.14805697,0,0
95198175,0.095621765,0.025341062,-0.46512875,-1.0940077e-30,0.971749,0.049419094,0.0013009394,-0.230781,0.0,0.0,-0.13462138,0,0
95251232,0.057829622,0.051363543,-0.4657666,-6.8127717e-31,0.9721062,0.034044873,0.018305356,-0.23133376,0.0,0.0,-0.12,0,0
95293458,0.09278502,0.080086164,-0.46064633,-4.27585e-31,0.97134167,0.05424427,0.028354535,-0.22967124,0.0,0.0,-0.12,0,0
95346466,0.10793456,0.036188483,-0.46126413,-2.3568709e-31,0.97172254,0.056634214,0.0052600065,-0.22917287,0.0,0.0,-0.12,0,0
95399710,0.04855437,0.02326412,-0.46202597,-1.1624276e-31,0.9730177,0.026290815,0.0057617887,-0.22915564,0.0,0.0,-0.12,0,0
95452754,0.083573446,0.061783135,-0.47561142,-7.2908556e-32,0.97024167,0.04784917,0.020155048,-0.23650667,0.0,0.0,-0.12,0,0
95494944,0.09455948,0.057525877,-0.47561142,-4.0145442e-32,0.9700495,0.052680243,0.016789416,-0.23653103,0.0,0.0,-0.12,0,0
95547679,0.07907978,0.0760388,-0.48345655,-2.5135725e-32,0.9691061,0.04744438,0.027420482,-0.24047992,0.0,0.0,-0.12,0,0
95600822,0.034369767,0.061903883,-0.485802,-1.2408214e-32,0.96990824,0.02411386,0.025902981,-0.24088494,0.0,0.0,-0.12,0,0
95643145,0.06960884,0.050789893,-0.4864442,-7.760263e-33,0.9694537,0.039873846,0.01625233,-0.24146526,0.0,0.0,-0.12,0,0
95696074,0.08042783,0.046973605,-0.4834453,-4.2850244e-33,0.9696485,0.044640593,0.013162463,-0.24003278,0.0,0.0,-0.12392965,0,0
95749270,0.05139304,0.015603044,-0.4815885,-2.6781345e-33,0.9707509,0.026811466,0.0014467691,-0.23858276,0.0,0.0,-0.13077377,0,0
95802073,0.010920963,-0.0024051338,-0.4876846,-1.3228931e-33,0.9704039,0.005008582,-0.0024853074,-0.2414229,0.0,0.0,-0.129798,0,0
95844435,0.083563,-0.009568272,-0.49752656,-8.270115e-34,0.9684099,0.039306276,-0.014916529,-0.2457941,0.0,0.0,-0.13140534,0,0
95897417,0.09659106,-0.03329946,-0.48550943,-4.5640533e-34,0.9696065,0.042857394,-0.027744997,-0.23928371,0.0,0.0,-0.13497928,0,0
95950847,0.043974698,-0.027198032,-0.48550943,-2.8420779e-34,0.97042704,0.018070968,-0.018481037,-0.24000695,0.0,0.0,-0.14234486,0,0
95992629,0.024464158,-0.042681478,-0.48550943,-1.7833817e-34,0.97044855,0.006741369,-0.023651471,-0.2400514,0.0,0.0,-0.1462139,0,0
96045718,0.07751371,-0.05897234,-0.50018287,-9.835446e-35,0.9680241,0.030234331,-0.038128722,-0.2460924,0.0,0.0,-0.1509363,0,0
96098707,0.10849212,-0.041346677,-0.5055757,-4.86435e-35,0.96686846,0.047322575,-0.033543065,-0.24859771,0.0,0.0,-0.1512864,0,0
96151873,0.052938618,-0.036983587,-0.5166682,-3.0322718e-35,0.966438,0.020861434,-0.024631077,-0.254864,0.0,0.0,-0.1600774,0,0
96193936,-0.012572586,-0.017122196,-0.5177513,-1.8984202e-35,0.96661013,-0.008268079,-0.006666382,-0.2560314,0.0,0.0,-0.15962583,0,0
96246995,0.037387885,-0.0008681377,-0.5003618,-1.0490306e-35,0.9687003,0.018003454,-0.0050484445,-0.2475281,0.0,0.0,-0.16198766,0,0
96299953,0.053491015,-0.014871261,-0.48159194,-5.1890876e-36,0.97082174,0.024197476,-0.013595667,-0.23819073,0.0,0.0,-0.15971792,0,0
96353177,0.013201734,-0.008499899,-0.4918003,-3.22936e-36,0.96989554,0.005367662,-0.005728822,-0.24339479,0.0,0.0,-0.16930969,0,0
96395290,-0.010755187,-0.02084226,-0.49193642,-1.79063e-36,0.9698217,-0.0077528455,-0.008797803,-0.24353312,0.0,0.0,-0.17198642,0,0
96448282,0.018435739,-0.02373322,-0.49047762,-1.1187064e-36,0.9699964,0.0060604285,-0.013748594,-0.24265452,0.0,0.0,-0.17178398,0,0
96501310,0.050905526,-0.031029489,-0.4921931,-5.527035e-37,0.9695361,0.020901928,-0.021241205,-0.24312884,0.0,0.0,-0.16864355,0,0
96543689,0.019066444,-0.046381716,-0.49034968,-3.4546283e-37,0.9698436,0.003617242,-0.024807597,-0.2424352,0.0,0.0,-0.16898671,0,0
96596620,-0.015305651,-0.080873,-0.49669844,-1.908007e-37,0.9684228,-0.017348358,-0.03730452,-0.2458959,0.0,0.0,-0.16729529,0,0
96649928,0.049690753,-0.064854406,-0.5020016,-1.1927597e-37,0.9680563,0.016001541,-0.03756293,-0.24738613,0.0,0.0,-0.16393231,0,0
96702499,0.04033815,-0.05992515,-0.5006576,-5.8969184e-38,0.96834886,0.012110545,-0.03401218,-0.24697563,0.0,0.0,-0.16525742,0,0
96745254,-0.0018875612,-0.08276261,-0.50043887,-3.6730692e-38,0.9680186,-0.011157374,-0.039847657,-0.2474423,0.0,0.0,-0.16675736,0,0
96797971,-0.036339685,-0.09013025,-0.5009197,-2.0324544e-38,0.96745235,-0.028747823,-0.03913848,-0.24834995,0.0,0.0,-0.16629815,0,0
96850952,0.019782817,-0.09637257,-0.49909592,-1.2712742e-38,0.9679697,-0.0023214538,-0.049113285,-0.24620554,0.0,0.0,-0.16837348,0,0
96893598,0.03976279,-0.08048344,-0.50158477,-7.944037e-39,0.96793896,0.009260383,-0.04389426,-0.24714693,0.0,0.0,-0.1667868,0,0
96946529,0.009784472,-0.0737335,-0.5127237,-4.387265e-39,0.9666958,-0.004616696,-0.03689304,-0.25321323,0.0,0.0,-0.16923398,0,0
96999170,0.009799493,-0.046854272,-0.4991935,-2.167617e-39,0.96876293,-0.0010396221,-0.023908798,-0.24683127,0.0,0.0,-0.16675223,0,0
97052137,0.07343295,-0.03963636,-0.48408723,-1.355654e-39,0.9701797,0.03088454,-0.02802302,-0.23877235,0.0,0.0,-0.15748553,0,0
97094607,0.050646126,-0.032716457,-0.4891535,-8.46562e-40,0.9698993,0.020603905,-0.021996005,-0.24163382,0.0,0.0,-0.16060033,0,0
97147763,0.01933288,-0.06828283,-0.49045098,-4.67465e-40,0.9695521,0.0010849462,-0.03545738,-0.2423022,0.0,0.0,-0.157766,0,0
97200451,0.034767777,-0.07162045,-0.4891408,-2.31116e-40,0.96962357,0.008186997,-0.038938303,-0.24134389,0.0,0.0,-0.13824609,0,0
97243179,0.0494147,-0.05374439,-0.49166688,-1.43957e-40,0.9694503,0.017416466,-0.0320633,-0.24255882,0.0,0.0,-0.12584507,0,0
97295803,0.02960729,-0.0130737275,-0.51115423,-7.9728e-41,0.96741533,0.012669607,-0.010065994,-0.25267708,0.0,0.0,-0.12,0,0
97349090,0.0773091,0.0010826173,-0.51115423,-4.9823e-41,0.9667894,0.03752638,-0.009246249,-0.25263515,0.0,0.0,-0.12,0,0
97401838,0.043453235,-0.03169865,-0.51115423,-2.4612e-41,0.96725476,0.017010933,-0.02082169,-0.25237927,0.0,0.0,-0.12381165,0,0
97444579,0.0045335703,-0.026695197,-0.51115423,-1.5325e-41,0.9674365,-0.0011812575,-0.01348662,-0.25275138,0.0,0.0,-0.12474287,0,0
97497182,0.02752411,-0.040837396,-0.51341414,-8.49e-42,0.9670094,0.008124501,-0.023239667,-0.25354815,0.0,0.0,-0.12624742,0,0
97550315,0.1091861,-0.046172008,-0.5148416,-5.294e-42,0.96567243,0.046885792,-0.036178164,-0.25292206,0.0,0.0,-0.12431467,0,0
97592378,0.0827102,-0.019618226,-0.5163465,-3.31e-42,0.96608835,0.037468962,-0.02003081,-0.25469214,0.0,0.0,-0.13557991,0,0
97645745,0.03447009,-0.020051854,-0.5194265,-1.83e-42,0.9663159,0.014081115,-0.01411367,-0.2565854,0.0,0.0,-0.14122087,0,0
97698466,0.028502366,-0.03461939,-0.52015305,-9.05e-43,0.9661908,0.0093188,-0.020389125,-0.25685146,0.0,0.0,-0.14347556,0,0
97751648,0.07230063,-0.028169371,-0.5203734,-5.66e-43,0.96574575,0.03130154,-0.022898398,-0.2565755,0.0,0.0,-0.14056934,0,0
97793960,0.076491885,-0.021315606,-0.52402794,-3.53e-43,0.9652147,0.034170933,-0.020190058,-0.2584286,0.0,0.0,-0.14157067,0,0
97846795,0.011395104,0.0035171702,-0.52789783,-1.96e-43,0.96534747,0.00595899,0.00021120117,-0.26089975,0.0,0.0,-0.13997932,0,0
97899959,0.05693947,0.03166863,-0.53043234,-9.7e-44,0.9644058,0.031615764,0.007813365,-0.2624138,0.0,0.0,-0.1343261,0,0
97952913,0.08203284,0.024931716,-0.53043234,-6.2e-44,0.9640153,0.04283283,0.0012722828,-0.26237035,0.0,0.0,-0.13275932,0,0
97995393,0.056513797,0.028823337,-0.53043234,-3.5e-44,0.9644437,0.031038376,0.0064968592,-0.26237896,0.0,0.0,-0.13602851,0,0
98047966,0.026569406,0.008073228,-0.53286153,-2.2e-44,0.9646097,0.0138781965,0.0003962397,-0.26331615,0.0,0.0,-0.13236085,0,0
98101067,0.07598142,0.0024049415,-0.53613526,-1.1e-44,0.96357596,0.036943283,-0.00890143,-0.2647213,0.0,0.0,-0.12998646,0,0
98143367,0.08869608,0.046984624,-0.5406194,-7e-45,0.962197,0.04897829,0.010779822,-0.26769727,0.0,0.0,-0.13499539,0,0
98196751,0.016546223,0.0588169,-0.54168427,-4e-45,0.9630313,0.015834605,0.026118908,-0.26765254,0.0,0.0,-0.13334802,0,0
98249255,0.058515314,0.06671519,-0.5584396,-3e-45,0.96005595,0.03729278,0.02398807,-0.27627242,0.0,0.0,-0.13691992,0,0
98302288,0.103649154,0.059657894,-0.5584396,-3e-45,0.9591273,0.05798178,0.014360543,-0.2765984,0.0,0.0,-0.13557243,0,0
98344834,0.07565434,0.03865827,-0.5584396,-3e-45,0.9602022,0.04166977,0.00814513,-0.27605975,0.0,0.0,-0.14689332,0,0
98397696,0.034589753,0.033636544,-0.5584396,-3e-45,0.9609109,0.02125618,0.011398077,-0.27580518,0.0,0.0,-0.1546807,0,0
98450529,0.017942302,-0.013740756,-0.55843955,-3e-45,0.9612264,0.0067299614,-0.009076385,-0.2755289,0.0,0.0,-0.15738665,0,0
98492884,0.08016863,-0.05450342,-0.5775665,-3e-45,0.9577764,0.0306462,-0.03750719,-0.28340495,0.0,0.0,-0.15484749,0,0
98546228,0.088618904,-0.0021538537,-0.5719228,-3e-45,0.9584621,0.042192668,-0.013526889,-0.28175718,0.0,0.0,-0.15939906,0,0
98598869,0.014841024,-0.02538189,-0.56820804,-3e-45,0.9598358,0.0035653615,-0.014261308,-0.28017682,0.0,0.0,-0.1551114,0,0
98651909,0.060479317,0.0023166786,-0.5653188,-3e-45,0.9598676,0.029358145,-0.0073210048,-0.27881643,0.0,0.0,-0.1517732,0,0
98694242,0.073129445,0.012775323,-0.5653188,-3e-45,0.9595905,0.03688557,-0.0040657665,-0.27894264,0.0,0.0,-0.1512202,0,0
98747775,0.052899066,-0.0016033559,-0.5653188,-3e-45,0.9599868,0.02517345,-0.008145786,-0.2787925,0.0,0.0,-0.15411988,0,0
98800233,0.0411042,-0.01928467,-0.5686698,-3e-45,0.9596567,0.017020348,-0.015017665,-0.28025663,0.0,0.0,-0.16186535,0,0
98853173,0.082679726,-0.04818169,-0.57593817,-3e-45,0.95800817,0.03277938,-0.034810875,-0.282726,0.0,0.0,-0.16177273,0,0
98895535,0.11550169,-0.050084617,-0.57582545,-3e-45,0.9573504,0.048227407,-0.040353183,-0.28200343,0.0,0.0,-0.15809259,0,0
98948750,0.03585026,-0.027348522,-0.5802439,-3e-45,0.9580356,0.013262462,-0.01822736,-0.28576156,0.0,0.0,-0.15261918,0,0
99001419,0.048260283,0.027873287,-0.58484817,-3e-45,0.95707923,0.027117558,0.0063859387,-0.28848433,0.0,0.0,-0.14415379,0,0
99043945,0.07886853,0.027358474,-0.58484817,-3e-45,0.95655847,0.041687064,0.0017240605,-0.2885396,0.0,0.0,-0.14131978,0,0
99097136,0.07387091,-0.008711909,-0.58484817,-3e-45,0.95693207,0.034104243,-0.014813195,-0.2879209,0.0,0.0,-0.14536333,0,0
99150016,0.0023426758,-0.033383697,-0.5848481,-3e-45,0.9574195,-0.0036901468,-0.016320111,-0.2882152,0.0,0.0,-0.14213379,0,0
99202784,0.05197103,-0.034149542,-0.5882483,-3e-45,0.95672244,0.019915087,-0.023866512,-0.28933704,0.0,0.0,-0.1474505,0,0
99245220,0.080106884,-0.01656047,-0.58847827,-3e-45,0.9563189,0.03592109,-0.019530395,-0.28945196,0.0,0.0,-0.14680493,0,0
99298406,0.06989337,-0.022061374,-0.5979601,-3e-45,0.95510936,0.030140536,-0.020825358,-0.29397961,0.0,0.0,-0.14896148,0,0
99351364,0.032101907,0.034034558,-0.5960053,-3e-45,0.9555831,0.020336209,0.011552499,-0.2937923,0.0,0.0,-0.14520364,0,0
99393449,0.039193768,0.049041305,-0.60770845,-3e-45,0.9535766,0.02602678,0.017529283,-0.29951116,0.0,0.0,-0.14516969,0,0
99446461,0.06465389,0.024981182,-0.60770845,-3e-45,0.9534967,0.034573417,0.0022420792,-0.29940572,0.0,0.0,-0.14617816,0,0
99500108,0.026055008,0.01117178,-0.60770845,-3e-45,0.9540728,0.014101321,0.0014318628,-0.29923946,0.0,0.0,-0.15073936,0,0
99552378,0.005020189,-0.015489575,-0.613127,-3e-45,0.95335054,5.57671e-05,-0.008141084,-0.30175558,0.0,0.0,-0.1497358,0,0
99594769,0.06325668,-0.049728896,-0.62469447,-3e-45,0.9510866,0.02244761,-0.033361655,-0.30629635,0.0,0.0,-0.14557374,0,0
99648033,0.076419346,-0.01899913,-0.6242012,-3e-45,0.9510645,0.033438552,-0.020763129,-0.30647513,0.0,0.0,-0.14431162,0,0
99700747,0.04378451,-0.0058917785,-0.62686044,-3e-45,0.95106936,0.019915875,-0.009551023,-0.30818698,0.0,0.0,-0.15003319,0,0
99743193,-0.0073313606,0.027281946,-0.6213058,-3e-45,0.95205456,0.0006797327,0.014107964,-0.30560225,0.0,0.0,-0.14308463,0,0
99796074,0.047394153,0.0475904,-0.6341285,-3e-45,0.94944334,0.029923461,0.015215189,-0.3121384,0.0,0.0,-0.13952485,0,0
99849286,0.044965275,0.038323235,-0.63412845,-3e-45,0.94960606,0.027328568,0.011193062,-0.31205174,0.0,0.0,-0.14096309,0,0
99902016,0.015356737,0.023293376,-0.63412845,-3e-45,0.95003444,0.01092607,0.008671816,-0.31183314,0.0,0.0,-0.14134939,0,0
99944441,0.027073298,-0.0060883276,-0.64334905,-3e-45,0.9486291,0.011879527,-0.007167289,-0.31608614,0.0,0.0,-0.14059107,0,0
99997381,0.07142665,0.0011188843,-0.64416254,-3e-45,0.94796735,0.034046665,-0.010772008,-0.3163585,0.0,0.0,-0.13737325,0,0
100050541,0.02679111,0.006463503,-0.6395908,-3e-45,0.94919604,0.01373183,-0.0011434235,-0.31438357,0.0,0.0,-0.14128244,0,0
100092716,-0.013647065,0.011959583,-0.6307447,-3e-45,0.95065445,-0.0046321354,0.007801112,-0.31011894,0.0,0.0,-0.13548554,0,0
100145730,0.027448315,0.02921036,-0.6307447,-3e-45,0.95042783,0.017575003,0.009626825,-0.31029874,0.0,0.0,-0.13300352,0,0
100199073,0.05406984,0.04623081,-0.6307447,-3e-45,0.9498859,0.032858048,0.013583216,-0.31056827,0.0,0.0,-0.13460428,0,0
100251582,0.011260661,0.02418808,-0.6307447,-3e-45,0.95057523,0.009103291,0.009750886,-0.3102076,0.0,0.0,-0.13877314,0,0
100293966,0.014943803,0.024561401,-0.63483703,-3e-45,0.9499175,0.010930826,0.0093346955,-0.31217006,0.0,0.0,-0.14608814,0,0
100347055,0.055965044,-0.005914828,-0.64474237,-3e-45,0.94813764,0.025600882,-0.0116680935,-0.3166126,0.0,0.0,-0.14725281,0,0
100400339,0.08375598,0.00030588263,-0.63773555,-3e-45,0.94875634,0.039803244,-0.012979457,-0.31322283,0.0,0.0,-0.14620866,0,0
100452865,0.024524705,0.003327105,-0.63596284,-3e-45,0.94978935,0.012167384,-0.0022536847,-0.31264523,0.0,0.0,-0.14772394,0,0
100495273,-0.0014165149,0.01581539,-0.63596284,-3e-45,0.94984025,0.001799583,0.00773262,-0.31263465,0.0,0.0,-0.14925805,0,0
100548281,0.069510154,0.02932195,-0.63596284,-3e-45,0.94903356,0.037583377,0.0030542754,-0.31291133,0.0,0.0,-0.14683321,0,0
100601556,0.051832475,0.050192103,-0.64007396,-3e-45,0.9484017,0.032481592,0.01566146,-0.3150142,0.0,0.0,-0.15241416,0,0
100643558,0.02238167,0.025716463,-0.6420169,-3e-45,0.94873446,0.014674789,0.008669695,-0.31561437,0.0,0.0,-0.15600291,0,0
100696551,0.011594125,0.019169895,-0.6513487,-3e-45,0.94735795,0.008558642,0.007226163,-0.31998035,0.0,0.0,-0.16405699,0,0
100750818,0.06974755,-0.020756897,-0.66271985,-3e-45,0.9450927,0.029593911,-0.021150272,-0.32477176,0.0,0.0,-0.16143356,0,0
100802574,0.089935735,-0.0033897196,-0.6491054,-3e-45,0.9468583,0.04206591,-0.015939474,-0.31848985,0.0,0.0,-0.16319424,0,0
100844943,0.05460492,-0.018099718,-0.60268605,-3e-45,0.9546171,0.023382882,-0.016740832,-0.29644433,0.0,0.0,-0.16496527,0,0
100897896,0.0102400975,-0.036641,-0.60576296,-3e-45,0.9543363,-0.00057796284,-0.019012265,-0.29812834,0.0,0.0,-0.16058746,0,0
100951514,0.08250137,-0.022604516,-0.6073694,-3e-45,0.95350784,0.03597256,-0.023106925,-0.29832008,0.0,0.0,-0.1552641,0,0
100993186,0.06243764,-0.020131525,-0.6109807,-3e-45,0.9532811,0.02674117,-0.01898227,-0.30029944,0.0,0.0,-0.16214825,0,0
101046080,0.011265613,-0.0045332722,-0.61610043,-3e-45,0.95291287,0.004680373,-0.0038677622,-0.30318347,0.0,0.0,-0.16258356,0,0
101099083,0.009602022,-0.0022265832,-0.58845055,-3e-45,0.957017,0.004271828,-0.0024577177,-0.28998992,0.0,0.0,-0.16620685,0,0
101152666,0.07327954,-0.0013935016,-0.58845055,-3e-45,0.956392,0.034855474,-0.01128946,-0.28977934,0.0,0.0,-0.16661713,0,0
101194515,0.0816528,-0.010652435,-0.58845055,-3e-45,0.9562791,0.037517264,-0.016929204,-0.28954467,0.0,0.0,-0.17229968,0,0
101247433,0.014225608,-0.035260495,-0.58845055,-3e-45,0.9568905,0.0016936796,-0.018933687,-0.2898261,0.0,0.0,-0.17457636,0,0
101300413,0.008392578,-0.022997221,-0.58845055,-3e-45,0.9569694,0.0006812081,-0.012220976,-0.2899306,0.0,0.0,-0.17548907,0,0
101342757,0.07865285,-0.035255853,-0.58845055,-3e-45,0.95633954,0.032513056,-0.028256383,-0.28906602,0.0,0.0,-0.16955934,0,0
101395852,0.045532677,-0.028755179,-0.5935431,-3e-45,0.95603466,0.017563721,-0.020401442,-0.29201543,0.0,0.0,-0.17266357,0,0
101448817,-0.013270665,-0.0088886125,-0.594283,-3e-45,0.95613825,-0.0076456526,-0.0023067237,-0.29280704,0.0,0.0,-0.16958082,0,0
101502019,0.03978617,0.012653813,-0.5829866,-3e-45,0.9575709,0.020870145,0.00034233104,-0.28744075,0.0,0.0,-0.17069742,0,0
101544091,0.04765003,0.003816577,-0.58298653,-3e-45,0.9575291,0.023366034,-0.005018973,-0.2873443,0.0,0.0,-0.16915019,0,0
101597093,0.004885519,-0.013723322,-0.6045324,-3e-45,0.954644,0.00028937057,-0.0072776647,-0.2976606,0.0,0.0,-0.17928241,0,0
101650235,-0.055629857,-0.034049723,-0.6070425,-3e-45,0.9536411,-0.03162245,-0.007928472,-0.29917523,0.0,0.0,-0.1777407,0,0
101692405,-0.040022187,-0.0370429,-0.60208666,-3e-45,0.9545627,-0.024597105,-0.011751736,-0.29676047,0.0,0.0,-0.17575273,0,0
101745352,0.048911814,0.008265388,-0.60064477,-3e-45,0.9549175,0.024580957,-0.003287435,-0.29583374,0.0,0.0,-0.16593525,0,0
101798324,0.029897822,-0.016385486,-0.6003403,-3e-45,0.95518357,0.011857322,-0.012245276,-0.29552284,0.0,0.0,-0.16305947,0,0
101851458,0.019334905,-0.022998868,-0.6005907,-3e-45,0.95517427,0.0058327457,-0.01384349,-0.29566276,0.0,0.0,-0.15763761,0,0
101893672,0.0661095,-0.008566311,-0.6005791,-3e-45,0.9547622,0.03030329,-0.013864859,-0.29549727,0.0,0.0,-0.15396029,0,0
101946985,0.07835983,-0.008687087,-0.60253775,-3e-45,0.95426935,0.03611748,-0.015767574,-0.29633915,0.0,0.0,-0.15565874,0,0
101999961,0.008171229,-0.031779386,-0.60419333,-3e-45,0.95460564,-0.00082721096,-0.016384764,-0.29742053,0.0,0.0,-0.15701334,0,0
102052862,0.0013519792,-0.044098746,-0.60671633,-3e-45,0.9541109,-0.005941236,-0.021242749,-0.29863977,0.0,0.0,-0.15667295,0,0
102095071,0.060811814,-0.06852748,-0.60806656,-3e-45,0.95344776,0.018739078,-0.041766696,-0.2980632,0.0,0.0,-0.15129222,0,0
102148256,0.026250284,-0.099362865,-0.6071381,-3e-45,0.95321095,-0.0023345924,-0.05130472,-0.29791138,0.0,0.0,-0.15969527,0,0
102200906,-0.013949171,-0.06543523,-0.60615766,-3e-45,0.95382005,-0.016416006,-0.029139578,-0.2985109,0.0,0.0,-0.15991646,0,0
102243366,0.01074796,-0.019744517,-0.59016496,-3e-45,0.95673317,0.0022704815,-0.011008042,-0.2907496,0.0,0.0,-0.16427948,0,0
102296390,0.09010408,0.052041937,-0.5901649,-3e-45,0.95514303,0.05063449,0.011775115,-0.29154643,0.0,0.0,-0.16288355,0,0
102349782,0.051565807,0.031491492,-0.6063696,-3e-45,0.9538338,0.029300494,0.0073260046,-0.2988124,0.0,0.0,-0.17118563,0,0
102402204,0.008174779,0.05688807,-0.6152576,-3e-45,0.9526256,0.012505527,0.02586767,-0.30278543,0.0,0.0,-0.16880822,0,0
102444717,-0.0033546102,0.06431497,-0.60925686,-3e-45,0.95348006,0.008044347,0.031174403,-0.2997318,0.0,0.0,-0.16970968,0,0
102501564,0.053761546,0.050602313,-0.60871214,-3e-45,0.95318645,0.033212714,0.01607497,-0.30012345,0.0,0.0,-0.16809143,0,0
102550624,0.025059022,0.01453076,-0.6124018,-3e-45,0.9533582,0.014135956,0.0031501534,-0.30149364,0.0,0.0,-0.17250986,0,0
102592862,-0.01258708,-0.038627516,-0.6124018,-3e-45,0.95325226,-0.0118210735,-0.016517134,-0.30149218,0.0,0.0,-0.17238234,0,0
102645900,-0.012696973,-0.08928304,-0.6192162,-3e-45,0.9513987,-0.019637397,-0.040571623,-0.3046455,0.0,0.0,-0.16919158,0,0
102698924,0.045736235,-0.11337899,-0.64072984,-3e-45,0.94775605,0.0038298166,-0.06095156,-0.31309518,0.0,0.0,-0.15297136,0,0
102752075,0.028805269,-0.07842192,-0.63994527,-3e-45,0.9485936,0.0013316342,-0.041733947,-0.31373027,0.0,0.0,-0.13751562,0,0
102794134,0.0284138,-0.025956094,-0.64106566,-3e-45,0.94895005,0.009393226,-0.016791131,-0.31483904,0.0,0.0,-0.12,0,0
102847238,0.058520425,-0.009890834,-0.6327015,-3e-45,0.95000356,0.026266072,-0.013799439,-0.31082606,0.0,0.0,-0.12,0,0
102900196,0.043769408,-0.025089132,-0.63650763,-3e-45,0.949567,0.016858174,-0.018758278,-0.31254828,0.0,0.0,-0.12,0,0
102953025,0.006830088,-0.0508749,-0.6371522,-3e-45,0.9493968,-0.0047243247,-0.025224049,-0.31302896,0.0,0.0,-0.12,0,0
102995478,0.026416134,-0.08024951,-0.6401307,-3e-45,0.9485348,-9.306895e-05,-0.042225648,-0.31384504,0.0,0.0,-0.12,0,0
103048424,0.08409851,-0.068692,-0.6424396,-3e-45,0.94790894,0.02903105,-0.045818258,-0.3138894,0.0,0.0,-0.12,0,0
103101392,0.038912755,-0.080492385,-0.64877427,-3e-45,0.947149,0.005603861,-0.044325564,-0.31766757,0.0,0.0,-0.13065264,0,0
103144182,0.027089903,-0.048373517,-0.6521652,-3e-45,0.9470455,0.0050806617,-0.0272454,-0.31990114,0.0,0.0,-0.13443562,0,0
103196814,0.012871931,-0.070120186,-0.64821,-3e-45,0.9474058,-0.0050656446,-0.03527556,-0.31804433,0.0,0.0,-0.1386905,0,0
103249886,0.053187657,-0.034278493,-0.64533454,-3e-45,0.9480629,0.019782104,-0.024678798,-0.31650648,0.0,0.0,-0.1401196,0,0
103302688,0.052080672,-0.02367157,-0.6649929,-3e-45,0.9449444,0.020747768,-0.019681599,-0.32597893,0.0,0.0,-0.14485441,0,0
103345152,0.009786435,-0.03077838,-0.6715525,-3e-45,0.9440565,-0.00045112084,-0.016141158,-0.3293881,0.0,0.0,-0.14873487,0,0
103397995,0.002142447,-0.060818113,-0.6732761,-3e-45,0.9434444,-0.009032405,-0.02905145,-0.3301321,0.0,0.0,-0.15695193,0,0
103451102,0.053460054,-0.08918905,-0.67685825,-3e-45,0.94239855,0.010390319,-0.050900687,-0.33043328,0.0,0.0,-0.15368754,0,0
103493743,0.065011516,-0.07468757,-0.678064,-3e-45,0.94232523,0.018218528,-0.045992423,-0.3310226,0.0,0.0,-0.15455925,0,0
103546411,0.040435757,-0.07702265,-0.6827929,-3e-45,0.9416576,0.0061477465,-0.04303591,-0.3337532,0.0,0.0,-0.15804546,0,0
103599414,0.02015509,-0.03936914,-0.6742376,-3e-45,0.9435465,0.0029979893,-0.021907056,-0.3305014,0.0,0.0,-0.1548276,0,0
103652303,0.058552306,-0.03214425,-0.66654485,-3e-45,0.94460386,0.022402452,-0.024755336,-0.32651016,0.0,0.0,-0.1572439,0,0
103694854,0.082516335,-0.035902426,-0.672526,-3e-45,0.9432833,0.0330123,-0.030538075,-0.32892892,0.0,0.0,-0.15724152,0,0
103747653,0.024899157,-0.048355263,-0.67844284,-3e-45,0.94276553,0.0036926214,-0.026937172,-0.3323461,0.0,0.0,-0.15732467,0,0
103800629,0.024912175,-0.061664883,-0.6772626,-3e-45,0.9428164,0.0015028127,-0.0332104,-0.33165058,0.0,0.0,-0.15473253,0,0
103843401,0.07853437,-0.04760903,-0.6774768,-3e-45,0.9424911,0.029112473,-0.035473727,-0.33106592,0.0,0.0,-0.14964432,0,0
103896067,0.050914012,-0.048989654,-0.6866296,-3e-45,0.94126636,0.015719943,-0.03162122,-0.33581322,0.0,0.0,-0.15080641,0,0
103948965,0.023780031,-0.017288605,-0.6843861,-3e-45,0.9419538,0.008299575,-0.012131934,-0.33542073,0.0,0.0,-0.14988236,0,0
104001958,0.061033767,-0.010022823,-0.6724564,-3e-45,0.9436049,0.027150651,-0.014795291,-0.32962674,0.0,0.0,-0.15637505,0,0
104044776,0.09937185,-0.01910173,-0.6743706,-3e-45,0.94263893,0.043710876,-0.025431983,-0.3299612,0.0,0.0,-0.15241571,0,0
104097329,0.06013453,-0.044493012,-0.67821586,-3e-45,0.94261473,0.020947445,-0.030966168,-0.33178267,0.0,0.0,-0.16287369,0,0
104150819,0.00746444,-0.029633386,-0.6782141,-3e-45,0.9429603,-0.0014092022,-0.015213671,-0.33255413,0.0,0.0,-0.16365843,0,0
104192644,0.014180722,-0.011504508,-0.67963874,-3e-45,0.9427892,0.0047674673,-0.0077864216,-0.33326447,0.0,0.0,-0.1705795,0,0
104245980,0.06226248,-0.03233707,-0.6794728,-3e-45,0.9424302,0.023958147,-0.025607431,-0.3325591,0.0,0.0,-0.16653425,0,0
104298670,0.043394208,-0.031873196,-0.6780866,-3e-45,0.94284654,0.015158954,-0.022239856,-0.33213842,0.0,0.0,-0.17132568,0,0
104351762,0.016029755,-0.021551466,-0.6771771,-3e-45,0.94316804,0.0039802673,-0.012825418,-0.3320447,0.0,0.0,-0.1662465,0,0
104393876,0.037082113,-0.02224311,-0.67499375,-3e-45,0.94343424,0.013811077,-0.016630827,-0.33085427,0.0,0.0,-0.16044986,0,0
104446956,0.068176314,-0.016116474,-0.66495353,-3e-45,0.94474673,0.029585568,-0.01873579,-0.32592538,0.0,0.0,-0.15850514,0,0
104499935,0.00792654,-0.013197211,-0.67197627,-3e-45,0.94406563,0.0015660304,-0.007536217,-0.32966778,0.0,0.0,-0.16507706,0,0
104552767,0.017560331,-0.023791542,-0.67121756,-3e-45,0.9441412,0.0043720687,-0.014122862,-0.32920945,0.0,0.0,-0.16605487,0,0
104595540,0.053249292,-0.023830427,-0.67138433,-3e-45,0.9438854,0.021210115,-0.020014988,-0.32898313,0.0,0.0,-0.1650432,0,0
104648272,0.07447744,-0.029712807,-0.6705729,-3e-45,0.9437393,0.03026834,-0.026267733,-0.328253,0.0,0.0,-0.16937087,0,0
104701207,-0.0033776062,-0.019437699,-0.6698541,-3e-45,0.94438297,-0.0047894213,-0.008623574,-0.3286998,0.0,0.0,-0.16816308,0,0
104743594,-0.008194783,-0.027237307,-0.671185,-3e-45,0.9441015,-0.008353287,-0.011509176,-0.32934806,0.0,0.0,-0.16524468,0,0
104796753,0.05886647,-0.007465174,-0.6711851,-3e-45,0.943836,0.026558394,-0.013214574,-0.32908008,0.0,0.0,-0.16032995,0,0
104849811,0.031662174,-0.00922285,-0.67746836,-3e-45,0.9430721,0.013398571,-0.009609116,-0.33217943,0.0,0.0,-0.16424312,0,0
104902499,0.004178741,-0.009615125,-0.6785972,-3e-45,0.94297874,0.00037015678,-0.005228835,-0.33281174,0.0,0.0,-0.16085622,0,0
104944901,0.023326019,-0.013373783,-0.6795791,-3e-45,0.94276565,0.008767183,-0.010191065,-0.33318505,0.0,0.0,-0.15969478,0,0
104997749,0.04521905,-0.040096804,-0.67903256,-3e-45,0.9426364,0.014638191,-0.026425375,-0.33245164,0.0,0.0,-0.14895765,0,0
105050807,-0.0005773908,-0.013820296,-0.68148243,-3e-45,0.942484,-0.0025813456,-0.0064163366,-0.33417967,0.0,0.0,-0.14398356,0,0
105093143,0.033485256,-0.032006826,-0.68148243,-3e-45,0.942344,0.010430154,-0.020674745,-0.33384365,0.0,0.0,-0.14444895,0,0
105146461,0.06652211,0.015890662,-0.68148243,-3e-45,0.94186795,0.033995733,-0.0036286598,-0.33423948,0.0,0.0,-0.14780106,0,0
105199075,0.009967959,0.039955556,-0.6984045,-3e-45,0.9394127,0.011517044,0.017065644,-0.34216937,0.0,0.0,-0.15158096,0,0
105252048,-0.00023303778,0.028328722,-0.6901837,-3e-45,0.9409505,0.0046817656,0.013368259,-0.33824766,0.0,0.0,-0.15209407,0,0
105294556,0.066060804,0.034474716,-0.68680835,-3e-45,0.9407689,0.036891878,0.0051038023,-0.33699676,0.0,0.0,-0.15314403,0,0
105347763,0.038605493,0.0077410936,-0.68680835,-3e-45,0.94140637,0.019477414,-0.0028548015,-0.33669955,0.0,0.0,-0.15687473,0,0
105400325,-0.0052533094,-0.0097870575,-0.68680835,-3e-45,0.94159514,-0.0041208738,-0.003723412,-0.33670136,0.0,0.0,-0.1577401,0,0
105442763,-0.0006168612,-0.039635893,-0.68680835,-3e-45,0.94142693,-0.0069625205,-0.018555805,-0.3366341,0.0,0.0,-0.16140644,0,0
105495794,0.049068782,-0.07074218,-0.7075683,-3e-45,0.9375001,0.010750161,-0.041657373,-0.3453153,0.0,0.0,-0.16273862,0,0
105548687,0.07666321,-0.09013806,-0.69987416,-3e-45,0.9383429,0.02052829,-0.055417176,-0.34061706,0.0,0.0,-0.16030088,0,0
105601659,0.020463219,-0.06818976,-0.6773927,-3e-45,0.94270706,-0.0016809417,-0.035547487,-0.33171833,0.0,0.0,-0.16352174,0,0
105644025,0.018163167,-0.09031188,-0.6773927,-3e-45,0.9423246,-0.006440897,-0.045588646,-0.33151877,0.0,0.0,-0.15776783,0,0
105697351,0.067405514,-0.076576464,-0.67739266,-3e-45,0.94239074,0.019047514,-0.047271375,-0.3306091,0.0,0.0,-0.154919,0,0
105750072,0.049455564,-0.09056264,-0.6773927,-3e-45,0.9423057,0.008261347,-0.050887916,-0.33076012,0.0,0.0,-0.15771516,0,0
105802923,0.025701782,-0.092244536,-0.6773927,-3e-45,0.9423046,-0.0032101928,-0.047748134,-0.3313182,0.0,0.0,-0.16351959,0,0
105845297,0.02428874,-0.11001712,-0.6751519,-3e-45,0.94228476,-0.006767019,-0.055889938,-0.3300455,0.0,0.0,-0.16014771,0,0
105898678,0.039474502,-0.06928929,-0.6799834,-3e-45,0.9422362,0.007046358,-0.03922619,-0.3325698,0.0,0.0,-0.15073183,0,0
105951314,-0.0074433,-0.037158974,-0.68444717,-3e-45,0.9418185,-0.0097397715,-0.016252248,-0.33558744,0.0,0.0,-0.14366257,0,0
105993622,0.03124686,-0.015403413,-0.7161995,-3e-45,0.9364646,0.011932268,-0.012687746,-0.3503293,0.0,0.0,-0.13815692,0,0
