timestamp,timestamp_sample,xyz[0],xyz[1],xyz[2]
80401509,80401175,-0.00048568143,-0.0295048,-0.00028089384
80402838,80402508,-0.009639093,-0.009272164,-0.0021789027
80404168,80403840,-0.021887867,0.019639494,0.00035106365
80405504,80405173,-0.020871866,0.035300594,0.0013232958
80406834,80406506,-0.008468801,0.025112934,-0.00018937768
80408217,80407884,0.0013650631,-0.0016422155,-0.00029120414
80409485,80409153,-0.00036819436,-0.0241348,0.0024768184
80410935,80410606,-0.008935959,-0.029066589,0.00443243
80412183,80411842,-0.010516167,-0.021160841,0.0022889366
80413450,80413121,-0.008705361,0.0012046602,-0.0018096792
80414763,80414432,-0.009390726,0.024275864,-0.0017620049
80416091,80415765,-0.014025196,0.029010074,0.0019603043
80417422,80417098,-0.016264018,0.007986356,0.0047833584
80418761,80418431,-0.011543616,-0.018224873,0.002974576
80420095,80419765,-0.002305797,-0.031015983,0.001524832
80421336,80421008,0.004028757,-0.024970787,0.0031369936
80422672,80422340,-0.0031351317,-0.0051200106,0.0037578214
80424013,80423686,-0.019941833,0.015526692,0.0002962194
80425345,80425006,-0.032907024,0.022828577,-0.0025982845
80426665,80426339,-0.029875576,0.0124778,0.000877512
80428002,80427672,-0.015266836,-0.01039954,0.005935914
80429335,80429007,-0.006260288,-0.029687995,0.0049757534
80430664,80430338,-0.0070878016,-0.032262076,-0.00031616873
80432012,80431671,-0.009671126,-0.013851394,-0.0028473202
80433246,80432921,-0.008222559,0.018367402,-0.00022838936
80434641,80434315,-0.0024190398,0.035863835,0.0003724581
80435915,80435587,-0.002826421,0.025133865,-0.00434249
80437273,80436945,-0.009051728,-0.006632742,-0.004469427
80438581,80438253,-0.012911276,-0.029946323,0.0011322522
80439920,80439587,-0.013617833,-0.03156283,0.0038188405
80441268,80440940,-0.01456648,-0.0172921,0.00026350003
80504798,80504467,-0.015980795,0.02616241,0.0027623305
80506127,80505800,-0.011945013,0.0030805073,0.0016517135
80507469,80507141,-0.006763211,-0.025616203,-0.0011312994
80508794,80508466,-0.0054272483,-0.034052204,-0.001843762
80510151,80509823,-0.009671972,-0.01536018,-0.001800596
80511402,80511068,-0.018412523,0.018397365,-0.0054054777
80512729,80512399,-0.022558501,0.041440766,-0.008221216
80514059,80513732,-0.014418652,0.041732855,-0.006858278
80515395,80515068,-0.0032887077,0.01289745,-0.0019532354
80516728,80516398,-0.00086520036,-0.027939364,0.0033334997
80518081,80517731,-0.010276867,-0.05482735,0.0036618344
80519421,80519067,-0.019257184,-0.052534077,0.0022177827
80520755,80520402,-0.01645997,-0.017396184,0.0026276982
80522161,80521830,-0.008600031,0.029426612,0.0024799
80523429,80523098,-0.0067644906,0.049111478,-0.0009836678
80524694,80524340,-0.019798731,0.031215858,-0.004433154
80526024,80525673,-0.029011121,-0.008925234,-0.0020085862
80527352,80527020,-0.020854972,-0.04571903,0.0018049777
80528691,80528354,-0.0076322695,-0.054207433,0.0008740049
80529951,80529596,-0.0044760574,-0.028874302,-0.0013258473
80531307,80530929,-0.012287948,0.010952227,-0.0007715923
80532609,80532284,-0.018741988,0.040402908,-0.00057334214
80533942,80533615,-0.015152908,0.04157062,-0.0032429502
80535275,80534950,-0.0057080355,0.017404344,-0.005080292
80536610,80536284,-0.0023154032,-0.018886482,-0.0034425508
80537920,80537594,-0.0037967686,-0.048887603,-0.0008314582
80539273,80538945,-0.004502439,-0.04643759,-0.00334899
80540521,80540191,-0.0036650677,-0.010029467,-0.009745571
80541853,80541524,-1.6846923e-07,0.031022485,-0.01237168
80543179,80542852,0.00020798542,0.04963993,-0.00864719
80544516,80544186,-0.0051460755,0.03911368,-0.0041353386
80545888,80545562,-0.012305958,-0.0023917463,-0.0021441802
80547187,80546852,-0.013647448,-0.045585435,0.000104327126
80548509,80548185,-0.008993857,-0.057654243,0.0032258246
80549862,80549534,-0.008312083,-0.029123468,0.0023208417
80551198,80550864,-0.016621904,0.018922534,-0.003129874
80552442,80552114,-0.026054185,0.049316876,-0.0076009515
80553772,80553445,-0.02559739,0.042828668,-0.006905234
80555112,80554778,-0.014526113,0.009933689,-0.0033813962
80556443,80556116,-0.008802819,-0.027598746,-0.0019936485
80557805,80557473,-0.012931932,-0.049930915,-0.0011315625
80559109,80558778,-0.01949908,-0.03881893,0.0018359231
80560483,80560156,-0.017286636,-0.00029449697,0.004323255
80561726,80561398,-0.008903471,0.037823945,0.0032702421
80563068,80562731,0.0021057772,0.0443272,0.00093786273
80564391,80564064,0.004920116,0.017982768,0.00048598237
80565726,80565397,-0.006321839,-0.019836234,0.0027577677
80567170,80566840,-0.02017781,-0.04351285,0.0036875233
80568426,80568093,-0.019346595,-0.040886946,0.0033718788
80569660,80569332,0.0007558405,-0.011517215,0.003085758
80571011,80570678,0.013731818,0.0243515,0.0015066148
80572338,80572002,0.0015945317,0.039433327,0.00056116417
80573662,80573334,-0.024909457,0.026020017,0.003235651
80575002,80574667,-0.036628213,-0.006913106,0.008788205
80576332,80576004,-0.023383895,-0.035236515,0.010816207
80577658,80577333,-0.0050915075,-0.04099562,0.006476495
80578993,80578666,-0.0035180836,-0.021087464,0.0011705816
80580326,80579999,-0.01727206,0.01215635,-0.00039213692
80581568,80581241,-0.027960554,0.03638296,4.3948556e-05
80582902,80582574,-0.022850998,0.035539296,-0.00084577914
80584255,80583927,-0.01146558,0.012287864,-0.0011628718
80585567,80585240,-0.006846895,-0.018827422,0.0018640343
80586916,80586574,-0.008300329,-0.03842621,0.0048070545
80588251,80587925,-0.006602093,-0.037569996,0.0044996343
80589638,80589309,0.006429359,-0.016852574,0.002994608
80591010,80590678,0.019720698,0.01269216,0.003157299
80592258,80591929,0.015268843,0.03156785,0.0046202852
80593499,80593170,-0.008873683,0.02618449,0.0040592803
80594833,80594505,-0.031626802,0.0034601092,0.0034772046
80596163,80595837,-0.030981915,-0.018572597,0.0028347396
80597506,80597172,-0.013011613,-0.029245196,0.0021662118
80600167,80599837,-0.0054342267,-0.0004742695,-0.0020269773
80601498,80601168,-0.029889893,0.013974787,-0.0013205776
80602835,80602502,-0.043226685,0.016853772,0.0035453842
80604161,80603835,-0.032120828,0.009359765,0.008465414
80605404,80605077,-0.008587461,-0.0006354619,0.009194059
80606735,80606410,0.0031220173,-0.0094013335,0.0051674554
80608073,80607743,-0.0044939606,-0.012811828,0.0020152282
80609405,80609076,-0.015971731,-0.010585592,0.0011716521
80610736,80610409,-0.020755656,-0.0029552695,0.00021097703
80612144,80611806,-0.014987074,0.0029030151,-0.0020210238
80613410,80613083,-0.0101235,0.0066124666,-0.004211221
80614715,80614391,-0.004687537,0.006613236,-0.0018387092
80616050,80615723,0.0035618774,0.0023440996,0.00265269
80617381,80617057,0.012407772,-0.008591459,0.0039596963
80618717,80618390,0.0130903395,-0.018002452,0.0010293322
80620052,80619724,0.001120644,-0.016074019,-0.00065548625
80621313,80620985,-0.016409898,-0.003229311,0.0016886225
80622650,80622323,-0.028241543,0.0068464424,0.0020110293
80623963,80623633,-0.02982582,0.010097636,-0.002024734
80625291,80624966,-0.01961542,0.003065486,-0.004765488
80626662,80626326,-0.009197868,-0.0048621856,-0.004625615
80627966,80627632,-0.007343346,-0.0050802273,-0.0049063805
80629292,80628965,-0.0082960045,-0.0047022626,-0.00603109
80630655,80630324,-0.011627995,-0.002953352,-0.0047790366
80631910,80631567,-0.015420099,0.0026052361,-0.000489796
80633228,80632900,-0.016718242,0.004327115,0.00140578
80634674,80634315,-0.011775848,-0.0016953236,-0.0006776551
80635910,80635581,-0.0034768272,-0.009502669,-0.0012845362
80637223,80636889,0.0026785077,-0.010199521,0.0007712778
80638579,80638222,0.0015357345,-0.007489725,-0.0008423892
80639916,80639556,-0.0033911844,-0.008888838,-0.0057012048
80641251,80640894,-0.0050353883,-0.005229973,-0.007816224
80642583,80642223,-0.0006073743,0.0097068325,-0.006913806
80643888,80643554,0.0037320137,0.019197028,-0.005901012
80645215,80644887,0.0067626983,0.0091537805,-0.0039786077
80646482,80646129,0.0035768559,-0.007468342,-0.0002807162
80647822,80647462,-0.008024638,-0.019528296,0.0039024453
80649121,80648795,-0.024447354,-0.018970713,0.0058488874
80650458,80650128,-0.03324233,-0.005688283,0.0048218095
80651795,80651461,-0.035577916,0.017587123,0.0046166335
80653125,80652797,-0.033378296,0.031317286,0.006736856
80654458,80654127,-0.027745044,0.021067465,0.0057547777
80655909,80655547,-0.017315743,-0.003988658,0.0017903388
80657200,80656857,-0.0076017245,-0.025493462,0.0005807642
80658426,80658099,-0.006434938,-0.029556844,0.0038597377
80659760,80659433,-0.0143872835,-0.013872366,0.007740027
80661116,80660765,-0.02289593,0.008408792,0.008677606
80662449,80662098,-0.019349962,0.020870214,0.009886949
80663783,80663431,-0.0009056149,0.01396691,0.012361624
80665050,80664722,0.009533698,-0.0028876422,0.01253967
80666358,80666007,0.007696012,-0.022949398,0.011849631
80667692,80667341,0.0028894625,-0.033140045,0.011373102
80669077,80668723,0.0033208807,-0.021576012,0.009248861
80670324,80669965,-0.0014233286,0.004166354,0.0036217307
80671650,80671302,-0.013984149,0.025047896,-0.0016090237
80672987,80672631,-0.027207876,0.028990302,-0.00021439786
80674329,80673968,-0.029850073,0.016540054,0.006410745
80675650,80675321,-0.026115032,-0.005438784,0.01077814
80676983,80676654,-0.020857774,-0.02607412,0.007841839
80678430,80678102,-0.020299437,-0.031117555,0.0036854
80679677,80679349,-0.01811829,-0.017234823,0.0046866173
80680919,80680593,-0.015786735,0.013423794,0.0038951288
80682257,80681930,-0.013055472,0.03453533,-0.0014335191
80683585,80683259,-0.009978808,0.0298424,-0.0051214593
80684923,80684589,-0.007730245,0.0040072156,-0.004857572
80686272,80685940,-0.0055581937,-0.027760716,-0.0027561416
80687511,80687184,0.0033634072,-0.043715168,-0.0018368118
80688844,80688518,0.013502998,-0.030764623,-0.0027361335
80690175,80689849,0.015285422,0.000642049,-0.0031394751
80691519,80691182,0.00064540823,0.029353654,-0.0017413881
80692842,80692515,-0.009228576,0.03337857,0.0018075387
80694174,80693849,-0.0026371684,0.015187166,0.0048009153
80695529,80695203,0.010705716,-0.015174052,0.004802238
80696852,80696524,0.01149462,-0.039762296,0.00063142634
80698188,80697860,-0.008560479,-0.04181627,-0.004587352
80699451,80699122,-0.032235295,-0.01881414,-0.005533986
80700764,80700434,-0.041472755,0.019230867,-0.003965078
80702136,80701806,-0.035127457,0.046071913,-0.0042379233
80703453,80703121,-0.02478616,0.043250073,-0.0067499354
80704763,80704434,-0.019973172,0.011272294,-0.006501765
80706099,80705767,-0.015868312,-0.02440308,-0.0032211118
80707451,80707121,-0.0136226155,-0.04488008,-0.0033857126
80708760,80708432,-0.012736393,-0.0411525,-0.0082347
80710094,80709767,-0.016059285,-0.011954112,-0.012327819
80711457,80711123,-0.016387835,0.026656296,-0.011902706
80712704,80712374,-0.006999125,0.04840486,-0.010020678
80714031,80713706,0.01198022,0.03229466,-0.009207602
80715365,80715038,0.025797686,-0.005252985,-0.009237695
80716704,80716372,0.018966783,-0.032879177,-0.008627379
80718033,80717705,0.0021926542,-0.037166413,-0.008021268
80719370,80719038,-0.011574696,-0.020578738,-0.009037388
80720701,80720371,-0.017288448,0.00552872,-0.00901369
80721945,80721614,-0.020562194,0.024137972,-0.0063329483
80723399,80723069,-0.022352956,0.022422615,-0.0032971369
80724664,80724333,-0.019406427,0.0042913565,-0.0016938056
80725978,80725644,-0.010463772,-0.014017734,-0.0006306036
80727326,80726982,-0.0049351705,-0.018958054,0.0013197865
80728560,80728234,-0.011688475,-0.010369632,0.0013539059
80729899,80729568,-0.032435566,0.005063381,-0.0019238511
80731278,80730943,-0.048746463,0.021402631,-0.005117906
80732560,80732234,-0.048199672,0.027416818,-0.00504492
80733900,80733567,-0.026337948,0.010023668,-0.002121481
80735228,80734898,-0.0045667817,-0.015071787,-0.00012145533
80736557,80736232,0.0025066943,-0.028063266,0.000107441505
80737897,80737567,-0.0024098377,-0.020246193,-0.00011599567
80739227,80738898,-0.0037383626,0.0024558764,0.0010264543
80740561,80740232,0.0027350653,0.028104601,0.002963474
80741850,80741523,0.012530104,0.028620945,0.0035147232
80743140,80742808,0.008152687,0.001521691,0.0023627852
80744473,80744143,-0.010484739,-0.031908143,0.0020506184
80745889,80745558,-0.020596389,-0.048920963,0.004655254
80747165,80746832,-0.007312719,-0.033876944,0.007360983
80748464,80748133,0.014956347,0.005457127,0.0050934698
80749798,80749470,0.0169294,0.04058892,0.0015817339
80751134,80750797,-0.0042905402,0.050267074,0.0033789724
80752458,80752132,-0.024899047,0.032822035,0.009572716
80753793,80753466,-0.023822097,-0.0017203379,0.012881241
80755130,80754799,-0.0107995225,-0.039846815,0.01129345
80756370,80756042,-0.00536323,-0.054779455,0.011358394
80757701,80757375,-0.01465827,-0.029645372,0.0144062685
80759038,80758709,-0.02899553,0.020388888,0.014726042
80760367,80760041,-0.029510904,0.056712262,0.011643065
80761708,80761374,-0.009062368,0.051619086,0.010031212
80763036,80762707,0.010411461,0.01650823,0.010896984
80764373,80764040,0.008191922,-0.025571054,0.010818342
80765701,80765373,-0.010745818,-0.05385749,0.008333007
80767164,80766824,-0.024223717,-0.05018469,0.0049228366
80768425,80768094,-0.020568877,-0.015732238,0.002408773
80769700,80769371,-0.008873759,0.023506757,-0.00075157033
80770987,80770654,-0.0001787956,0.036857676,-0.004501788
80772275,80771947,-7.924294e-05,0.020612493,-0.005584084
80773605,80773279,-0.0036626286,-0.010392172,-0.0028458738
80774938,80774612,-0.008167969,-0.036895614,-0.0005518741
80776308,80775977,-0.010337411,-0.043318104,-0.0016327931
80777607,80777277,-0.01327064,-0.022920294,-0.0051532723
80778944,80778611,-0.01873013,0.011122113,-0.00788035
80780303,80779946,-0.02938871,0.036367916,-0.009159115
80781632,80781277,-0.03624614,0.033795465,-0.010048687
80782970,80782610,-0.03423005,0.007715026,-0.011379437
80784185,80783853,-0.02235649,-0.028338777,-0.011236155
80785518,80785185,-0.0096094,-0.04742654,-0.0087127015
80786878,80786519,-0.004399719,-0.033230003,-0.0065810867
80788207,80787854,-0.009267465,0.0032715646,-0.008713295
80789518,80789185,-0.016138716,0.032016035,-0.012547076
80790949,80790613,-0.0130433915,0.03237386,-0.011670108
80792192,80791866,-0.0050017396,0.008133065,-0.008107368
80793527,80793196,-0.003745906,-0.027076878,-0.007758046
80794857,80794528,-0.01128714,-0.050799772,-0.009485508
80796120,80795769,-0.017016737,-0.039569587,-0.0087188305
80797429,80797102,-0.011594338,0.0029854975,-0.00659296
80798761,80798435,-0.0025104256,0.040545985,-0.006197754
80800097,80799770,-0.001654814,0.04387995,-0.007441029
80801432,80801101,-0.012662725,0.01649741,-0.0062633925
80802768,80802435,-0.022940943,-0.019399261,-0.0012284104
80804173,80803812,-0.022978675,-0.03816718,0.0030176255
80805383,80805055,-0.012872343,-0.033144034,0.0021963469
80806720,80806389,-0.010601754,-0.005457204,-0.0021267307
80808048,80807722,-0.023134256,0.030645907,-0.0041415137
80809410,80809053,-0.034622468,0.047004126,-0.0027517187
80810735,80810386,-0.026948227,0.030604415,-0.00313406
80812188,80811842,-0.0038294792,-0.0044663507,-0.0054253507
80813433,80813107,0.018709688,-0.03268679,-0.0045955847
80814699,80814349,0.022761537,-0.0352502,-0.00088518497
80816032,80815682,0.011309007,-0.015432547,0.0003703972
80817356,80817029,-0.006216317,0.015525371,-0.0021162825
80818704,80818378,-0.015540724,0.03560697,-0.0011558965
80819972,80819622,-0.010292179,0.032907154,0.0047592563
80821319,80820994,0.0016314237,0.0061443145,0.008185066
80822637,80822311,0.008945538,-0.03156375,0.008154363
80823966,80823635,0.014995605,-0.053241175,0.0111545455
80825294,80824968,0.019994793,-0.036052957,0.016565852
80826650,80826323,0.013447989,0.0046570194,0.01674701
80827906,80827565,-0.009442357,0.033427738,0.012257514
80829226,80828898,-0.029851409,0.03490084,0.0116235055
80830556,80830231,-0.027649371,0.01826631,0.017741669
80831906,80831563,-0.014278214,-0.0049233106,0.023275513
80833330,80832950,-0.007000581,-0.031685278,0.020837625
80834665,80834337,-0.0116001405,-0.043907985,0.012779077
80835911,80835583,-0.018526249,-0.019371817,0.0072688186
80837187,80836859,-0.023092663,0.027775835,0.005457072
80838486,80838157,-0.021171072,0.056877792,0.0022774905
80839820,80839493,-0.018204173,0.047074012,-0.0012623224
80841175,80840850,-0.014224751,0.007825139,-0.002397413
80842507,80842156,-0.009705555,-0.036009457,-0.0016275322
80843849,80843491,-0.007078709,-0.057274174,-0.003220801
80845177,80844849,-0.015762545,-0.0369162,-0.0076170373
80846508,80846155,-0.02454976,0.0030161457,-0.010981469
80847818,80847489,-0.023244718,0.033860154,-0.0121708475
80849178,80848848,-0.010503629,0.04266515,-0.014379441
80850427,80850100,0.0036504096,0.020290224,-0.015991578
80851762,80851425,0.009301,-0.022601157,-0.014608309
80853104,80852756,-0.00579155,-0.050167277,-0.013255611
80854425,80854089,-0.027263077,-0.046463825,-0.015038654
80855747,80855422,-0.032949965,-0.022704732,-0.018149888
80857170,80856843,-0.020294076,0.0066625886,-0.019734606
80858417,80858092,-0.006983962,0.029402822,-0.018974347
80859748,80859419,-0.005301451,0.027703365,-0.015796559
80860987,80860660,-0.009410186,0.00035727903,-0.011644124
80862320,80861994,-0.01121833,-0.030918874,-0.0083304085
80863651,80863327,-0.012536729,-0.040366028,-0.0074640284
80864986,80864659,-0.020067688,-0.0232004,-0.009089222
80866320,80865993,-0.032787617,0.008095525,-0.010062429
80867658,80867330,-0.03819303,0.03012295,-0.0072962604
80870322,80869992,-0.0070361597,0.013728807,-0.0009273113
80871662,80871325,0.007680106,-0.010481931,-0.00012180453
80872991,80872658,0.009731665,-0.022189368,0.0015694412
80874323,80873996,0.0022401027,-0.012261837,0.002812031
80875615,80875286,-0.008893465,0.015542272,0.00067623536
80876903,80876571,-0.016964175,0.038033303,-0.001267468
80878278,80877942,-0.019099513,0.03972884,0.0014246113
80879640,80879314,-0.014379742,0.013816445,0.0057364176
80880912,80880581,-0.0043352223,-0.023056708,0.0075775753
80882213,80881887,0.0027981799,-0.044208504,0.0073886947
80883550,80883223,0.0007908837,-0.03841172,0.0067207487
80884880,80884553,-0.010585158,-0.013504969,0.006395203
80886215,80885887,-0.017929705,0.01706059,0.0047863317
80887548,80887220,-0.02011601,0.03794368,0.0016273147
80888904,80888574,-0.016182426,0.028616305,0.0022417908
80890144,80889817,-0.01598781,-0.0033132744,0.0053688413
80891486,80891151,-0.021767357,-0.035024144,0.006795482
80892807,80892482,-0.023503812,-0.04960295,0.006324805
80894146,80893815,-0.01569381,-0.035552204,0.005992759
80895481,80895150,-0.005758392,0.0044484017,0.0071162656
80896815,80896481,0.0009764434,0.035584852,0.008205789
80898139,80897814,0.00063320843,0.03933469,0.00702347
80899480,80899147,-0.0019405801,0.015597271,0.0052945074
80900716,80900390,-0.0022033136,-0.016491747,0.0022289974
80902125,80901798,-0.006622748,-0.03534568,-0.001269409
80903417,80903084,-0.010191375,-0.031272344,-0.0016003238
80904703,80904374,-0.009760297,-0.0055455384,6.167489e-05
80906032,80905706,-0.005496929,0.026691088,-3.5003886e-05
80907370,80907039,0.0008960683,0.037897937,-0.0023755275
80908700,80908372,0.004069513,0.028512403,-0.0034495485
80910032,80909705,0.002834841,0.005429347,0.000738352
80911371,80911037,0.0001801727,-0.02153908,0.004601622
80912703,80912371,-0.006147946,-0.039020862,0.0014557481
80914030,80913704,-0.013343001,-0.03407293,-0.0048621646
80915365,80915037,-0.018855581,-0.0037618668,-0.007971964
80916607,80916281,-0.022185646,0.030744981,-0.0072395178
80917950,80917618,-0.018952966,0.041235533,-0.0075106523
80919273,80918946,-0.0131835705,0.017359352,-0.008459902
80920605,80920279,-0.0035028323,-0.026225146,-0.006306997
80921976,80921647,-0.0037129945,-0.055204235,-0.0027108318
80923402,80923071,-0.014233126,-0.050617244,-0.0025583326
80924672,80924334,-0.025501946,-0.020184033,-0.0053498917
80925942,80925609,-0.026035033,0.017980635,-0.005388414
80927245,80926909,-0.016837537,0.03956797,-0.004244687
80928584,80928242,-0.010304683,0.029430483,-0.0055696196
80929933,80929576,-0.011419208,-0.008978505,-0.0063050785
80931283,80930948,-0.01842177,-0.04295676,-0.0037475228
80932523,80932198,-0.02047551,-0.04742139,-0.0009458458
80933858,80933531,-0.012875415,-0.020982163,-0.0031757317
80935190,80934864,-0.0056554032,0.019162118,-0.0064235562
80936523,80936197,-0.0074665016,0.04476124,-0.004116552
80937862,80937530,-0.020274406,0.04401826,0.00089770183
80939201,80938865,-0.03427088,0.014151733,0.0036143437
80940521,80940196,-0.033416133,-0.028287,0.0051417854
80941861,80941532,-0.019301616,-0.04855337,0.008393521
80944438,80944109,-0.008147975,0.011532351,0.0028626833
80945769,80945442,-0.025385195,0.045076516,-0.0017092184
80947156,80946817,-0.034918983,0.051867906,0.0002836213
80949770,80949440,-0.0005632655,-0.02425451,0.00805822
80951138,80950773,0.0099915005,-0.05378285,0.007829592
80952454,80952105,0.0009572155,-0.044591468,0.0076613263
80953764,80953438,-0.014383282,-0.0066936784,0.0080314865
80955127,80954771,-0.017559653,0.029708896,0.0072305757
80956361,80956014,-0.003316758,0.039900526,0.0061097234
80957696,80957346,0.011477975,0.020830298,0.007796708
80959029,80958680,0.013612442,-0.018394388,0.012106626
80960393,80960015,0.0026154234,-0.050135594,0.013291748
80961700,80961346,-0.008440384,-0.04902424,0.009232233
80963030,80962700,-0.009522133,-0.015330087,0.0051815
80964360,80964033,-0.0019550405,0.028672578,0.004890992
80965694,80965366,-7.438519e-05,0.05154799,0.004110993
80966968,80966608,-0.010229747,0.037504368,0.003771262
80968312,80967984,-0.020173393,-0.0019512167,0.008301883
80969640,80969314,-0.018658983,-0.038177952,0.014449151
80971018,80970677,-0.007919738,-0.052230958,0.014568235
80972276,80971950,-0.0025177062,-0.032850806,0.008364948
80973584,80973258,-0.0063948175,0.009047798,0.0046178624
80974920,80974591,-0.014003566,0.047138937,0.0051114783
80976274,80975948,-0.020545207,0.05696296,0.0037684415
80977584,80977259,-0.018117243,0.027816607,0.0011278264
80978916,80978591,-0.008936579,-0.019223843,0.0016379498
80980253,80979925,-0.0020734204,-0.048507124,0.004849285
80981500,80981168,-0.0031010576,-0.045896728,0.0041245627
80982825,80982500,-0.012401114,-0.019790463,-0.0011289375
80984161,80983835,-0.020089496,0.016680308,-0.002348735
80985500,80985167,-0.019330183,0.0438825,0.00054161024
80986834,80986500,-0.010078424,0.038183015,0.0018363057
80988160,80987833,-0.0008377746,-0.0002975301,0.00032190388
80989516,80989166,-6.242582e-05,-0.042134363,-0.00052001904
80990891,80990561,-0.00996091,-0.056456406,-0.0007460946
80992188,80991848,-0.021208128,-0.03844509,-0.0018853613
80993428,80993101,-0.02332073,-0.0031016327,-0.004973246
80994761,80994434,-0.018038776,0.030437332,-0.006295445
80996116,80995789,-0.011739206,0.040627692,-0.0047741663
80997428,80997101,-0.01404294,0.022451844,-0.003187223
80998758,80998433,-0.020112136,-0.010596018,-0.0018069396
81000094,80999766,-0.021530628,-0.036633305,-0.00070713734
81001425,81001099,-0.014860169,-0.038594574,-7.9282974e-05
81002770,81002438,-0.00420212,-0.017146954,-0.0017288913
81004007,81003681,-0.00016819967,0.015920304,-0.0037352983
81005340,81005014,-0.006166877,0.039810218,-0.003378784
81006678,81006349,-0.017263845,0.038321692,-0.0016038098
81008006,81007679,-0.019267527,0.011532588,-0.000902516
81009342,81009013,-0.011765003,-0.018469993,-0.0010264133
81010671,81010346,0.0001329677,-0.032160535,-0.00093522185
81012012,81011679,-0.000273568,-0.022778193,-0.0008697687
81013385,81013054,-0.009619679,0.001645405,-0.001785421
81014659,81014334,-0.022531811,0.030760102,-0.0034781364
81017293,81016964,-0.013552411,0.019830456,-0.0014876019
81018659,81018327,-0.007221857,-0.022137078,0.0009744595
81019958,81019629,-0.013442625,-0.051261194,0.00023243122
81021290,81020962,-0.024516653,-0.051440176,-0.0021490713
81022649,81022322,-0.026625209,-0.021175543,-0.0022726897
81023898,81023566,-0.014891815,0.022236332,-9.272822e-05
81025268,81024941,-0.003111713,0.046408188,0.0026859243
81026560,81026232,-0.0036320526,0.029680433,0.003643299
81027896,81027564,-0.015823644,-0.014128525,0.004698345
81029234,81028897,-0.016509587,-0.051265005,0.0068602622
81030554,81030229,-0.0038259842,-0.05543936,0.008198126
81031901,81031563,0.008897061,-0.02258778,0.008992066
81033221,81032896,0.0032332675,0.025870977,0.008518996
81034691,81034358,-0.012477441,0.04979834,0.007424572
81035902,81035567,-0.021977903,0.037997182,0.0075522475
81037198,81036862,-0.011367788,0.008321096,0.0112551665
81038469,81038142,0.008237738,-0.024038097,0.0119343465
81039805,81039477,0.010360016,-0.044428676,0.007967739
81041135,81040808,-0.0047430154,-0.034139775,0.0066038207
81042471,81042144,-0.015762381,0.0054332335,0.00869185
81043801,81043474,-0.0121934125,0.04632925,0.0071652937
81045148,81044809,-0.0067474535,0.05848855,0.00016889366
81046470,81046140,-0.0077824434,0.030778946,-0.0048733377
81047710,81047382,-0.014828265,-0.015312835,-0.0017158667
81049054,81048723,-0.017795809,-0.047113348,0.0026996671
81050380,81050049,-0.013936425,-0.050353773,0.0002392821
81051719,81051381,-0.0064401766,-0.028703876,-0.004146186
81053048,81052723,-0.003593222,0.006917706,-0.005889812
81054394,81054047,-0.01130779,0.03640995,-0.0071336604
81055709,81055381,-0.018414171,0.037211835,-0.009101844
81057163,81056837,-0.015071666,0.008017838,-0.009970667
81058410,81058083,-0.009083146,-0.026660357,-0.009006733
81059661,81059334,-0.008459137,-0.044358533,-0.007737634
81060984,81060657,-0.015413032,-0.037809312,-0.0088512935
81062316,81061990,-0.021503532,-0.010905149,-0.010548002
81063649,81063323,-0.020880206,0.022164417,-0.010087325
81064985,81064655,-0.014469846,0.03988596,-0.008433104
81066323,81065990,-0.0071040723,0.027571585,-0.007901581
81067679,81067322,-0.006106213,-0.0042776437,-0.007927314
81069012,81068655,-0.00991306,-0.032522272,-0.007574296
81070273,81069942,-0.013103963,-0.039356053,-0.007303913
81071569,81071230,-0.012992447,-0.018097779,-0.008971849
81072921,81072563,-0.0113024395,0.016976804,-0.012305576
81074250,81073896,-0.018024005,0.03944624,-0.010968977
81075583,81075229,-0.024280058,0.031170227,-0.0060508843
81076924,81076563,-0.023663608,-0.00072357734,-0.004392536
81078255,81077917,-0.011533452,-0.028523529,-0.0039156848
81079639,81079310,0.0036576858,-0.034883216,-0.0021922933
81080909,81080581,0.0074120346,-0.020471249,-0.0008353046
81082165,81081836,-0.0037426925,0.009965879,-0.0018112647
81083497,81083155,-0.015883006,0.03164098,-0.0037355036
81084854,81084527,-0.019472081,0.031276677,-0.0033721689
81086152,81085825,-0.014422412,0.0091027655,-0.00036422705
81087489,81087158,-0.008388222,-0.020952959,0.001271472
81088813,81088487,-0.007037039,-0.03898938,0.0022561338
81090147,81089820,-0.0034543944,-0.03090237,0.00435662
81091487,81091153,0.00028435595,-3.5498717e-05,0.0046378593
81092838,81092486,0.003223805,0.028567027,0.004358455
81094168,81093819,0.0014101791,0.036430944,0.00631656
81095398,81095066,-0.0055586887,0.019956736,0.010944813
81096726,81096395,-0.015940862,-0.010707113,0.013371441
81098060,81097728,-0.022453139,-0.03742668,0.011838927
81099412,81099061,-0.020223413,-0.038129766,0.009296803
81100747,81100394,-0.01265163,-0.010618471,0.009620379
81102172,81101838,-0.009467007,0.026552591,0.009734276
81103427,81103096,-0.016992096,0.04146203,0.0072480626
81104716,81104343,-0.021732911,0.02272681,0.0060406625
81106028,81105675,-0.019880738,-0.008884404,0.006912707
81107372,81107008,-0.01444854,-0.03183039,0.008414109
81108719,81108391,-0.010008886,-0.03776119,0.0075058565
81109988,81109663,-0.010392672,-0.022004468,0.0029793428
81111380,81111039,-0.01474464,0.009658733,-0.00111176
81112633,81112308,-0.016246691,0.036577355,-0.0022403682
81113968,81113643,-0.008595305,0.039596107,-0.0020693087
81115323,81114997,0.002096066,0.013971817,-0.0022126178
81116616,81116291,0.0045153094,-0.022877473,-0.0025029744
81117955,81117624,0.0034111112,-0.046184804,-0.0028153916
81119289,81118958,0.0041934596,-0.040876154,-0.004454154
81120619,81120290,0.0026866228,-0.0108152,-0.00745327
81121954,81121624,-0.006700406,0.023652414,-0.00853059
81123191,81122866,-0.015768008,0.036207125,-0.0054692808
81124669,81124313,-0.014325411,0.020780807,-0.0022624745
81125942,81125612,-0.010440697,-0.009955566,-0.0024942057
81127192,81126858,-0.008590895,-0.03655804,-0.004318205
81128516,81128188,-0.011501883,-0.041505486,-0.004255737
81129862,81129522,-0.0152488975,-0.019031798,-0.0027693694
81131188,81130854,-0.019253643,0.014356945,-0.003100141
81132580,81132254,-0.020622717,0.0336786,-0.0039572213
81133850,81133522,-0.019194791,0.027926708,-0.0026795967
81135178,81134851,-0.017305182,0.005681742,0.0014850516
81136519,81136190,-0.0134515045,-0.018877916,0.0049814107
81137760,81137433,-0.006431509,-0.033652786,0.0068966444
81139095,81138764,0.0030326264,-0.028762037,0.008952261
81140428,81140099,0.00818029,-0.003720954,0.009190391
81141759,81141430,-0.0038927388,0.026311344,0.00530076
81143100,81142766,-0.027998783,0.04065895,0.0015041601
81144428,81144097,-0.03916512,0.026893267,0.004425837
81145771,81145430,-0.016138138,-0.003681464,0.012679017
81147148,81146807,0.017351806,-0.028608898,0.013063058
81148475,81148148,0.022634149,-0.035810992,0.0038305111
81151058,81150723,-0.03000569,0.017686306,0.0030039016
81152387,81152058,-0.021695642,0.047770426,0.010801427
81153720,81153391,0.0034725629,0.04869136,0.009438704
81155050,81154722,0.011872119,0.014705301,0.0033927422
81156382,81156055,-0.008645836,-0.029804377,0.0038234293
81157626,81157297,-0.031882446,-0.049273733,0.009904913
81158957,81158630,-0.026100816,-0.030479062,0.010609682
81160302,81159975,0.006343485,0.010029619,0.002502998
81161624,81161296,0.023764579,0.042552356,-0.0032836683
81162962,81162629,0.0063181384,0.04288473,0.0012484469
81164292,81163964,-0.023746919,0.016060904,0.008635165
81165622,81165295,-0.030736731,-0.02284163,0.008132617
81166960,81166628,-0.015651057,-0.047949675,0.00048841594
81168417,81168089,-0.005354664,-0.04145929,-0.0039035883
81169673,81169342,-0.015010019,-0.0060360283,-0.003235643
81170982,81170649,-0.03146859,0.03267908,-0.0045212535
81172257,81171927,-0.03035459,0.0512175,-0.009859333
81173564,81173232,-0.008180994,0.034523834,-0.012943148
81174901,81174566,0.01413167,-0.0073981266,-0.009206823
81176249,81175922,0.015531316,-0.04414114,-0.0038970753
81177496,81177164,0.004202605,-0.05176102,-0.0056767436
81178823,81178497,-0.0071417033,-0.025266483,-0.012303208
81180158,81179831,-0.009687505,0.015489492,-0.01389392
81181493,81181163,-0.010192889,0.044513848,-0.0094699105
81182824,81182497,-0.01290458,0.04165304,-0.006645728
81184156,81183829,-0.012194697,0.0023461578,-0.006692582
81185496,81185163,-0.0017068693,-0.044132967,-0.0042656977
81186825,81186495,0.016636714,-0.06018999,-0.00038348633
81188156,81187829,0.02023873,-0.041834977,-0.0022587795
81189535,81189208,-0.0014330306,-0.007054929,-0.008291359
81190886,81190560,-0.029076247,0.023512982,-0.0095839
81192172,81191831,-0.043230694,0.040513724,-0.004066338
81193411,81193084,-0.042806633,0.03442556,0.0015350002
81194741,81194416,-0.032998033,-0.00029182504,0.002175492
81196075,81195748,-0.012247585,-0.043513414,0.0025420047
81197411,81197082,0.009354865,-0.05394116,0.005132737
81198741,81198414,0.013204568,-0.012708551,0.0022198076
81200073,81199747,-0.0041218083,0.040687088,-0.00528841
81201406,81201079,-0.016256884,0.06187441,-0.004906916
81202651,81202323,-0.0045252494,0.04219871,0.0050977278
81203984,81203656,0.016802896,0.00092118786,0.011865366
81205352,81205026,0.024537195,-0.037516534,0.009024814
81206652,81206323,0.01016768,-0.044787206,0.005025955
81207988,81207653,-0.003077011,-0.013914559,0.0076452526
81209318,81208987,0.00059017097,0.035709836,0.010641668
81210650,81210324,0.0058685886,0.06392565,0.008123319
81211987,81211653,-0.0027227988,0.0436874,0.004420925
81213394,81213059,-0.021622822,-0.007058177,0.0047476157
81214684,81214337,-0.03344525,-0.05092356,0.006355525
81215908,81215581,-0.0351015,-0.06155668,0.004608867
81217277,81216940,-0.029910946,-0.03463403,3.488354e-05
81218576,81218245,-0.030129967,0.01587523,-0.0040505864
81219943,81219604,-0.0346732,0.05607235,-0.006590803
81221262,81220911,-0.035378985,0.058953412,-0.006914941
81222598,81222244,-0.023505481,0.031155663,-0.005157952
81223908,81223577,-0.0055151866,-0.0090303,-0.0070581594
81225240,81224911,-9.981381e-05,-0.043010723,-0.015013997
81226570,81226243,-0.011926507,-0.04886952,-0.020521058
81227839,81227485,-0.022389269,-0.019952334,-0.018888628
81229147,81228818,-0.016099352,0.018947551,-0.015711598
81230489,81230151,0.004088035,0.031662375,-0.013710104
81231818,81231484,0.022945981,0.01624404,-0.010468057
81233144,81232817,0.026316822,-0.011372998,-0.0051717185
81234478,81234150,0.014094231,-0.033777796,-0.0012865224
81235901,81235559,-0.004963791,-0.032804232,-0.003233647
81237230,81236866,-0.017473359,-0.011171288,-0.008197323
81238436,81238110,-0.025312366,0.013953943,-0.009203658
81239770,81239444,-0.0325197,0.024797348,-0.0066721626
81241128,81240776,-0.037955172,0.01235716,-0.0065981406
81243804,81243445,-0.021745434,-0.02426858,-0.0056745177
81245125,81244774,-0.012649145,-0.017077321,-0.0004916149
81246449,81246124,-0.010635028,-0.0022028054,-0.00014025874
81247715,81247366,-0.01346172,0.01103522,-0.005060535
81249067,81248720,-0.018796857,0.022389371,-0.007958697
81250391,81250068,-0.019621247,0.02592741,-0.0057615126
81251735,81251402,-0.013475471,0.013785028,-0.0049217674
81253002,81252651,-0.00998164,-0.0046459907,-0.008065026
81254325,81254002,-0.0070549645,-0.017726664,-0.009216641
81255657,81255335,0.0024343177,-0.017532267,-0.0067582997
81256998,81256671,0.020307,-0.010042781,-0.0023160356
81258409,81258082,0.039432194,0.0023505606,-5.7201392e-05
81259663,81259339,0.045831043,0.014557515,-0.00034594204
81260979,81260656,0.034053884,0.017602505,0.00014903769
81262316,81261990,0.0037479098,0.01325872,0.005718641
81263646,81263322,-0.020489573,0.0009226847,0.014974347
81264901,81264572,-0.018829182,-0.021197222,0.019044003
81266218,81265896,-0.008456663,-0.034636717,0.013812509
81267554,81267229,-0.012382625,-0.023638641,0.0063388892
81268903,81268572,-0.029862609,0.0053039393,0.002920057
81270219,81269895,-0.045498077,0.03134405,0.0025258705
81271559,81271229,-0.039680935,0.03881106,0.001827319
81272890,81272564,-0.015830917,0.02656618,0.0017080924
81274284,81273953,0.005048821,-0.0041361195,0.003611058
81275518,81275194,0.0011575677,-0.032044347,0.0041111717
81276855,81276527,-0.017982481,-0.032863766,0.0019330878
81278200,81277876,-0.029122058,0.00027336847,-0.0012745966
81279521,81279195,-0.015777938,0.040891778,-0.0037443717
81280874,81280548,0.01052992,0.05165924,-0.0053761513
81282155,81281825,0.02984078,0.023929218,-0.006095125
81283448,81283122,0.033429082,-0.020492168,-0.006188901
81284811,81284486,0.026722545,-0.051161725,-0.0071193986
81286162,81285838,0.015024672,-0.044255782,-0.009985964
81287445,81287121,0.0064066304,-0.008839116,-0.012472631
81288739,81288413,-0.0059532276,0.033166625,-0.011012706
81290099,81289771,-0.023658399,0.052946214,-0.006122218
81291452,81291119,-0.035847265,0.03085918,-0.0039663236
81292736,81292411,-0.036157653,-0.015196259,-0.005674179
81294070,81293745,-0.028848212,-0.052415084,-0.004478661
81295450,81295119,-0.02398696,-0.0517365,0.00028778551
81296689,81296361,-0.029595764,-0.016766796,-0.00019673305
81298018,81297694,-0.041458167,0.022875514,-0.009460174
81299362,81299028,-0.043857917,0.04446516,-0.017101476
81300690,81300362,-0.02526635,0.036419503,-0.013519353
81302021,81301695,-0.0019784947,0.0063378024,-0.0048758076
81303391,81303056,0.008113713,-0.032912333,-0.0015052886
81304652,81304329,-0.0014448565,-0.053897504,-0.0033935942
81305960,81305636,-0.017514078,-0.03720394,-0.0038294473
81307294,81306963,-0.02230938,0.007310536,-0.0016073695
81308618,81308296,-0.010189554,0.044391025,-0.00026791065
81309957,81309629,0.011619518,0.043703813,-0.0017319173
81311296,81310962,0.031013312,0.0008912615,-0.004986583
81312619,81312295,0.03206156,-0.047229398,-0.004725051
81313953,81313628,0.013330649,-0.057623032,1.878767e-05
81315290,81314964,-0.007532884,-0.025214538,0.003222494
81316620,81316295,-0.017403895,0.021823453,0.0013179759
81317861,81317536,-0.026314707,0.051630635,-6.6788576e-05
81319198,81318870,-0.033511225,0.0517147,0.003557102
81320530,81320203,-0.03527576,0.023629041,0.006357375
81321870,81321536,-0.028122729,-0.022017082,0.0032429341
81323194,81322868,-0.0205903,-0.052889716,0.0010391653
81324636,81324313,-0.016640088,-0.04429216,0.003386252
81325909,81325579,-0.017026806,-0.003869123,0.0033480623
81327161,81326833,-0.018744234,0.035831045,-0.0013436972
81328475,81328153,-0.016921926,0.049733624,-0.003942808
81329846,81329520,-0.009715815,0.034074496,-0.00071937527
81331157,81330819,-0.007938234,0.0022566705,0.0033485882
81332478,81332153,-0.014585582,-0.030362727,0.0025503654
81333846,81333519,-0.015991433,-0.04598773,0.0003970712
81335096,81334761,-0.007072321,-0.025388148,0.00041788496
81336417,81336094,0.007778006,0.012243695,0.00063073955
81337753,81337427,0.015423185,0.029107912,-0.0014099282
81339091,81338760,0.017844228,0.017002355,-0.0022574281
81340418,81340094,0.019384116,-0.009320376,0.0006653354
81341750,81341425,0.013295596,-0.026228977,0.004551727
81343095,81342765,-0.0049502244,-0.026957728,0.006162846
81344423,81344097,-0.020405712,-0.013000377,0.0061529623
81345753,81345426,-0.023109373,0.008400788,0.0047620763
81346997,81346668,-0.020478895,0.027356595,0.0022144297
81348381,81348059,-0.023706695,0.02742803,-0.0024525754
81349659,81349334,-0.032798182,0.010051529,-0.0065041804
81350998,81350667,-0.03446975,-0.011484616,-0.005833294
81352327,81352000,-0.025048174,-0.021429617,-0.0026986343
81353659,81353334,-0.01224783,-0.015823444,-0.0016334668
81354993,81354666,-0.006983445,-0.001319403,-0.0031350323
81356322,81355999,-0.00988841,0.011222343,-0.002805132
81357659,81357333,-0.019704014,0.019713774,-0.0008335959
81359017,81358665,-0.02579017,0.016834937,-0.0003257971
81360347,81359999,-0.021071305,-0.0002813132,-0.002434006
81361567,81361242,-0.006310716,-0.020346563,-0.0052222013
81362933,81362575,0.008573262,-0.028867248,-0.00744238
81364257,81363922,0.013789448,-0.018904844,-0.010133426
81365570,81365241,0.0066112094,-0.00063632557,-0.010528415
81366933,81366573,0.0049863853,0.006337151,-0.00797975
81368257,81367919,0.006791004,0.00090366043,-0.0056738965
81369648,81369315,0.004856122,-0.009234132,-0.002773608
81370986,81370653,-0.0097817825,-0.014424935,0.000107866785
81372245,81371919,-0.025204945,-0.009609075,0.0033102692
81373498,81373160,-0.024485495,-0.0031230005,0.0070283897
81374818,81374493,-0.012502827,0.004464416,0.008964683
81376154,81375827,-0.010288136,0.009406803,0.008372219
81377486,81377159,-0.021451958,0.0005518228,0.008136409
81378820,81378492,-0.026688652,-0.011948189,0.010813902
81380151,81379825,-0.012221296,-0.012945398,0.014288581
81381489,81381158,0.008086698,7.579477e-05,0.01585337
81382819,81382492,0.01239287,0.010613721,0.016003339
81384153,81383825,-0.004854595,0.016043317,0.01720058
81385506,81385158,-0.021796338,0.01926741,0.021920754
81386727,81386400,-0.01649107,0.017259458,0.027453495
81388060,81387733,0.0092100175,0.0080479,0.027519673
81389392,81389066,0.028108275,-0.009340595,0.018382546
81390724,81390399,0.020531993,-0.018409865,0.007035946
81392132,81391797,0.0039079045,-0.0054427236,0.005462577
81393427,81393079,-0.0032086435,0.019768938,0.007846625
81394731,81394380,0.00020914932,0.035810597,0.00437395
81396053,81395728,0.0061340244,0.022218741,0.00095467066
81397388,81397061,0.005810445,-0.0032330821,0.005245021
81398721,81398398,-0.0077692117,-0.022264302,0.008534546
81399992,81399644,-0.027476966,-0.031000108,0.0027923721
81401311,81400987,-0.03787576,-0.025923844,-0.0025798858
81402657,81402333,-0.028902594,-0.0033971146,-0.0023149434
81403976,81403653,-0.013927655,0.01615754,-0.0034702092
81405323,81404995,-0.008623838,0.00798519,-0.0119857155
81406650,81406321,-0.016143199,-0.01517569,-0.01978608
81407964,81407637,-0.022567706,-0.028234456,-0.01824311
81409295,81408971,-0.019070875,-0.026018929,-0.016479066
81410645,81410319,-0.019141125,-0.011088171,-0.02351459
81411896,81411560,-0.0212396,0.0011973992,-0.030039981
81413218,81412893,-0.023738129,0.012947683,-0.026789472
81414665,81414313,-0.024205197,0.021026134,-0.018179102
81415936,81415610,-0.016706053,0.008050033,-0.016464276
81417247,81416922,0.00013119564,-0.019330014,-0.020859724
81418582,81418257,0.015016914,-0.034362618,-0.02192293
81419910,81419585,0.008962362,-0.023087747,-0.018146964
81421153,81420827,-0.015506636,0.004278842,-0.01670724
81422484,81422159,-0.039642088,0.028071716,-0.019550815
81423815,81423492,-0.04390848,0.032497488,-0.017633133
81425152,81424827,-0.02848287,0.018806214,-0.010799626
81426493,81426162,-0.012885833,-0.003373794,-0.0070770024
81427818,81427494,-0.009974816,-0.024767341,-0.0058712526
81429154,81428824,-0.016059078,-0.03400049,-0.001646195
81430483,81430157,-0.025179323,-0.021842936,0.0039629373
81431824,81431490,-0.028746368,-0.00061271887,0.0057710675
81433151,81432823,-0.0233212,0.014817566,0.002533137
81434482,81434156,-0.013853582,0.01842526,0.0012813027
81435721,81435397,-0.0068032,0.009913838,0.006149831
81437167,81436836,-0.0041305358,-0.0018931731,0.011826264
81438413,81438090,-0.0023929523,-0.012054983,0.011863269
81439737,81439412,-0.002251385,-0.018902794,0.009530246
81441082,81440759,0.00023470634,-0.0131041175,0.011623244
81442404,81442078,0.0059311157,0.0050231186,0.015800374
81443735,81443412,0.0030013311,0.02032741,0.013954219
81445078,81444745,-0.008438324,0.017299045,0.009918589
81446310,81445987,-0.013933996,-0.002281055,0.012419823
81447648,81447321,-0.0087786205,-0.016207106,0.01842804
81448980,81448653,-0.0038134973,-0.019196918,0.014978304
81450313,81449987,-0.01051386,-0.013465145,0.0031644236
81451654,81451320,-0.020542303,-0.0006846902,-0.0017732506
81453014,81452687,-0.018459368,0.018336456,0.002161154
81454310,81453985,-0.0075238533,0.025381422,0.0017889474
81455647,81455318,-0.0059133973,0.0096561,-0.0066871145
81456976,81456652,-0.015689094,-0.012131628,-0.011450964
81458386,81458060,-0.020313893,-0.020213097,-0.006612687
81459658,81459333,-0.00835996,-0.014240308,-0.0015248855
81460904,81460578,0.012086723,-0.0020177492,-0.007940079
81462229,81461907,0.026054258,0.00618498,-0.019104833
81463566,81463241,0.027375003,0.0074792737,-0.021946384
81464899,81464573,0.014681711,0.009277995,-0.01609937
81466272,81465940,0.005340331,0.00042881005,-0.010900072
81467510,81467181,0.0035812736,-0.018913124,-0.011720058
81468846,81468518,0.010164246,-0.032086182,-0.01387201
81470173,81469848,0.010458223,-0.024642091,-0.01382498
81471515,81471180,0.0035627263,0.0012261283,-0.010991803
81472841,81472514,-0.0059345756,0.025597623,-0.0067846673
81474171,81473847,-0.013740397,0.03150464,-0.0025793759
81475504,81475180,-0.018871564,0.013781315,-0.0014074285
81476845,81476512,-0.024491005,-0.01799312,-0.0011344607
81478171,81477846,-0.026564514,-0.038436815,0.0029145402
81479509,81479179,-0.025139712,-0.03337924,0.008293479
81480745,81480421,-0.025809247,-0.008714679,0.008652348
81482130,81481806,-0.028961647,0.020624572,0.0056640003
81483455,81483131,-0.031773545,0.03858074,0.0051505333
81484745,81484420,-0.029142855,0.032006882,0.008973537
81486077,81485753,-0.018226527,0.0021073436,0.0120838685
81487448,81487121,-0.0060845455,-0.027178446,0.010628025
81490080,81489753,0.0035304618,-0.023388825,0.009293708
81491458,81491122,-0.0036645175,0.0057734577,0.009501607
81492699,81492371,-0.014361838,0.027515894,0.0072326423
81494030,81493705,-0.021097451,0.026705487,0.0049874163
81495392,81495066,-0.015811604,0.0018013669,0.009135364
81496699,81496371,-0.0021749781,-0.024346111,0.016004188
81498028,81497704,0.0020378819,-0.03128607,0.014946076
81499365,81499036,-0.009225495,-0.022051914,0.006014567
81500727,81500370,-0.022495586,-0.006128002,0.0026563876
81501937,81501612,-0.02636654,0.013890786,0.008941004
81503394,81503052,-0.025685934,0.025425622,0.012114314
81504656,81504333,-0.031941913,0.0139459595,0.0049086334
81505958,81505630,-0.039474886,-0.011470469,-0.0004741938
81507319,81506963,-0.03008034,-0.023181902,0.004048528
81508641,81508296,-0.009429381,-0.013331344,0.007576521
81509975,81509630,0.0038564717,0.0032665913,0.00164443
81511317,81510982,-0.00056694815,0.016106805,-0.006102448
81512561,81512232,-0.01428109,0.022544395,-0.0041277334
81513902,81513575,-0.017418899,0.01690847,0.0031514883
81515227,81514899,-0.0059574214,0.0018194657,0.0017639525
81516558,81516232,0.012540851,-0.016341515,-0.0069677043
81517889,81517564,0.020340025,-0.021522595,-0.010799471
81519227,81518898,0.009197105,-0.00056858966,-0.007163465
81520556,81520230,-0.0015570236,0.020522268,-0.0069432347
81521845,81521519,0.0008513851,0.022464326,-0.013039003
81523137,81522806,0.016929768,0.0070245597,-0.015202998
81524463,81524138,0.025766322,-0.012629418,-0.009481431
81525896,81525558,0.01258854,-0.024746912,-0.0034047726
81527164,81526831,-0.011220607,-0.026660958,-0.004839685
81528459,81528132,-0.026410365,-0.018285045,-0.008190616
81529800,81529469,-0.022942003,0.005325216,-0.0062182387
81531150,81530798,-0.01411152,0.02662114,-0.003516822
81532477,81532132,-0.01749858,0.021386132,-0.003298571
81533811,81533467,-0.028817467,-0.011204609,-0.0019945747
81535150,81534797,-0.030354194,-0.039439563,0.001052121
81536384,81536039,-0.012090416,-0.04415853,0.001661178
81537717,81537372,0.009692668,-0.029235138,0.00076062855
81539051,81538705,0.011136,-0.00037770387,0.0025861352
81540384,81540038,-0.008627361,0.027121466,0.0070784534
81541711,81541384,-0.029360656,0.035969168,0.008624652
81543043,81542718,-0.028186249,0.017057266,0.008249062
81544377,81544050,0.00014987348,-0.017905556,0.010229101
81545709,81545384,0.026438864,-0.036840398,0.012508943
81547165,81546837,0.023564266,-0.028027235,0.00981118
81548439,81548111,0.0051238476,-0.012730578,0.00542359
81549679,81549351,-0.0017156904,0.00745494,0.005704931
81551018,81550685,0.001837737,0.031547915,0.007923691
81552297,81551973,-0.0027038683,0.03608178,0.007354796
81553594,81553267,-0.021440055,0.013246291,0.007636539
81554924,81554599,-0.03984202,-0.014659098,0.012494014
81556264,81555937,-0.0463149,-0.02275947,0.013954011
81557593,81557266,-0.041471884,-0.015580475,0.008489727
81558925,81558598,-0.027779227,-0.0010966168,0.0037022491
81560255,81559931,-0.017213618,0.012203864,0.0031067887
81561588,81561264,-0.023221329,0.017260049,0.0025230066
81564257,81563930,-0.040269215,-0.0055121076,0.0023992534
81565503,81565171,-0.022842264,-0.015227518,0.005043876
81566834,81566504,-0.004846288,-0.017610768,0.0037595665
81568162,81567837,-0.0008659766,-0.014485982,-0.00019035785
81569504,81569170,-0.009537561,-0.0025576812,-0.0012453739
81570913,81570583,-0.018762434,0.014436775,0.0027832994
81572167,81571833,-0.016312271,0.019931318,0.006606289
81573522,81573198,-0.0062097274,0.008949955,0.0060587237
81574831,81574503,0.0067165303,-0.008602998,0.0035655529
81576153,81575823,0.014919272,-0.019481815,0.001223543
81577486,81577156,0.0092257345,-0.01621436,0.0018197381
81578814,81578490,-0.0007584013,0.00026736976,0.0017643629
81580155,81579827,-0.012349428,0.017617902,-0.0037293106
81581393,81581069,-0.025807926,0.024943117,-0.0077315043
81582727,81582402,-0.035165094,0.016769294,-0.004382359
81584062,81583736,-0.034893747,0.0007486304,0.0012907741
81585396,81585069,-0.024535712,-0.011847027,0.0014661083
81586727,81586401,-0.0086197425,-0.018298231,-0.0026116304
81588057,81587734,0.002337249,-0.01831938,-0.004382844
81589395,81589067,-0.0012941409,-0.009346438,-0.0027494575
81590724,81590400,-0.017380774,0.0112563055,-0.0037743226
81592139,81591805,-0.028632518,0.02529681,-0.008243997
81593411,81593082,-0.014821344,0.018388383,-0.010265774
81594658,81594334,0.012802578,0.0014512173,-0.008414679
81595993,81595657,0.027433768,-0.01552275,-0.0067425603
81597317,81596989,0.02068021,-0.031260163,-0.007092213
81598648,81598323,0.006709146,-0.03744433,-0.0061870525
81599981,81599655,0.00076644635,-0.020403484,-0.0027432393
81601319,81600993,0.0014264397,0.013179144,0.00031344272
81602646,81602321,0.0020813758,0.03386523,0.0023468768
81603980,81603654,0.0016908429,0.021104362,0.0060333866
81605316,81604988,0.0033931108,-0.011689846,0.00960665
81606557,81606230,0.007069849,-0.03995892,0.009234282
81607890,81607563,0.006912445,-0.043818567,0.005849815
81609224,81608896,-0.0059842886,-0.01852795,0.0055958736
81610555,81610230,-0.025378374,0.021276297,0.009129105
81611906,81611562,-0.043036196,0.050395858,0.009974621
81613265,81612939,-0.047579393,0.04999838,0.008594234
81614506,81614181,-0.03405235,0.019722749,0.009926519
81615887,81615559,-0.015956728,-0.01668259,0.014074415
81617192,81616860,-0.003962143,-0.04143683,0.014663781
81618503,81618180,-0.0018393557,-0.041547447,0.009238328
81619841,81619514,-0.0056076813,-0.013181861,0.0053171357
81621170,81620846,-0.005850411,0.029075282,0.006722173
81622505,81622179,-0.004180966,0.055541668,0.008716274
81623836,81623512,-0.0031523702,0.042470638,0.009576937
81625187,81624860,-0.0028095653,-0.0056676297,0.010412118
81626429,81626102,-0.0010952149,-0.04916058,0.010517124
81627778,81627434,-0.0021721139,-0.05524396,0.0073334323
81629092,81628767,-0.008199656,-0.02666025,0.004870297
81630427,81630101,-0.0097465,0.01375341,0.008496667
81631766,81631434,-0.007618716,0.0436213,0.012193982
81633100,81632766,-0.0035463376,0.037676457,0.011239801
81634425,81634099,-0.00086843816,0.0006947564,0.009885296
81635757,81635432,-0.0019059094,-0.035357475,0.012844111
81637182,81636847,-0.008834443,-0.04704399,0.014470334
81638414,81638088,-0.026091583,-0.02650938,0.010364745
81639747,81639422,-0.04147065,0.013394271,0.0041394727
81641031,81640706,-0.04736949,0.045853306,-2.5887299e-05
81642318,81641996,-0.03850525,0.048412837,-0.0005389841
81643656,81643329,-0.018942783,0.02028301,0.00046761744
81644992,81644665,-0.00089197885,-0.022023087,0.0016215229
81646320,81645995,0.0063670385,-0.05379988,0.001811949
81647658,81647328,-0.0027111098,-0.045420006,0.00061872957
81649013,81648664,-0.01534594,-0.0062042777,-0.0011653425
81650323,81649994,-0.01963119,0.03548263,-0.0037208558
81651676,81651327,-0.016466642,0.052444384,-0.0050300276
81652902,81652576,-0.008164722,0.028131768,-0.0039892504
81654235,81653910,-0.0026343197,-0.021602694,-0.0036684931
81655590,81655242,0.0019369812,-0.06141007,-0.0052953013
81656927,81656575,0.0034977328,-0.05942866,-0.007774539
81658268,81657939,0.0048193377,-0.017898431,-0.009079449
81659632,81659301,0.0015524627,0.027744656,-0.009622366
81660903,81660576,-0.011885779,0.047323104,-0.0085194595
81662198,81661875,-0.024563266,0.034406953,-0.005604861
81663533,81663209,-0.022269318,-0.00028162706,-0.0023683226
81664869,81664541,-0.009533082,-0.03542019,-0.00036775213
81666198,81665874,-0.0022306622,-0.045443926,-0.0013074694
81667534,81667208,-0.008733143,-0.02237754,-0.003468873
81668902,81668571,-0.022365516,0.020324823,-0.0046827
81670143,81669814,-0.029190471,0.051924393,-0.006976371
81671478,81671145,-0.022155136,0.049972214,-0.008869405
81672804,81672478,-0.009482772,0.020318449,-0.007213189
81674155,81673811,-0.0008985331,-0.018465696,-0.0024759043
81675496,81675145,-0.00041192977,-0.047732998,0.00052935263
81676830,81676478,-0.0031330208,-0.04659848,-6.428341e-05
81678182,81677810,-0.0021194778,-0.010837145,-0.0017064585
81679490,81679145,-0.0009316111,0.03604249,-0.0014073172
81680734,81680386,-0.0033083535,0.05576308,0.00075839454
81682157,81681833,-0.006556868,0.0297634,0.0023466244
81683469,81683144,-0.0042057037,-0.020596929,0.0024913535
81684740,81684416,0.004332047,-0.059294652,0.0025294244
81686071,81685747,0.010122234,-0.057869405,0.0017247851
81687412,81687087,0.005047826,-0.022125201,-0.0009407907
81688738,81688413,-0.010256358,0.020949703,-0.0029447426
81690002,81689655,-0.028839905,0.047714014,-0.0012254253
81691339,81691007,-0.034026187,0.04895561,0.0026787573
81692658,81692335,-0.02651788,0.026137652,0.0040434864
81693998,81693668,-0.011954155,-0.009714344,0.0032676847
81695313,81694988,-0.002960601,-0.040218215,0.004421804
81696644,81696320,0.002644452,-0.04180358,0.0062757484
81697978,81697653,-0.003791099,-0.006867472,0.0014275663
81699311,81698986,-0.016576264,0.03810555,-0.0051971073
81700642,81700319,-0.021094635,0.05560642,-0.0036396277
81702003,81701654,-0.00499788,0.035595506,0.0047195945
81703266,81702941,0.01548963,-0.009067818,0.008961982
81704665,81704306,0.022176571,-0.047559984,0.0054305526
81705943,81705615,0.0061590914,-0.049474988,0.0010386597
81707252,81706923,-0.013640558,-0.018871404,0.0008363176
81708596,81708272,-0.026701659,0.0197946,0.0016681215
81709918,81709591,-0.023891963,0.03826825,0.002201747
81711273,81710940,-0.013306427,0.026096951,0.0013434788
81712513,81712189,-0.006321078,-0.008966198,0.0010186502
81713851,81713522,-0.0092887,-0.047173016,0.0013998604
81715181,81714855,-0.017081205,-0.05570327,0.001090421
81716511,81716189,-0.02216831,-0.020060219,-0.0021586074
81717847,81717521,-0.023381555,0.029306458,-0.0077097723
81719185,81718854,-0.025994869,0.059005685,-0.012254736
81720514,81720188,-0.022927439,0.051422272,-0.0110582765
81721847,81721520,-0.010533298,0.016793175,-0.006359654
81723090,81722762,0.0022086848,-0.026309207,-0.004476899
81724419,81724094,0.0012815633,-0.05008151,-0.007017693
81725753,81725427,-0.010138519,-0.036887825,-0.010029501
81727138,81726806,-0.024914116,0.009342431,-0.008889
81728426,81728102,-0.0212618,0.047297858,-0.0038031195
81729751,81729427,0.004748409,0.045167208,0.0015132568
81731096,81730760,0.036304805,0.009369389,0.0040479307
81732417,81732092,0.03980215,-0.034340616,0.0021777821
81733760,81733426,0.009631358,-0.057136238,-0.0005262524
81735088,81734759,-0.025419287,-0.038647994,-0.0012114974
81736420,81736093,-0.035134688,0.005382509,-0.00021058694
81737664,81737335,-0.025606455,0.04223117,3.8106875e-05
81738993,81738668,-0.017700728,0.041693658,-0.0016773805
81740327,81740001,-0.01751246,0.0070497417,-0.0042471797
81741663,81741337,-0.019941282,-0.02935193,-0.004102359
81742994,81742667,-0.01788447,-0.04410652,5.6776054e-05
81744328,81744001,-0.013801615,-0.030077595,0.0034048003
81745660,81745334,-0.009222147,0.004009271,0.0014170349
81746994,81746666,-0.004664249,0.03376568,-0.0039431616
81748416,81748089,-0.0066584214,0.045612287,-0.0050734887
81749659,81749332,-0.007933041,0.036509633,-0.0006587335
81750978,81750647,-0.010070578,0.007992805,0.0003638847
81752244,81751919,-0.01028541,-0.025939973,-0.00325127
81753551,81753228,-0.008161731,-0.039604694,-0.0059809787
81754892,81754562,-0.0028206722,-0.021311123,-0.00539622
81756245,81755921,0.0023013328,0.009280517,-0.005423586
81757555,81757227,0.007414132,0.023953771,-0.007933377
81758926,81758599,0.013675247,0.016645769,-0.0067865835
81760169,81759841,0.017080631,-0.0042092293,-0.0016853759
81761503,81761173,0.002399964,-0.023530077,-0.00034311722
81762831,81762507,-0.024007993,-0.03398393,-0.0030027449
81764164,81763839,-0.039356597,-0.026904803,-0.0043050847
81765506,81765173,-0.034008835,0.00045752068,-0.0039553745
81766838,81766506,-0.021484561,0.028841658,-0.0069580893
81768164,81767839,-0.016815953,0.032186665,-0.011937327
81769501,81769172,-0.015494939,0.00918809,-0.010516815
81770898,81770574,-0.011492894,-0.013599007,-0.004388067
81773409,81773084,-0.01525068,-0.024243264,-0.006090268
81774742,81774418,-0.019544141,-0.00673989,-0.006656043
81776078,81775752,-0.01841067,0.022889867,-0.003592301
81777405,81777084,-0.0093398765,0.03733102,-0.001125877
81778741,81778417,0.002474315,0.025987145,-0.0008278025
81780076,81779750,0.0064197653,0.0015719645,-0.0014380651
81781408,81781083,0.0043802173,-0.027045466,0.00037705156
81782740,81782416,0.0072613335,-0.04058493,0.0024702544
81784076,81783749,0.016821692,-0.022595443,0.0013548901
81785417,81785087,0.019082325,0.009820882,-0.002300979
81786659,81786329,0.0036374524,0.03212539,-0.0028555826
81787988,81787662,-0.019943422,0.03251231,0.0022595902
81789319,81788995,-0.031165995,0.015672306,0.0065011713
81790652,81790328,-0.025898011,-0.0126089435,0.006304759
81791996,81791662,-0.01665671,-0.03697268,0.004874572
81793386,81793062,-0.019524358,-0.03733984,0.00460155
81794684,81794334,-0.030706348,-0.011311347,0.0021519526
81795958,81795635,-0.039587088,0.024025174,-0.005781935
81797320,81796968,-0.033623062,0.044323973,-0.012720433
81798649,81798319,-0.014393456,0.0358099,-0.011802389
81799986,81799635,-0.0014319634,0.010057122,-0.006421146
81801290,81800967,-0.0036332973,-0.02039915,-0.004258511
81802647,81802320,-0.014286261,-0.042531252,-0.0072465087
81803893,81803561,-0.01935617,-0.03318802,-0.009798815
81805269,81804943,-0.014144541,0.0052318987,-0.008494402
81806552,81806227,0.00016684721,0.038468003,-0.005909196
81807894,81807562,0.018169744,0.033696413,-0.006415274
81809249,81808925,0.026115583,-0.0022349695,-0.010050901
81810497,81810167,0.01586649,-0.038069908,-0.01046974
81811832,81811499,-0.002351462,-0.047302272,-0.006411386
81813159,81812833,-0.012594487,-0.031100873,-0.0026927085
81814492,81814166,-0.009168667,-0.002693231,-0.0026687584
81815888,81815556,-0.008798878,0.025947083,-0.003897744
81817180,81816857,-0.023248555,0.038890574,-0.0022532782
81818457,81818130,-0.037416592,0.023420058,0.0011475217
81819793,81819464,-0.03423888,-0.008037657,0.0021081043
81821125,81820796,-0.02112408,-0.02849239,-0.00022797205
81822456,81822129,-0.016071716,-0.025612934,-0.0026589285
81823809,81823485,-0.020268725,-0.009511619,-0.0030675745
81825149,81824818,-0.026462775,0.014100815,-0.0033119295
81826412,81826064,-0.022713374,0.0320444,-0.004532393
81827745,81827398,-0.010621529,0.035537183,-0.0036398943
81829105,81828730,0.0025785249,0.01861417,0.0013136569
81830409,81830086,0.006769971,-0.007774526,0.0060718935
81831750,81831419,0.007658468,-0.02786578,0.0073703625
81833096,81832773,0.014706546,-0.026733926,0.0058954917
81834351,81834014,0.027215164,-0.0064963438,0.0039499956
81835673,81835347,0.03005032,0.016449519,0.0020316045
81837010,81836684,0.020708375,0.021475917,0.0032861785
81839672,81839346,-0.0014188972,-0.0062876646,0.008488304
81841031,81840704,-0.010140595,-0.019342905,0.0082978625
81842283,81841956,-0.020171361,-0.022433871,0.008531621
81843605,81843278,-0.024656542,-0.011816872,0.008753412
81844936,81844610,-0.025497563,0.0068949647,0.004056377
81846275,81845944,-0.029804789,0.01773999,-0.0040850574
81847604,81847279,-0.037451964,0.01569669,-0.0087586595
81848934,81848610,-0.04102217,0.007985046,-0.008723021
81850303,81849945,-0.03599514,-0.0033742487,-0.00833553
81851636,81851276,-0.025930088,-0.010948105,-0.009579856
81852879,81852554,-0.012534431,-0.008232518,-0.010959907
81854212,81853886,-0.00094150257,0.0035892935,-0.013075056
81855571,81855219,0.0029653723,0.0120233325,-0.015439271
81856877,81856552,0.009113242,0.008339122,-0.016342755
81858209,81857885,0.018373754,-0.0012731112,-0.01520062
81859672,81859349,0.025043702,-0.011447056,-0.014009547
81860917,81860590,0.014307961,-0.016706916,-0.015149842
81862166,81861842,-0.0016658297,-0.014166207,-0.01547956
81863489,81863165,-0.0029463328,-0.0016734194,-0.013167887
81864820,81864497,0.009548292,0.014759103,-0.008551805
81866155,81865831,0.017969739,0.020358719,-0.0048207827
81867526,81867198,0.009947263,0.0018417384,-0.0042666174
81868766,81868440,-0.011796658,-0.024896335,-0.00095074717
81870098,81869774,-0.034578606,-0.032246545,0.0067783208
81871463,81871121,-0.05002108,-0.012877929,0.012016886
81872763,81872439,-0.05113686,0.011528559,0.011975653
81874101,81873772,-0.04247121,0.022093052,0.0114190355
81875470,81875142,-0.034702715,0.020916568,0.012473191
81876706,81876383,-0.028241673,0.011804125,0.011489408
81878044,81877718,-0.020941244,-0.00032536552,0.0077084987
81879377,81879049,-0.011924079,-0.011985111,0.0069633448
81880705,81880382,-0.011349401,-0.015919322,0.010930148
81882123,81881797,-0.013769784,-0.009233758,0.013436551
81883408,81883079,-0.011559923,0.005100911,0.010764996
81884699,81884371,0.0044336063,0.013344291,0.010420419
81886029,81885704,0.02432397,0.009406674,0.015340203
