timestamp,timestamp_sample,ref_timestamp,ref_lat,ref_lon,x,y,z,delta_xy[0],delta_xy[1],delta_z,vx,vy,vz,z_deriv,delta_vxy[0],delta_vxy[1],delta_vz,ax,ay,az,heading,heading_var,unaided_heading,delta_heading,tilt_var,ref_alt,dist_bottom,eph,epv,evh,evv,vxy_max,vz_max,hagl_min,hagl_max,xy_valid,z_valid,v_xy_valid,v_z_valid,xy_reset_counter,z_reset_counter,vxy_reset_counter,vz_reset_counter,heading_reset_counter,heading_good_for_control,xy_global,z_global,dist_bottom_valid,dist_bottom_sensor_bitfield,dead_reckoning
80880527,80879996,39230940,33.6448665,-117.84206859999999,-1.2231461,0.21875429,1.8387073,0.0018472992,4.4952765e-05,3.7252903e-07,-0.034666415,0.012386574,0.019370131,0.03218906,0.02116495,-0.02306845,-0.02159992,-1.3890823,1.243884,0.44839275,-0.20187083,0.020086527,0.008195501,0.031629354,0.00015680112,26.370876,0.097762465,0.33880618,0.2557567,0.14103061,0.07354224,inf,inf,inf,inf,1,1,1,1,2,2,2,2,2,0,1,1,1,0,0
81384617,81383934,39230940,33.6448665,-117.84206859999999,-1.2345152,0.21585323,1.8527379,0.0018472992,4.4952765e-05,3.7252903e-07,-0.025101831,0.0014816977,0.0067950008,0.020121953,0.02116495,-0.02306845,-0.02159992,-1.4879373,-1.2712196,-0.8912112,-0.20167407,0.020108074,0.008112046,0.031629354,0.00015600157,26.370876,0.10485029,0.3309886,0.25199053,0.13675654,0.07270068,inf,inf,inf,inf,1,1,1,1,2,2,2,2,2,0,1,1,1,0,0
81877780,81877282,39230940,33.6448665,-117.84206859999999,-1.2562532,0.2162858,1.8682892,0.0018472992,4.4952765e-05,3.7252903e-07,-0.024935082,-0.0016865247,0.011799246,0.028134964,0.02116495,-0.02306845,-0.02159992,-1.8579024,-3.9397862,0.6016346,-0.20018964,0.020137114,0.009394667,0.031629354,0.00015672625,26.370876,0.101878405,0.33878928,0.2555058,0.1409418,0.0735154,inf,inf,inf,inf,1,1,1,1,2,2,2,2,2,0,1,1,1,0,0
82381672,82381192,39230940,33.6448665,-117.84206859999999,-1.2796113,0.20885272,1.8896158,0.0018472992,4.4952765e-05,3.7252903e-07,-0.03526392,0.0037227685,0.008037734,0.030313544,0.02116495,-0.02306845,-0.02159992,-0.15431592,-0.5914692,-1.6450791,-0.20151794,0.02016513,0.007847716,0.031629354,0.00015595584,26.370876,0.10471296,0.33110413,0.25196165,0.13666011,0.07269786,inf,inf,inf,inf,1,1,1,1,2,2,2,2,2,0,1,1,1,0,0
82885637,82885060,39230940,33.6448665,-117.84206859999999,-1.3035407,0.20429833,1.9100639,0.0018472992,4.4952765e-05,3.7252903e-07,-0.039713982,-0.002939288,0.009220845,0.034049828,0.02116495,-0.02306845,-0.02159992,-0.47107664,0.17051007,-0.031544853,-0.20141377,0.020198274,0.007730253,0.031629354,0.00015676739,26.370876,0.100942254,0.33983603,0.2555046,0.14136814,0.07354582,inf,inf,inf,inf,1,1,1,1,2,2,2,2,2,0,1,1,1,0,0
83378984,83378513,39230940,33.6448665,-117.84206859999999,-1.3296213,0.20342311,1.9381384,0.0018472992,4.4952765e-05,3.7252903e-07,-0.03491969,-0.0012848115,0.0106196385,0.04351728,0.02116495,-0.02306845,-0.02159992,1.3356335,0.26252347,-0.6074778,-0.20122346,0.020229409,0.0077446983,0.031629354,0.00015592769,26.370876,0.10984194,0.33137047,0.2516777,0.13665444,0.07264569,inf,inf,inf,inf,1,1,1,1,2,2,2,2,2,0,1,1,1,0,0
83882899,83882398,39230940,33.6448665,-117.84206859999999,-1.3557047,0.20231412,1.9658774,0.0018472992,4.4952765e-05,3.7252903e-07,-0.03459586,-0.0035876012,0.015276643,0.05078019,0.02116495,-0.02306845,-0.02159992,0.100455664,-0.28409106,-0.1930448,-0.20035261,0.020264456,0.008510316,0.031629354,0.00015674009,26.370876,0.10128605,0.34007782,0.2552974,0.14130647,0.073493354,inf,inf,inf,inf,1,1,1,1,2,2,2,2,2,0,1,1,1,0,0
84386858,84386319,39230940,33.6448665,-117.84206859999999,-1.3802531,0.20290677,1.9876355,0.0018472992,4.4952765e-05,3.7252903e-07,-0.030072577,-0.0014620902,0.006339904,0.039334044,0.02116495,-0.02306845,-0.02159992,0.79874635,0.89785564,-1.1415657,-0.20118466,0.020298986,0.007505052,0.031629354,0.00015593803,26.370876,0.103553176,0.332202,0.251987,0.13691904,0.07267259,inf,inf,inf,inf,1,1,1,1,2,2,2,2,2,0,1,1,1,0,0
84880369,84879704,39230940,33.6448665,-117.84206859999999,-1.4009507,0.20163469,2.0051024,0.0018472992,4.4952765e-05,3.7252903e-07,-0.031003356,-0.0082974825,0.0057781143,0.036477406,0.02116495,-0.02306845,-0.02159992,0.511831,-0.54022646,0.6661233,-0.19969355,0.020333894,0.008547447,0.031629354,0.00015666075,26.370876,0.09909773,0.3399965,0.25512576,0.14116071,0.073411174,inf,inf,inf,inf,1,1,1,1,2,2,2,2,2,0,1,1,1,0,0
85384035,85383560,39230940,33.6448665,-117.84206859999999,-1.418039,0.20139925,2.0117722,0.0018472992,4.4952765e-05,3.7252903e-07,-0.004816548,-0.037225466,0.024163553,0.05030271,0.02116495,-0.02306845,-0.02159992,-0.4292246,-4.381517,4.1659083,-0.19478689,0.020370921,0.013720358,0.031629354,0.00015586682,26.370876,0.10578656,0.3322267,0.25257894,0.13688831,0.072689004,inf,inf,inf,inf,1,1,1,1,2,2,2,2,2,0,1,1,1,0,0
85877568,85876994,39230940,33.6448665,-117.84206859999999,-1.4493369,0.21643811,2.01929,0.0018472992,4.4952765e-05,3.7252903e-07,-0.060273346,0.03937464,0.037001077,0.05854596,0.02116495,-0.02306845,-0.02159992,-0.24715641,0.7942764,-2.480961,-0.18600161,0.020442493,0.022398025,0.031629354,0.00015668935,26.370876,0.10458851,0.33998233,0.25577942,0.1411182,0.0734349,inf,inf,inf,inf,1,1,1,1,2,2,2,2,2,0,1,1,0,0,0
86381365,86380895,39230940,33.6448665,-117.84206859999999,-1.5171057,0.22931619,1.9999202,0.0018472992,4.4952765e-05,3.7252903e-07,-0.10187277,0.008795143,0.079335876,0.08243033,0.02116495,-0.02306845,-0.02159992,2.7129378,-9.543235,2.1612983,-0.14885989,0.02069402,0.06392697,0.031629354,0.00015709203,26.370876,0.12539756,0.33229345,0.2526563,0.13840628,0.07264417,inf,inf,inf,inf,1,1,1,1,2,2,2,2,2,0,1,1,0,0,0
86885335,86884749,39230940,33.6448665,-117.84206859999999,-1.6544313,0.24002793,1.9757214,0.0018472992,4.4952765e-05,3.7252903e-07,-0.15988967,-0.1522087,-0.1491086,-0.16645734,0.02116495,-0.02306845,-0.02159992,4.8425107,7.0074253,2.0821457,-0.111361146,0.02096489,0.12151775,0.031629354,0.00015942857,26.370876,0.14959645,0.34070322,0.25630653,0.14201565,0.07348531,inf,inf,inf,inf,1,1,1,1,2,2,2,2,2,0,1,1,0,0,0
87378704,87378235,39230940,33.6448665,-117.84206859999999,-1.7764099,0.27676776,1.9808282,0.0018472992,4.4952765e-05,3.7252903e-07,-0.16210261,0.030151322,0.039829448,0.03108424,0.02116495,-0.02306845,-0.02159992,-1.8285944,-0.036400523,-8.615144,-0.14996162,0.02110254,0.0866211,0.031629354,0.00015944238,26.370876,0.14448965,0.33152908,0.25263914,0.13749625,0.07259779,inf,inf,inf,inf,1,1,1,1,2,2,2,2,2,0,1,1,0,0,0
87883115,87882133,39230940,33.6448665,-117.84206859999999,-1.8133328,0.29127502,1.9853947,0.0018472992,4.4952765e-05,3.7252903e-07,-0.013511636,0.06636494,0.047449235,0.048289303,0.02116495,-0.02306845,-0.02159992,-2.1240554,0.50444037,-1.2934712,-0.20444195,0.021288274,0.036036883,0.031629354,0.00016059281,26.370876,0.1399231,0.3396962,0.2563526,0.14274563,0.07344042,inf,inf,inf,inf,1,1,1,1,2,2,2,2,2,0,1,1,0,0,0
88386436,88385965,39230940,33.6448665,-117.84206859999999,-1.8333459,0.28567827,1.9686586,0.0018472992,4.4952765e-05,3.7252903e-07,0.19791412,-0.09346337,-0.6078102,-0.5921737,0.02116495,-0.02306845,-0.02159992,-0.15333529,4.7852173,-15.664548,-0.20351358,0.021242548,0.038809504,0.031629354,0.00015963684,26.370876,0.15665925,0.33150375,0.25336546,0.13913292,0.07281988,inf,inf,inf,inf,1,1,1,1,2,2,2,2,2,0,1,1,0,0,0
88879896,88879390,39230940,33.6448665,-117.84206859999999,-1.7626473,0.052322,0.6284756,0.0018472992,4.4952765e-05,3.7252903e-07,0.3269944,-0.26717877,-4.7837873,-4.774975,0.02116495,-0.02306845,-0.02159992,-0.6441356,15.387887,-16.383635,-0.27882797,0.019565057,0.051455494,0.031629354,0.00015617056,26.370876,1.4968421,0.33943468,0.2573611,0.17584936,0.07364685,inf,inf,inf,inf,1,1,1,1,2,2,2,2,2,1,1,1,0,0,0
89383790,89383298,39230940,33.6448665,-117.84206859999999,-1.6887844,-0.11810794,-2.2818596,0.0018472992,4.4952765e-05,3.7252903e-07,0.30171937,-0.15160787,-5.941385,-5.931852,0.02116495,-0.02306845,-0.02159992,1.5031328,3.1509223,5.386589,-0.33057272,0.0176914,0.030205421,0.031629354,0.0001395061,26.370876,4.4071774,0.33124653,0.25439766,0.16236694,0.072901405,inf,inf,inf,inf,1,1,1,1,2,2,2,2,2,1,1,1,0,0,0
89881399,89876756,39230940,33.6448665,-117.84206859999999,-1.5516675,-0.13931458,-4.778555,0.0018472992,4.4952765e-05,3.7252903e-07,0.1958034,0.08619292,-4.536173,-4.497302,0.02116495,-0.02306845,-0.02159992,2.0545995,-3.5237741,8.009153,-0.38918886,0.016708722,0.029436242,0.031629354,0.00013528924,26.370876,6.9038725,0.3395257,0.25778353,0.15254715,0.07368595,inf,inf,inf,inf,1,1,1,1,2,2,2,2,2,1,1,1,0,0,0
90381071,90380569,39230940,33.6448665,-117.84206859999999,-1.5108109,-0.022381755,-6.684608,0.0018472992,4.4952765e-05,3.7252903e-07,-0.01154386,0.09743445,-3.2031987,-3.1445308,0.02116495,-0.02306845,-0.02159992,0.52595586,0.85155886,3.8335624,-0.4111898,0.015551834,0.04756559,0.031629354,0.00013397099,26.370876,8.809926,0.3312394,0.2550733,0.14284532,0.072921515,inf,inf,inf,inf,1,1,1,1,2,2,2,2,2,1,1,1,0,0,0
90884974,90884482,39230940,33.6448665,-117.84206859999999,-1.4575261,0.073587,-8.005754,0.0018472992,4.4952765e-05,3.7252903e-07,0.06758489,0.07987495,-2.1276286,-2.058026,0.02116495,-0.02306845,-0.02159992,-0.83903885,-0.55777836,0.72989196,-0.43755227,0.0153605305,0.032894865,0.031629354,0.00013702584,26.370876,10.131072,0.33933026,0.2591268,0.13817121,0.073862836,inf,inf,inf,inf,1,1,1,1,2,2,2,2,2,1,1,1,0,0,0
91378715,91377859,39230940,33.6448665,-117.84206859999999,-1.4657993,0.08313648,-8.847764,0.0018472992,4.4952765e-05,3.7252903e-07,-0.0032030449,-0.04852603,-1.4862685,-1.4176717,0.02116495,-0.02306845,-0.02159992,5.0323186,8.282997,-1.411281,-0.44917428,0.01532309,0.039840426,0.031629354,0.00014005558,26.370876,10.973082,0.33029205,0.25612506,0.1349835,0.073035695,inf,inf,inf,inf,1,1,1,1,2,2,2,2,2,1,1,1,0,0,0
91882569,91881785,39230940,33.6448665,-117.84206859999999,-1.5297657,0.06587582,-9.398523,0.0018472992,4.4952765e-05,3.7252903e-07,-0.15626208,-0.112650976,-0.79691297,-0.7337334,0.02116495,-0.02306845,-0.02159992,1.1393268,1.6179031,3.279742,-0.45375735,0.015183634,0.05329601,0.031629354,0.00014385846,26.370876,11.523841,0.33797824,0.26012146,0.14041854,0.07393699,inf,inf,inf,inf,1,1,1,1,2,2,2,2,2,1,1,1,0,0,0
92386316,92385693,39230940,33.6448665,-117.84206859999999,-1.5458285,0.09049059,-9.488551,0.0018472992,4.4952765e-05,3.7252903e-07,-0.03555848,0.028830158,0.11394286,0.18130432,0.02116495,-0.02306845,-0.02159992,-1.7985108,1.0554495,-0.9097031,-0.460784,0.015277735,0.052092478,0.031629354,0.0001483892,26.370876,11.613869,0.32907158,0.2573926,0.1349145,0.07328027,inf,inf,inf,inf,1,1,1,1,2,2,2,2,2,1,1,1,0,0,0
92879824,92879139,39230940,33.6448665,-117.84206859999999,-1.5950553,0.10527314,-9.261452,0.0018472992,4.4952765e-05,3.7252903e-07,-0.05565683,-0.104729705,0.6098202,0.6765345,0.02116495,-0.02306845,-0.02159992,-3.9024627,3.3629863,0.5666449,-0.48936298,0.015569437,0.028225077,0.031629354,0.00015367355,26.370876,11.386769,0.33594307,0.26156068,0.13820463,0.074107856,inf,inf,inf,inf,1,1,1,1,2,2,2,2,2,1,1,1,0,0,0
93384250,93382997,39230940,33.6448665,-117.84206859999999,-1.6722343,0.12410735,-8.724577,0.0018472992,4.4952765e-05,3.7252903e-07,0.008288328,0.037427064,1.3542454,1.4107072,0.02116495,-0.02306845,-0.02159992,-2.0619116,3.6266625,-3.6488683,-0.48396388,0.015852727,0.05742678,0.031629354,0.00015829373,26.370876,10.849895,0.32744277,0.25885555,0.13435383,0.07336305,inf,inf,inf,inf,1,1,1,1,2,2,2,2,2,1,1,1,0,0,0
93876940,93876388,39230940,33.6448665,-117.84206859999999,-1.700004,0.122564614,-8.072916,0.0018472992,4.4952765e-05,3.7252903e-07,0.17074637,-0.0848551,0.9876499,1.04128,0.02116495,-0.02306845,-0.02159992,3.183265,1.2465951,-5.16432,-0.49717677,0.016119696,0.041243225,0.031629354,0.0001630956,26.370876,10.198234,0.3335083,0.26205513,0.14016615,0.07408366,inf,inf,inf,inf,1,1,1,1,2,2,2,2,2,1,1,1,0,0,0
94380920,94380334,39230940,33.6448665,-117.84206859999999,-1.5669466,0.02639875,-7.499895,0.0018472992,4.4952765e-05,3.7252903e-07,0.22043489,-0.22653367,1.332389,1.3671294,0.02116495,-0.02306845,-0.02159992,-0.8607836,-6.355281,2.973618,-0.4757139,0.016115427,0.065356135,0.031629354,0.00016634185,26.370876,9.625213,0.32342187,0.25888363,0.13691597,0.07332086,inf,inf,inf,inf,1,1,1,1,2,2,2,2,2,1,1,1,0,0,0
94884685,94884198,39230940,33.6448665,-117.84206859999999,-1.4057045,-0.13211939,-6.7257276,0.0018472992,4.4952765e-05,3.7252903e-07,0.093402706,-0.12482769,1.568768,1.5770009,0.02116495,-0.02306845,-0.02159992,-1.6254236,-0.31278786,-2.8723829,-0.46173185,0.016509546,0.10178693,0.031629354,0.00017143598,26.370876,8.851046,0.330486,0.26245177,0.14314762,0.07429329,inf,inf,inf,inf,1,1,1,1,2,2,2,2,2,1,1,1,0,0,0
95379924,95377609,39230940,33.6448665,-117.84206859999999,-1.3365097,-0.2247914,-6.1649485,0.0018472992,4.4952765e-05,3.7252903e-07,-0.049848974,-0.075196184,0.59618556,0.5833397,0.02116495,-0.02306845,-0.02159992,-5.178029,-0.10035839,-7.7340317,-0.49669397,0.0163201,0.06834646,0.031629354,0.00017137545,26.370876,8.290266,0.3200348,0.25872055,0.14762391,0.07333501,inf,inf,inf,inf,1,1,1,1,2,2,2,2,2,1,1,1,0,0,0
95882102,95881538,39230940,33.6448665,-117.84206859999999,-1.3844324,-0.1985139,-5.733386,0.0018472992,4.4952765e-05,3.7252903e-07,-0.17457245,0.1171258,0.9732791,0.9784807,0.02116495,-0.02306845,-0.02159992,2.310957,1.8506929,6.619419,-0.50214946,0.016183667,0.07450696,0.031629354,0.00017005859,26.370876,7.8587036,0.3277393,0.26225767,0.15126051,0.07419798,inf,inf,inf,inf,1,1,1,1,2,2,2,2,2,1,1,1,0,0,0
96385970,96385427,39230940,33.6448665,-117.84206859999999,-1.5481389,-0.021410244,-5.0553746,0.0018472992,4.4952765e-05,3.7252903e-07,-0.031138992,0.27897295,1.4481082,1.4806179,0.02116495,-0.02306845,-0.02159992,-1.7634922,0.3540872,-0.5427955,-0.49907947,0.014862734,0.10425785,0.031629354,0.00016868036,26.370876,7.1806927,0.3175827,0.25900277,0.14486946,0.07343141,inf,inf,inf,inf,1,1,1,1,2,2,2,2,2,1,1,1,0,0,0
96879287,96878778,39230940,33.6448665,-117.84206859999999,-1.6345935,0.17732006,-4.393998,0.0018472992,4.4952765e-05,3.7252903e-07,-0.25141242,0.15421319,1.1285384,1.1636795,0.02116495,-0.02306845,-0.02159992,-5.9832506,-7.3643584,-8.941944,-0.5010725,0.014906796,0.11804532,0.031629354,0.0001697597,26.370876,6.5193157,0.32434016,0.2627699,0.14824246,0.07425285,inf,inf,inf,inf,1,1,1,1,2,2,2,2,2,1,1,1,0,0,0
97383226,97382704,39230940,33.6448665,-117.84206859999999,-1.7211466,0.23606743,-3.9544823,0.0018472992,4.4952765e-05,3.7252903e-07,0.119896315,-0.22182032,0.37386394,0.40218508,0.02116495,-0.02306845,-0.02159992,3.6341271,-1.6885711,1.0991734,-0.55522686,0.014835297,0.068752706,0.031629354,0.00016503254,26.370876,6.0798,0.3148057,0.2595613,0.1438126,0.07344501,inf,inf,inf,inf,1,1,1,1,2,2,2,2,2,1,1,1,0,0,0
97887118,97886571,39230940,33.6448665,-117.84206859999999,-1.65658,0.13247232,-3.6178908,0.0018472992,4.4952765e-05,3.7252903e-07,0.2047086,-0.14057738,0.7278982,0.74690527,0.02116495,-0.02306845,-0.02159992,0.05874966,0.5121221,7.6231117,-0.555119,0.0147714475,0.068326496,0.031629354,0.00016362863,26.370876,5.743209,0.32318333,0.26314992,0.15057413,0.07442097,inf,inf,inf,inf,1,1,1,1,2,2,2,2,2,1,1,1,0,0,0
98380498,98380002,39230940,33.6448665,-117.84206859999999,-1.4929298,-0.016909,-3.303846,0.0018472992,4.4952765e-05,3.7252903e-07,0.2592816,-0.22644818,0.94317305,0.93352586,0.02116495,-0.02306845,-0.02159992,-0.88794863,-4.012249,4.415138,-0.5690518,0.014554859,0.044383317,0.031629354,0.00015955829,26.370876,5.429164,0.31412536,0.2596708,0.14617041,0.07349745,inf,inf,inf,inf,1,1,1,1,2,2,2,2,2,1,1,1,0,0,0
98885796,98883860,39230940,33.6448665,-117.84206859999999,-1.5042146,-0.015451501,-2.8548267,0.0018472992,4.4952765e-05,3.7252903e-07,-0.15456782,-0.052791998,0.9141672,0.8747061,0.02116495,-0.02306845,-0.02159992,-7.1574893,0.29854473,-7.913471,-0.56369793,0.014962933,0.08145258,0.031629354,0.00015954074,26.370876,4.9801445,0.32323083,0.26340866,0.14353706,0.07430335,inf,inf,inf,inf,1,1,1,1,2,2,2,2,2,1,1,1,0,0,0
99377801,99377300,39230940,33.6448665,-117.84206859999999,-1.5364997,0.022512536,-2.5211818,0.0018472992,4.4952765e-05,3.7252903e-07,0.15945658,-0.02829679,0.694345,0.63914126,0.02116495,-0.02306845,-0.02159992,-6.1691346,-0.76451874,-10.242704,-0.6245844,0.01523786,0.020117892,0.031629354,0.00015565193,26.370876,4.6464996,0.31439036,0.25997376,0.13982794,0.07349693,inf,inf,inf,inf,1,1,1,1,2,2,2,2,2,1,1,1,0,0,0
99881773,99881164,39230940,33.6448665,-117.84206859999999,-1.4412267,-0.009917717,-2.1986897,0.0018472992,4.4952765e-05,3.7252903e-07,0.20791993,-0.03737892,0.6928927,0.6250661,0.02116495,-0.02306845,-0.02159992,0.1333177,-3.9488242,7.883663,-0.64672035,0.015554374,0.008822089,0.031629354,0.00015534624,26.370876,4.3240075,0.32341248,0.2643502,0.14425771,0.07432943,inf,inf,inf,inf,1,1,1,1,2,2,2,2,2,1,1,1,0,0,0
100375044,100374575,39230940,33.6448665,-117.84206859999999,-1.3441348,-0.023993487,-1.939966,0.0018472992,4.4952765e-05,3.7252903e-07,-0.039359167,0.056228913,0.7382163,0.6440692,0.02116495,-0.02306845,-0.02159992,2.6381376,1.6288018,4.8404417,-0.6358347,0.015796894,0.030316314,0.031629354,0.00015173497,26.370876,4.065284,0.31480923,0.26086333,0.13925451,0.07342118,inf,inf,inf,inf,1,1,1,1,2,2,2,2,2,1,1,1,0,0,0
100880017,100878511,39230940,33.6448665,-117.84206859999999,-1.3042672,-0.013548689,-1.5352368,0.0018472992,4.4952765e-05,3.7252903e-07,-0.10408236,0.2290681,1.0699596,0.9579059,0.02116495,-0.02306845,-0.02159992,3.9887586,0.66269356,-1.3334962,-0.6035722,0.016115941,0.0650883,0.031629354,0.00015191654,26.370876,3.6605546,0.3240342,0.26461467,0.14699085,0.07439117,inf,inf,inf,inf,1,1,1,1,2,2,2,2,2,1,1,1,0,0,0
101382885,101382409,39230940,33.6448665,-117.84206859999999,-1.3751466,0.06548841,-1.041636,0.0018472992,4.4952765e-05,3.7252903e-07,-0.20532359,0.15132067,1.081596,0.9744285,0.02116495,-0.02306845,-0.02159992,-1.0626326,1.1983637,0.33526286,-0.58712924,0.015859775,0.08939584,0.031629354,0.00015003361,26.370876,3.1669538,0.31677347,0.2619087,0.14133725,0.073519796,inf,inf,inf,inf,1,1,1,1,2,2,2,2,2,1,1,1,0,0,0
101886963,101886345,39230940,33.6448665,-117.84206859999999,-1.3294536,0.11735862,-0.5533455,0.0018472992,4.4952765e-05,3.7252903e-07,0.03953567,-0.013812292,0.8109481,0.7194099,0.02116495,-0.02306845,-0.02159992,0.32686874,-11.335207,5.735559,-0.563756,0.016196223,0.12613823,0.031629354,0.0001513026,26.370876,2.6786633,0.32628343,0.2657982,0.14406897,0.07443288,inf,inf,inf,inf,1,1,1,1,2,2,2,2,2,1,1,1,0,0,0
102380230,102379725,39230940,33.6448665,-117.84206859999999,-1.3406163,0.15214081,-0.18368945,0.0018472992,4.4952765e-05,3.7252903e-07,0.120030634,-0.015853738,0.9825102,0.904046,0.02116495,-0.02306845,-0.02159992,10.729705,7.878317,-3.3350487,-0.60463345,0.016540147,0.11090616,0.031629354,0.00014834519,26.370876,2.3090072,0.31806046,0.26270473,0.13842979,0.07352982,inf,inf,inf,inf,1,1,1,1,2,2,2,2,2,1,1,1,0,0,0
102884285,102883655,39230940,33.6448665,-117.84206859999999,-1.4100473,0.28691757,0.12215502,0.0018472992,4.4952765e-05,3.7252903e-07,-0.16650438,0.06756587,-0.102994286,-0.16353461,0.02116495,-0.02306845,-0.02159992,-1.7955887,-4.360134,-1.3841707,-0.6286651,0.016984453,0.09167914,0.031629354,0.00014951837,26.370876,2.0031629,0.32736784,0.26656598,0.15375902,0.074427396,inf,inf,inf,inf,1,1,1,1,2,2,2,2,2,1,1,1,0,0,0
103377521,103377028,39230940,33.6448665,-117.84206859999999,-1.5045269,0.40618524,0.24258953,0.0018472992,4.4952765e-05,3.7252903e-07,-0.061716557,0.12648457,0.7239759,0.6669769,0.02116495,-0.02306845,-0.02159992,0.74179626,4.624633,3.393349,-0.6107292,0.016702693,0.14556248,0.031629354,0.0001444155,26.370876,1.8827283,0.31796125,0.2639554,0.14257167,0.07365378,inf,inf,inf,inf,1,1,1,1,2,2,2,2,2,1,1,1,0,0,0
103881428,103880961,39230940,33.6448665,-117.84206859999999,-1.5644506,0.4709962,0.60589355,0.0018472992,4.4952765e-05,3.7252903e-07,-0.07739485,-0.07234625,0.638075,0.5998944,0.02116495,-0.02306845,-0.02159992,4.463552,0.45309302,-0.97100526,-0.670916,0.01694647,0.09516703,0.031629354,0.00014467386,26.370876,1.5194242,0.3264861,0.26769838,0.14351907,0.07440855,inf,inf,inf,inf,1,1,1,1,2,2,2,2,2,1,1,1,0,0,0
104385794,104384840,39230940,33.6448665,-117.84206859999999,-1.5204078,0.41987947,1.017044,0.0018472992,4.4952765e-05,3.7252903e-07,0.026074069,0.013398309,0.8543416,0.83359545,0.02116495,-0.02306845,-0.02159992,-2.8169737,-1.6849074,-3.5597372,-0.6512315,0.016699988,0.09816897,0.031629354,0.00014247576,26.370876,1.1082739,0.31772724,0.2649261,0.1398774,0.07371439,inf,inf,inf,inf,1,1,1,1,2,2,2,2,2,1,1,1,0,0,0
104878701,104878231,39230940,33.6448665,-117.84206859999999,-1.4815239,0.41256696,1.4270467,0.0018472992,4.4952765e-05,3.7252903e-07,0.13442108,0.047021307,0.7829953,0.7754928,0.02116495,-0.02306845,-0.02159992,0.16604225,1.5119314,-3.3301075,-0.65322614,0.016866552,0.10750233,0.031629354,0.00014262667,26.370876,0.69827116,0.32531703,0.2681844,0.14240794,0.07443762,inf,inf,inf,inf,1,1,1,1,2,2,2,2,2,1,1,1,0,0,0
105382601,105382134,39230940,33.6448665,-117.84206859999999,-1.4095907,0.39660397,1.7493826,0.0018472992,4.4952765e-05,3.7252903e-07,0.12587643,-0.0960943,0.76878554,0.75851727,0.02116495,-0.02306845,-0.02159992,-2.907782,-2.4268272,4.596826,-0.6752266,0.016978266,0.07904821,0.031629354,0.00014078834,26.370876,0.3759352,0.3172672,0.26546547,0.1417588,0.07361285,inf,inf,inf,inf,1,1,1,1,2,2,2,2,2,1,1,1,0,0,0
105886545,105886060,39230940,33.6448665,-117.84206859999999,-1.5474602,0.47930694,2.1344748,0.0018472992,4.4952765e-05,3.7252903e-07,-0.24946672,0.12627964,0.6382783,0.623751,0.02116495,-0.02306845,-0.02159992,-0.43038464,-7.4990296,-2.8621056,-0.6772763,0.017292505,0.09854872,0.031629354,0.00014146758,26.370876,0.019731045,0.32618013,0.26923776,0.14475563,0.07450044,inf,inf,inf,inf,1,1,1,1,2,2,2,2,2,1,1,1,0,0,0
106380876,106379427,39230940,33.6448665,-117.84206859999999,-1.5132073,0.47342697,2.339212,0.0018472992,4.4952765e-05,3.7252903e-07,0.21108234,-0.19236796,0.453756,0.42986685,0.02116495,-0.02306845,-0.02159992,-2.6329458,-4.866214,-2.9327066,-0.73211145,0.01710076,0.022932818,0.031629354,0.00013896942,26.370876,0.035561085,0.3172827,0.26610056,0.14226566,0.07366116,inf,inf,inf,inf,1,1,1,1,2,2,2,2,2,1,1,1,0,0,0
106883973,106883311,39230940,33.6448665,-117.84206859999999,-1.3881917,0.31889194,2.5643575,0.0018472992,4.4952765e-05,3.7252903e-07,0.2591815,-0.16703239,0.9404498,0.88920057,0.02116495,-0.02306845,-0.02159992,-2.6165571,-4.303372,8.417547,-0.7273632,0.01703425,0.043468054,0.031629354,0.0001395079,26.370876,0.025603771,0.3263607,0.2699049,0.14732529,0.074539356,inf,inf,inf,inf,1,1,1,1,2,2,2,2,2,1,1,1,0,0,0
107377318,107376745,39230940,33.6448665,-117.84206859999999,-1.2744601,0.19939245,4.020898,0.0018472992,4.4952765e-05,3.7252903e-07,0.3493353,-1.1127117,0.4019089,0.33675367,0.02116495,-0.02306845,-0.02159992,-36.563183,-9.1700735,-71.29599,-0.95733106,0.017411286,0.34272346,0.031629354,0.00014247929,26.370876,0.0,0.31787875,0.26760048,0.13002528,0.073644586,inf,inf,inf,inf,1,1,1,1,2,2,2,2,2,1,1,1,1,0,0
