timestamp,timestamp_sample,latitude_deg,longitude_deg,altitude_msl_m,altitude_ellipsoid_m,time_utc_usec,device_id,s_variance_m_s,c_variance_rad,eph,epv,hdop,vdop,noise_per_ms,jamming_indicator,vel_m_s,vel_n_m_s,vel_e_m_s,vel_d_m_s,cog_rad,timestamp_time_relative,heading,heading_offset,heading_accuracy,rtcm_injection_rate,automatic_gain_control,fix_type,jamming_state,spoofing_state,vel_ned_valid,satellites_used,selected_rtcm_instance,rtcm_crc_failed,rtcm_msg_used
80347412,0,33.6448547,-117.8420665,24.26,24.26,1710220989800000,8748291,0.036865234,12.603498,0.969002,1.2179484,0.6298828,0.97021484,-1,-1,0.09327916,0.045,0.030000001,-0.076000005,0.5880026,0,nan,nan,nan,0.0,0,3,0,0,1,23,0,0,0
80557747,0,33.6448546,-117.8420665,24.25,24.25,1710220990000000,8748291,0.031341553,63.573116,0.969002,1.2159423,0.6298828,0.97021484,-1,-1,0.029223282,0.022000002,0.003,0.019000001,0.1355277,0,nan,nan,nan,0.0,0,3,0,0,1,23,0,0,0
80748847,0,33.6448546,-117.8420665,24.240000000000002,24.240000000000002,1710220990200000,8748291,0.03881836,11.268029,0.969002,1.2151389,0.6298828,0.97021484,-1,-1,0.078415565,0.058000002,-0.009000001,-0.052,-0.15394467,0,nan,nan,nan,0.0,0,3,0,0,1,23,0,0,0
80948029,0,33.6448546,-117.8420665,24.23,24.23,1710220990400000,8748291,0.038024902,358.72546,0.97000927,1.2139328,0.6298828,0.97021484,-1,-1,0.0766942,0.0050000004,-0.009000001,-0.076000005,-1.0636978,0,nan,nan,nan,0.0,0,3,0,0,1,23,0,0,0
81146163,0,33.6448545,-117.8420665,24.23,24.23,1710220990600000,8748291,0.034973145,47.71234,0.969002,1.21192,0.6298828,0.97021484,-1,-1,0.034263685,-0.027,0.002,0.021000002,3.0676537,0,nan,nan,nan,0.0,0,3,0,0,1,23,0,0,0
81343890,0,33.6448544,-117.8420665,24.22,24.22,1710220990800000,8748291,0.021911621,7.3528924,0.97000927,1.2111139,0.6298828,0.97021484,-1,-1,0.056612723,-0.008,0.054,-0.015000001,1.7178746,0,nan,nan,nan,0.0,0,3,0,0,1,23,0,0,0
81552074,0,33.6448542,-117.84206640000001,24.2,24.2,1710220991000000,8748291,0.02923584,28.192705,0.97000927,1.21192,0.6298828,0.97021484,-1,-1,0.04539824,0.014,-0.029000001,-0.032,-1.1210368,0,nan,nan,nan,0.0,0,3,0,0,1,23,0,0,0
81745810,0,33.6448542,-117.8420665,24.2,24.2,1710220991200000,8748291,0.033477783,112.341545,0.9710155,1.2131281,0.6298828,0.97021484,-1,-1,0.017291617,-0.017,-0.003,0.001,-2.9669204,0,nan,nan,nan,0.0,0,3,0,0,1,23,0,0,0
81942573,0,33.6448541,-117.8420665,24.18,24.18,1710220991400000,8748291,0.037628174,129.7523,0.9710155,1.2139328,0.6298828,0.97021484,-1,-1,0.043474134,0.017,-0.001,0.040000003,-0.058755822,0,nan,nan,nan,0.0,0,3,0,0,1,23,0,0,0
82144066,0,33.644854,-117.8420665,24.18,24.18,1710220991600000,8748291,0.033843994,85.249344,0.9720207,1.2151389,0.6298828,0.97021484,-1,-1,0.01994994,-0.019000001,-0.006,-0.001,-2.8357139,0,nan,nan,nan,0.0,0,3,0,0,1,23,0,0,0
82347707,0,33.644854,-117.8420665,24.19,24.19,1710220991800000,8748291,0.034973145,392.95663,0.97302485,1.2159423,0.6298828,0.97021484,-1,-1,0.012369318,0.0050000004,-0.008,-0.008,-1.012197,0,nan,nan,nan,0.0,0,3,0,0,1,23,0,0,0
82553828,0,33.6448539,-117.8420665,24.17,24.17,1710220992000000,8748291,0.02923584,1124.4552,0.97402793,1.2179484,0.6298828,0.97021484,-1,-1,0.0051961527,0.001,0.0050000004,0.001,1.3734008,0,nan,nan,nan,0.0,0,3,0,0,1,23,0,0,0
82745841,0,33.6448538,-117.8420665,24.17,24.17,1710220992200000,8748291,0.037628174,26.05829,0.97402793,1.2191505,0.6298828,0.97021484,-1,-1,0.03905125,-0.038000003,0.0,0.009000001,3.1415927,0,nan,nan,nan,0.0,0,3,0,0,1,23,0,0,0
82948252,0,33.6448536,-117.84206640000001,24.13,24.13,1710220992400000,8748291,0.033843994,27.075195,0.97503006,1.2199513,0.6298828,0.97021484,-1,-1,0.07575619,0.025,0.025,0.067,0.7853982,0,nan,nan,nan,0.0,0,3,0,0,1,23,0,0,0
83147292,0,33.6448535,-117.84206640000001,24.11,24.11,1710220992600000,8748291,0.034210205,11.309155,0.97503006,1.2211515,0.6298828,0.97021484,-1,-1,0.07500667,-0.044000003,-0.033,0.051000003,-2.4980917,0,nan,nan,nan,0.0,0,3,0,0,1,23,0,0,0
83346358,0,33.6448534,-117.84206640000001,24.09,24.09,1710220992800000,8748291,0.038024902,139.79741,0.97503006,1.2211515,0.6298828,0.97021484,-1,-1,0.02994996,-0.016,-0.004,0.025,-2.896614,0,nan,nan,nan,0.0,0,3,0,0,1,23,0,0,0
83555777,0,33.6448533,-117.84206640000001,24.09,24.09,1710220993000000,8748291,0.021911621,48.692482,0.97503006,1.2219509,0.6298828,0.97021484,-1,-1,0.023895608,-0.003,0.021000002,0.011000001,1.7126933,0,nan,nan,nan,0.0,0,3,0,0,1,23,0,0,0
83744713,0,33.6448533,-117.84206640000001,24.11,24.11,1710220993200000,8748291,0.036468506,291.748,0.97503006,1.2231491,0.6298828,0.97021484,-1,-1,0.023790756,0.011000001,0.002,-0.021000002,0.17985348,0,nan,nan,nan,0.0,0,3,0,0,1,23,0,0,0
83946306,0,33.6448532,-117.8420663,24.09,24.09,1710220993400000,8748291,0.037628174,442.68433,0.97503006,1.2231491,0.6298828,0.97021484,-1,-1,0.043,0.009000001,-0.002,0.042000003,-0.21866895,0,nan,nan,nan,0.0,0,3,0,0,1,23,0,0,0
84146447,0,33.6448531,-117.8420663,24.080000000000002,24.080000000000002,1710220993600000,8748291,0.03842163,20.824732,0.97503006,1.2239473,0.6298828,0.97021484,-1,-1,0.0804301,-0.039,0.018000001,-0.068,2.709185,0,nan,nan,nan,0.0,0,3,0,0,1,23,0,0,0
84345585,0,33.644853,-117.8420663,24.080000000000002,24.080000000000002,1710220993800000,8748291,0.017959595,15.054143,0.97503006,1.2239473,0.6298828,0.97021484,-1,-1,0.034554306,-0.013,-0.032,-0.001,-1.956679,0,nan,nan,nan,0.0,0,3,0,0,1,23,0,0,0
84547990,0,33.644852900000004,-117.8420663,24.080000000000002,24.080000000000002,1710220994000000,8748291,0.034210205,22.91373,0.9760311,1.2251434,0.6298828,0.97021484,-1,-1,0.03910243,0.038000003,0.007,-0.006,0.1821683,0,nan,nan,nan,0.0,0,3,0,0,1,23,0,0,0
84746920,0,33.644852900000004,-117.8420663,24.09,24.09,1710220994200000,8748291,0.037261963,89.572014,0.9760311,1.2271346,0.6298828,0.97021484,-1,-1,0.046690475,-0.020000001,-0.004,-0.042000003,-2.9441972,0,nan,nan,nan,0.0,0,3,0,0,1,23,0,0,0
84944892,0,33.6448527,-117.8420663,24.09,24.09,1710220994400000,8748291,0.03881836,158.44229,0.9760311,1.2279302,0.6298828,0.97021484,-1,-1,0.0707531,-0.007,0.014,-0.069000006,2.0344439,0,nan,nan,nan,0.0,0,3,0,0,1,23,0,0,0
85146255,0,33.6448527,-117.8420662,24.09,24.09,1710220994600000,8748291,0.041625977,98.17445,0.9770311,1.2291225,0.6298828,0.97021484,-1,-1,0.058728192,0.018000001,-0.010000001,-0.055000003,-0.5070985,0,nan,nan,nan,0.0,0,3,0,0,1,23,0,0,0
85346421,0,33.6448526,-117.8420662,24.080000000000002,24.080000000000002,1710220994800000,8748291,0.027893066,17.587051,0.9770311,1.2299168,0.6298828,0.97021484,-1,-1,0.042555846,0.025,0.031000001,-0.015000001,0.89213383,0,nan,nan,nan,0.0,0,3,0,0,1,23,0,0,0
85553238,0,33.6448524,-117.8420661,24.060000000000002,24.060000000000002,1710220995000000,8748291,0.034973145,5.871918,0.97803015,1.2311072,0.6298828,0.97021484,-1,-1,0.07861934,-0.066,0.040000003,-0.015000001,2.5967288,0,nan,nan,nan,0.0,0,3,0,0,1,23,0,0,0
85745715,0,33.6448522,-117.842066,24.04,24.04,1710220995200000,8748291,0.046661377,291.63358,0.97803015,1.2330887,0.6298828,0.97021484,-1,-1,0.033481337,0.012,-0.004,0.031000001,-0.32175055,0,nan,nan,nan,0.0,0,3,0,0,1,23,0,0,0
85947087,0,33.6448521,-117.842066,24.04,24.04,1710220995400000,8748291,0.029922485,5.1079693,0.97803015,1.2338804,0.6298828,0.97021484,-1,-1,0.09253108,-0.037,0.067,0.052,2.0753567,0,nan,nan,nan,0.0,0,3,0,0,1,23,0,0,0
86145327,0,33.644852,-117.8420657,24.03,24.03,1710220995600000,8748291,0.037261963,2.111159,0.97803015,1.235067,0.6298828,0.97021484,-1,-1,0.13764448,-0.07300001,0.11100001,-0.036000002,2.152536,0,nan,nan,nan,0.0,0,3,0,0,1,23,0,0,0
86341927,0,33.644851700000004,-117.8420654,24.04,24.04,1710220995800000,8748291,0.034210205,0.6752769,0.9760311,1.2358575,0.6298828,0.97021484,-1,-1,0.22748627,-0.21000001,0.081,0.033,2.7734618,0,nan,nan,nan,0.0,0,3,0,0,1,23,0,0,0
86553543,0,33.6448512,-117.842065,24.0,24.0,1710220996000000,8748291,0.029922485,0.7718942,0.97302485,1.2330887,0.6298828,0.97021484,-1,-1,0.21214618,-0.17300001,0.094000004,-0.079,2.6438673,0,nan,nan,nan,0.0,0,3,0,0,1,23,0,0,0
86745743,0,33.6448508,-117.8420648,24.02,24.02,1710220996200000,8748291,0.032043457,0.38615873,0.97000927,1.2330887,0.6298828,0.97021484,-1,-1,0.28868842,-0.28800002,0.006,0.019000001,3.1207623,0,nan,nan,nan,0.0,0,3,0,0,1,23,0,0,0
86942422,0,33.6448503,-117.84206470000001,24.02,24.02,1710220996400000,8748291,0.035339355,0.53928506,0.9679937,1.2338804,0.6298828,0.97021484,-1,-1,0.25655216,-0.25300002,-0.039,-0.017,-2.9886463,0,nan,nan,nan,0.0,0,3,0,0,1,23,0,0,0
87145107,0,33.6448498,-117.84206470000001,24.01,24.01,1710220996600000,8748291,0.05429077,0.94168156,0.9679937,1.2358575,0.6298828,0.97021484,-1,-1,0.24018537,-0.23300001,0.058000002,-0.006,2.897624,0,nan,nan,nan,0.0,0,3,0,0,1,23,0,0,0
87345166,0,33.6448495,-117.8420646,24.01,24.01,1710220996800000,8748291,0.029922485,2.324257,0.96597385,1.2378314,0.6298828,0.97021484,-1,-1,0.12978059,-0.093,-0.065000005,-0.063,-2.5315888,0,nan,nan,nan,0.0,0,3,0,0,1,23,0,0,0
87552029,0,33.6448494,-117.8420646,24.01,24.01,1710220997000000,8748291,0.024642944,3.8444524,0.96496236,1.2401959,0.6298828,0.97021484,-1,-1,0.08111104,-0.013,-0.079,0.013,-1.7338916,0,nan,nan,nan,0.0,0,3,0,0,1,23,0,0,0
87746681,0,33.644849300000004,-117.8420648,24.02,24.02,1710220997200000,8748291,0.031341553,1.6278785,0.96496236,1.2429489,0.6298828,0.97021484,-1,-1,0.19359237,0.022000002,-0.13700001,-0.135,-1.4115717,0,nan,nan,nan,0.0,0,3,0,0,1,23,0,0,0
87943379,0,33.644849300000004,-117.842065,24.02,24.02,1710220997400000,8748291,0.021911621,11.986661,0.9639498,1.2449116,0.6298828,0.97021484,-1,-1,0.042766813,-0.008,-0.042000003,-0.001,-1.7590178,0,nan,nan,nan,0.0,0,3,0,0,1,23,0,0,0
88140206,0,33.6448491,-117.8420649,24.01,24.01,1710220997600000,8748291,0.034210205,1.0557075,0.9639498,1.2468711,0.6298828,0.97021484,-1,-1,0.18822859,-0.15100001,0.098000005,0.055000003,2.565916,0,nan,nan,nan,0.0,0,3,0,0,1,23,0,0,0
88343875,0,33.644849,-117.8420649,23.990000000000002,23.990000000000002,1710220997800000,8748291,0.033111572,2.1926742,0.96293616,1.2480453,0.6298828,0.97021484,-1,-1,0.14044572,0.101,-0.07,-0.068,-0.6060593,0,nan,nan,nan,0.0,0,3,0,0,1,23,0,0,0
88552019,0,33.644849,-117.8420656,24.1,24.1,1710220998000000,8748291,0.050628662,0.10246186,0.96293616,1.2511714,0.6298828,0.97021484,-1,-1,1.6132036,-0.12900001,-0.69100004,-1.452,-1.7553577,0,nan,nan,nan,0.0,0,3,0,0,1,23,0,0,0
88742002,0,33.6448486,-117.8420669,24.45,24.45,1710220998200000,8748291,0.078430176,0.27126265,0.9619215,1.2511714,0.6298828,0.97021484,-1,-1,2.7873564,-0.133,-0.521,-2.7350001,-1.8207365,0,nan,nan,nan,0.0,0,3,0,0,1,23,0,0,0
88944613,0,33.6448489,-117.8420679,25.23,25.23,1710220998400000,8748291,0.085876465,0.42443126,0.9619215,1.2531211,0.6298828,0.97021484,-1,-1,4.7573133,0.26700002,-0.36200002,-4.736,-0.93529856,0,nan,nan,nan,0.0,0,3,0,0,1,23,0,0,0
89142515,0,33.6448495,-117.8420685,26.3,26.3,1710220998600000,8748291,0.08642578,0.38595858,0.96293616,1.2558457,0.6298828,0.97021484,-1,-1,5.9528384,0.409,-0.238,-5.9340005,-0.52700967,0,nan,nan,nan,0.0,0,3,0,0,1,23,0,0,0
89341534,0,33.6448503,-117.8420692,27.48,27.48,1710220998800000,8748291,0.09423828,0.23943383,0.96293616,1.2570115,0.6298828,0.97021484,-1,-1,6.065532,0.522,-0.34800002,-6.0330005,-0.5880026,0,nan,nan,nan,0.0,0,3,0,0,1,23,0,0,0
89549855,0,33.644851100000004,-117.84206950000001,28.62,28.62,1710220999000000,8748291,0.091796875,0.8082276,0.96293616,1.26089,0.6298828,0.97021484,-1,-1,5.4833665,0.337,-0.003,-5.473,-0.008901842,0,nan,nan,nan,0.0,0,3,0,0,1,23,0,0,0
89744422,0,33.6448516,-117.8420694,29.7,29.7,1710220999200000,8748291,0.091796875,1.3928665,0.96293616,1.2651427,0.6298828,0.97021484,-1,-1,4.979622,0.231,0.112,-4.973,0.4514531,0,nan,nan,nan,0.0,0,3,0,0,1,23,0,0,0
89940481,0,33.644852,-117.84206900000001,30.64,30.64,1710220999400000,8748291,0.09613037,0.78450066,0.96293616,1.2701501,0.6298828,0.97021484,-1,-1,4.4238715,0.24400002,0.25100002,-4.4100003,0.7995387,0,nan,nan,nan,0.0,0,3,0,0,1,23,0,0,0
90145139,0,33.6448525,-117.8420684,31.55,31.55,1710220999600000,8748291,0.09301758,0.52665967,0.9619215,1.2739886,0.6298828,0.97021484,-1,-1,4.123472,0.287,0.307,-4.102,0.8190555,0,nan,nan,nan,0.0,0,3,0,0,1,23,0,0,0
90344844,0,33.6448527,-117.8420677,32.25,32.25,1710220999800000,8748291,0.0881958,0.9729263,0.96090573,1.2778155,0.6298828,0.97021484,-1,-1,3.2888107,-0.007,0.30100003,-3.275,1.5940479,0,nan,nan,nan,0.0,0,3,0,0,1,23,0,0,0
90552865,0,33.6448528,-117.8420673,32.87,32.87,1710221000000000,8748291,0.084106445,1.6263765,0.96090573,1.2831541,0.6298828,0.97021484,-1,-1,3.1781464,0.19500001,0.117000006,-3.17,0.5404195,0,nan,nan,nan,0.0,0,3,0,0,1,23,0,0,0
90746425,0,33.644853,-117.8420668,33.43,33.43,1710221000200000,8748291,0.090026855,0.7871888,0.9619215,1.2880915,0.6298828,0.97021484,-1,-1,2.6129766,-0.011000001,0.33800003,-2.591,1.6033292,0,nan,nan,nan,0.0,0,3,0,0,1,23,0,0,0
90944552,0,33.644853,-117.8420662,33.92,33.92,1710221000400000,8748291,0.08465576,1.0264788,0.9619215,1.2918767,0.6298828,0.97021484,-1,-1,2.2880938,0.134,0.254,-2.2700002,1.0853453,0,nan,nan,nan,0.0,0,3,0,0,1,23,0,0,0
91143695,0,33.6448532,-117.84206590000001,34.29,34.29,1710221000600000,8748291,0.08062744,9.718832,0.9619215,1.2948968,0.6298828,0.97021484,-1,-1,1.6505152,0.086,0.030000001,-1.6480001,0.33563855,0,nan,nan,nan,0.0,0,3,0,0,1,23,0,0,0
91345399,0,33.6448532,-117.842066,34.65,34.65,1710221000800000,8748291,0.07342529,1.7852871,0.96090573,1.29791,0.6298828,0.97021484,-1,-1,1.788535,-0.018000001,-0.202,-1.7770001,-1.6596705,0,nan,nan,nan,0.0,0,3,0,0,1,23,0,0,0
91552217,0,33.6448527,-117.8420663,34.95,34.95,1710221001000000,8748291,0.06970215,1.5885804,0.95606613,1.29791,0.6298828,0.97021484,-1,-1,1.4878192,-0.16100001,-0.134,-1.473,-2.4474657,0,nan,nan,nan,0.0,0,3,0,0,1,23,0,0,0
91743255,0,33.644852300000004,-117.84206640000001,35.18,35.18,1710221001200000,8748291,0.068115234,3.460788,0.95094526,1.2960275,0.6298828,0.97021484,-1,-1,1.0623046,-0.13900001,0.019000001,-1.0530001,3.005744,0,nan,nan,nan,0.0,0,3,0,0,1,23,0,0,0
91946931,0,33.6448519,-117.84206640000001,35.300000000000004,35.300000000000004,1710221001400000,8748291,0.06298828,2.7361224,0.94888914,1.29791,0.6298828,0.97021484,-1,-1,0.6976977,-0.125,-0.086,-0.68100005,-2.538966,0,nan,nan,nan,0.0,0,3,0,0,1,23,0,0,0
92146067,0,33.6448519,-117.84206640000001,35.4,35.4,1710221001600000,8748291,0.06100464,3.0822873,0.94811696,1.299038,0.6298828,0.97021484,-1,-1,0.58613396,0.136,0.036000002,-0.569,0.2587709,0,nan,nan,nan,0.0,0,3,0,0,1,23,0,0,0
92345326,0,33.644851700000004,-117.8420662,35.4,35.4,1710221001800000,8748291,0.046661377,1.2514786,0.9470864,1.3020416,0.6298828,0.97021484,-1,-1,0.2432879,-0.158,0.11100001,0.148,2.5291696,0,nan,nan,nan,0.0,0,3,0,0,1,23,0,0,0
92552055,0,33.6448515,-117.8420661,35.36,35.36,1710221002000000,8748291,0.051971436,4.8767414,0.9470864,1.3061603,0.6298828,0.97021484,-1,-1,0.1739454,-0.064,-0.081,0.14,-2.239486,0,nan,nan,nan,0.0,0,3,0,0,1,23,0,0,0
92745708,0,33.6448512,-117.842066,35.27,35.27,1710221002200000,8748291,0.054748535,1.7084891,0.94811696,1.3098933,0.6298828,0.97021484,-1,-1,0.44371277,-0.157,0.086,0.40600002,2.6404626,0,nan,nan,nan,0.0,0,3,0,0,1,23,0,0,0
92945931,0,33.6448509,-117.8420658,35.160000000000004,35.160000000000004,1710221002400000,8748291,0.06100464,3.197308,0.94811696,1.3128719,0.6298828,0.97021484,-1,-1,0.66842806,-0.13800001,-0.006,0.65400004,-3.0981417,0,nan,nan,nan,0.0,0,3,0,0,1,23,0,0,0
93145132,0,33.6448507,-117.8420658,35.02,35.02,1710221002600000,8748291,0.0625,5.6668777,0.9470864,1.3139873,0.6298828,0.97021484,-1,-1,0.89021635,-0.102000006,0.025,0.88400006,2.901233,0,nan,nan,nan,0.0,0,3,0,0,1,23,0,0,0
93344543,0,33.6448495,-117.8420656,34.7,34.7,1710221002800000,8748291,0.06100464,2.6808152,0.9359362,1.3110111,0.6298828,0.97021484,-1,-1,1.1856357,-0.15,-0.016,1.176,-3.0353277,0,nan,nan,nan,0.0,0,3,0,0,1,23,0,0,0
93552039,0,33.6448492,-117.8420656,34.45,34.45,1710221003000000,8748291,0.06149292,32.010887,0.92491555,1.3061603,0.6298828,0.97021484,-1,-1,1.196803,-0.020000001,0.039,1.1960001,2.0446477,0,nan,nan,nan,0.0,0,3,0,0,1,23,0,0,0
93745646,0,33.644849300000004,-117.8420658,34.160000000000004,34.160000000000004,1710221003200000,8748291,0.05807495,1.3912166,0.9140291,1.3009162,0.6298828,0.97021484,-1,-1,1.5624164,0.080000006,-0.18800001,1.549,-1.1684753,0,nan,nan,nan,0.0,0,3,0,0,1,23,0,0,0
93944486,0,33.6448497,-117.84206640000001,33.96,33.96,1710221003400000,8748291,0.05758667,0.23357844,0.9059806,1.29791,0.6298828,0.97021484,-1,-1,0.8484604,0.37100002,-0.33,0.688,-0.7269769,0,nan,nan,nan,0.0,0,3,0,0,1,23,0,0,0
94144637,0,33.644850500000004,-117.84206710000001,33.84,33.84,1710221003600000,8748291,0.077819824,0.32715958,0.9059806,1.3001653,0.6298828,0.97021484,-1,-1,0.8663262,0.41200003,-0.261,0.716,-0.56468487,0,nan,nan,nan,0.0,0,3,0,0,1,23,0,0,0
94341374,0,33.6448512,-117.84206780000001,33.64,33.64,1710221003800000,8748291,0.057128906,0.20950204,0.9019294,1.299038,0.6298828,0.97021484,-1,-1,1.303198,0.34500003,-0.39200002,1.194,-0.84908396,0,nan,nan,nan,0.0,0,3,0,0,1,23,0,0,0
94552337,0,33.6448521,-117.8420686,33.4,33.4,1710221004000000,8748291,0.07183838,0.16412772,0.9000326,1.299038,0.6298828,0.97021484,-1,-1,1.2861987,0.55700004,-0.35700002,1.103,-0.5699752,0,nan,nan,nan,0.0,0,3,0,0,1,23,0,0,0
94745281,0,33.6448528,-117.8420696,33.13,33.13,1710221004200000,8748291,0.0625,0.1815736,0.8989469,1.3001653,0.6298828,0.97021484,-1,-1,1.6199733,0.30200002,-0.503,1.5100001,-1.0300845,0,nan,nan,nan,0.0,0,3,0,0,1,23,0,0,0
94945503,0,33.6448533,-117.8420706,32.82,32.82,1710221004400000,8748291,0.06500244,0.2744827,0.89704376,1.3001653,0.6298828,0.97021484,-1,-1,1.4632902,0.287,-0.393,1.3800001,-0.940036,0,nan,nan,nan,0.0,0,3,0,0,1,23,0,0,0
95144512,0,33.6448538,-117.8420711,32.5,32.5,1710221004600000,8748291,0.06970215,0.8169401,0.89486384,1.299038,0.6298828,0.97021484,-1,-1,1.3080314,0.264,-0.125,1.2750001,-0.4422114,0,nan,nan,nan,0.0,0,3,0,0,1,23,0,0,0
95346877,0,33.6448539,-117.8420713,32.22,32.22,1710221004800000,8748291,0.06555176,6.983992,0.892952,1.29791,0.6298828,0.97021484,-1,-1,0.71856105,-0.019000001,0.095000006,0.712,1.7681918,0,nan,nan,nan,0.0,0,3,0,0,1,23,0,0,0
95552874,0,33.6448535,-117.842071,32.04,32.04,1710221005000000,8748291,0.06866455,0.812204,0.8910361,1.3009162,0.6298828,0.97021484,-1,-1,0.96389943,-0.246,0.155,0.919,2.5793476,0,nan,nan,nan,0.0,0,3,0,0,1,23,0,0,0
95745612,0,33.644852900000004,-117.8420708,31.79,31.79,1710221005200000,8748291,0.07397461,4.0018716,0.8838835,1.3001653,0.6298828,0.97021484,-1,-1,0.8252763,-0.12100001,0.062000003,0.814,2.668077,0,nan,nan,nan,0.0,0,3,0,0,1,23,0,0,0
95945692,0,33.6448525,-117.8420703,31.63,31.63,1710221005400000,8748291,0.06604004,0.68582386,0.876951,1.3009162,0.6298828,0.97021484,-1,-1,1.0394022,-0.11800001,0.287,0.99200004,1.9608775,0,nan,nan,nan,0.0,0,3,0,0,1,23,0,0,0
96142407,0,33.6448518,-117.8420696,31.3,31.3,1710221005600000,8748291,0.070739746,0.23135407,0.86996317,1.299038,0.6298828,0.97021484,-1,-1,1.659816,-0.39200002,0.39000002,1.565,2.358752,0,nan,nan,nan,0.0,0,3,0,0,1,23,0,0,0
96344538,0,33.6448514,-117.8420687,30.990000000000002,30.990000000000002,1710221005800000,8748291,0.07128906,0.25523,0.8679965,1.299038,0.6298828,0.97021484,-1,-1,1.3414925,0.023000002,0.528,1.233,1.5272633,0,nan,nan,nan,0.0,0,3,0,0,1,23,0,0,0
96551845,0,33.6448513,-117.84206780000001,30.73,30.73,1710221006000000,8748291,0.07342529,0.8695043,0.8679965,1.3001653,0.6298828,0.97021484,-1,-1,1.3174484,-0.066,0.28300002,1.2850001,1.7999165,0,nan,nan,nan,0.0,0,3,0,0,1,23,0,0,0
96744143,0,33.644851100000004,-117.84206710000001,30.490000000000002,30.490000000000002,1710221006200000,8748291,0.07128906,0.26798683,0.8679965,1.3039154,0.6298828,0.97021484,-1,-1,1.3976474,-0.24100001,0.45600003,1.299,2.05699,0,nan,nan,nan,0.0,0,3,0,0,1,23,0,0,0
96944641,0,33.644850500000004,-117.8420662,30.18,30.18,1710221006400000,8748291,0.068115234,0.2547306,0.8668707,1.3031663,0.6298828,0.97021484,-1,-1,1.4269903,-0.37600002,0.35500002,1.33,2.3849144,0,nan,nan,nan,0.0,0,3,0,0,1,23,0,0,0
97144675,0,33.64485,-117.8420657,29.98,29.98,1710221006600000,8748291,0.07183838,1.644275,0.8668707,1.3050383,0.6298828,0.97021484,-1,-1,0.8830935,-0.18300001,0.101,0.85800004,2.6372824,0,nan,nan,nan,0.0,0,3,0,0,1,23,0,0,0
97346109,0,33.644849900000004,-117.842066,29.830000000000002,29.830000000000002,1710221006800000,8748291,0.07897949,1.7000189,0.8679965,1.3039154,0.6298828,0.97021484,-1,-1,0.667744,0.033,-0.21300001,0.632,-1.4170887,0,nan,nan,nan,0.0,0,3,0,0,1,23,0,0,0
97554084,0,33.6448503,-117.84206640000001,29.69,29.69,1710221007000000,8748291,0.08062744,0.7117032,0.86996317,1.3050383,0.6298828,0.97021484,-1,-1,0.5250686,0.32200003,-0.098000005,0.40300003,-0.29544082,0,nan,nan,nan,0.0,0,3,0,0,1,23,0,0,0
97747535,0,33.6448509,-117.8420669,29.68,29.68,1710221007200000,8748291,0.08178711,0.53163403,0.87304467,1.3091475,0.6298828,0.97021484,-1,-1,0.6465578,0.20400001,-0.335,0.514,-1.0238181,0,nan,nan,nan,0.0,0,3,0,0,1,23,0,0,0
97943171,0,33.6448514,-117.84206760000001,29.54,29.54,1710221007400000,8748291,0.08526611,0.44696927,0.875,1.3139873,0.6298828,0.97021484,-1,-1,0.838702,0.294,-0.323,0.716,-0.8323652,0,nan,nan,nan,0.0,0,3,0,0,1,23,0,0,0
98144655,0,33.644852,-117.8420681,29.45,29.45,1710221007600000,8748291,0.07672119,0.5758249,0.876951,1.3158439,0.6298828,0.97021484,-1,-1,0.5778763,0.36100003,-0.054,0.448,-0.14848354,0,nan,nan,nan,0.0,0,3,0,0,1,23,0,0,0
98346009,0,33.6448526,-117.8420682,29.36,29.36,1710221007800000,8748291,0.070739746,0.71923614,0.87889755,1.3180685,0.6298828,0.97021484,-1,-1,0.35027134,0.305,-0.07300001,0.156,-0.23492488,0,nan,nan,nan,0.0,0,3,0,0,1,23,0,0,0
98556762,0,33.6448527,-117.84206830000001,29.18,29.18,1710221008000000,8748291,0.07672119,18.527212,0.881117,1.3221372,0.6298828,0.97021484,-1,-1,1.1218472,-0.054,-0.035,1.12,-2.5665205,0,nan,nan,nan,0.0,0,3,0,0,1,23,0,0,0
98746561,0,33.6448525,-117.8420682,28.98,28.98,1710221008200000,8748291,0.06762695,2.227135,0.880008,1.3210288,0.6298828,0.97021484,-1,-1,0.70003504,-0.142,0.101,0.67800003,2.5233445,0,nan,nan,nan,0.0,0,3,0,0,1,23,0,0,0
98946885,0,33.644852300000004,-117.8420679,28.810000000000002,28.810000000000002,1710221008400000,8748291,0.06970215,1.0539691,0.8819479,1.3228756,0.6298828,0.97021484,-1,-1,1.2644275,-0.13800001,0.21700001,1.238,2.1372273,0,nan,nan,nan,0.0,0,3,0,0,1,23,0,0,0
99148209,0,33.644852300000004,-117.8420679,28.7,28.7,1710221008600000,8748291,0.0625,2.5614753,0.8819479,1.3221372,0.6298828,0.97021484,-1,-1,0.18933834,0.120000005,-0.1,-0.10700001,-0.69473827,0,nan,nan,nan,0.0,0,3,0,0,1,23,0,0,0
99342730,0,33.6448525,-117.842068,28.67,28.67,1710221008800000,8748291,0.0881958,22.516153,0.88498765,1.3280331,0.6298828,0.97021484,-1,-1,0.73965263,-0.014,0.061000004,0.73700005,1.7963976,0,nan,nan,nan,0.0,0,3,0,0,1,23,0,0,0
99554208,0,33.6448528,-117.84206830000001,28.54,28.54,1710221009000000,8748291,0.055236816,0.23211765,0.88691664,1.3258252,0.6298828,0.97021484,-1,-1,0.53889704,0.37500003,-0.312,0.22900002,-0.69395083,0,nan,nan,nan,0.0,0,3,0,0,1,23,0,0,0
99745485,0,33.6448533,-117.84206900000001,28.42,28.42,1710221009200000,8748291,0.06866455,0.79204243,0.88691664,1.3221372,0.6298828,0.97021484,-1,-1,0.82811177,0.097,-0.27800003,0.77400005,-1.2350832,0,nan,nan,nan,0.0,0,3,0,0,1,23,0,0,0
99945717,0,33.6448535,-117.8420693,28.34,28.34,1710221009400000,8748291,0.06347656,3.1824205,0.888017,1.3250884,0.6298828,0.97021484,-1,-1,0.14417699,0.13900001,-0.025,-0.029000001,-0.17795356,0,nan,nan,nan,0.0,0,3,0,0,1,23,0,0,0
100146017,0,33.6448539,-117.8420697,28.28,28.28,1710221009600000,8748291,0.09857178,0.6612893,0.8899394,1.3298702,0.6298828,0.97021484,-1,-1,0.7482921,0.272,-0.27400002,0.64100003,-0.7890611,0,nan,nan,nan,0.0,0,3,0,0,1,23,0,0,0
100348217,0,33.6448544,-117.8420697,28.21,28.21,1710221009800000,8748291,0.05807495,0.37448135,0.8921314,1.3339028,0.6298828,0.97021484,-1,-1,0.40730458,0.316,0.23500001,0.104,0.63943815,0,nan,nan,nan,0.0,0,3,0,0,1,23,0,0,0
100552950,0,33.6448548,-117.8420694,28.07,28.07,1710221010000000,8748291,0.06915283,3.2851696,0.894045,1.3360974,0.6298828,0.97021484,-1,-1,0.87412477,0.14500001,-0.0050000004,0.86200005,-0.0344691,0,nan,nan,nan,0.0,0,3,0,0,1,23,0,0,0
100746546,0,33.6448549,-117.8420693,27.95,27.95,1710221010200000,8748291,0.07672119,21.164463,0.89595443,1.3401114,0.6298828,0.97021484,-1,-1,0.44806364,-0.012,0.059000004,0.44400004,1.7714492,0,nan,nan,nan,0.0,0,3,0,0,1,23,0,0,0
100946937,0,33.6448548,-117.8420692,27.8,27.8,1710221010400000,8748291,0.077819824,2.4172146,0.8981317,1.3441133,0.6298828,0.97021484,-1,-1,1.040586,-0.163,0.075,1.0250001,2.7103527,0,nan,nan,nan,0.0,0,3,0,0,1,23,0,0,0
101143809,0,33.6448545,-117.8420687,27.580000000000002,27.580000000000002,1710221010600000,8748291,0.07183838,0.6035367,0.9000326,1.3499132,0.6298828,0.97021484,-1,-1,0.96012765,-0.11000001,0.32700002,0.896,1.8952967,0,nan,nan,nan,0.0,0,3,0,0,1,23,0,0,0
101345231,0,33.6448545,-117.8420681,27.35,27.35,1710221010800000,8748291,0.07952881,1.4712299,0.90301144,1.3531647,0.6298828,0.97021484,-1,-1,1.2252612,0.134,0.19000001,1.2030001,0.9565468,0,nan,nan,nan,0.0,0,3,0,0,1,23,0,0,0
101553169,0,33.6448545,-117.84206760000001,27.1,27.1,1710221011000000,8748291,0.07287598,0.9144932,0.90409225,1.3560483,0.6298828,0.97021484,-1,-1,1.1676382,-0.133,0.24900001,1.133,2.0613787,0,nan,nan,nan,0.0,0,3,0,0,1,23,0,0,0
101745766,0,33.6448545,-117.8420672,26.87,26.87,1710221011200000,8748291,0.09362793,1.1675177,0.90490204,1.3600035,0.6298828,0.97021484,-1,-1,0.9149285,0.263,0.105000004,0.87000006,0.37985063,0,nan,nan,nan,0.0,0,3,0,0,1,23,0,0,0
101944948,0,33.6448547,-117.842067,26.72,26.72,1710221011400000,8748291,0.077819824,6.8113627,0.9059806,1.363947,0.6298828,0.97021484,-1,-1,0.73976284,-0.047000002,0.096,0.73200005,2.0260758,0,nan,nan,nan,0.0,0,3,0,0,1,23,0,0,0
102146045,0,33.6448546,-117.8420667,26.560000000000002,26.560000000000002,1710221011600000,8748291,0.068115234,2.342581,0.9059806,1.3660933,0.6298828,0.97021484,-1,-1,0.753547,-0.039,0.16600001,0.734,1.8015511,0,nan,nan,nan,0.0,0,3,0,0,1,23,0,0,0
102342906,0,33.6448545,-117.8420661,26.400000000000002,26.400000000000002,1710221011800000,8748291,0.060028076,0.49661696,0.90490204,1.3678793,0.6298828,0.97021484,-1,-1,1.0097415,-0.093,0.335,0.9480001,1.8415892,0,nan,nan,nan,0.0,0,3,0,0,1,23,0,0,0
102553275,0,33.6448544,-117.8420655,26.23,26.23,1710221012000000,8748291,0.06298828,1.1969271,0.90490204,1.3710881,0.6298828,0.97021484,-1,-1,0.62557894,0.080000006,0.215,0.582,1.2145767,0,nan,nan,nan,0.0,0,3,0,0,1,23,0,0,0
102747857,0,33.6448543,-117.842065,26.03,26.03,1710221012200000,8748291,0.06707764,1.228708,0.90490204,1.3739343,0.6298828,0.97021484,-1,-1,1.1656569,-0.14400001,0.18400002,1.1420001,2.2348425,0,nan,nan,nan,0.0,0,3,0,0,1,23,0,0,0
102963973,0,33.644854,-117.8420646,26.01,26.01,1710221012400000,8748291,0.070251465,0.6358,0.90409225,1.3728677,0.58984375,0.97021484,-1,-1,0.83593184,-0.19800001,0.26700002,-0.767,2.2088823,0,nan,nan,nan,0.0,0,3,0,0,1,26,0,0,0
103148387,0,33.6448537,-117.8420641,26.04,26.04,1710221012600000,8748291,0.05807495,0.4827831,0.9019294,1.3671652,0.58984375,0.97021484,-1,-1,0.60769486,-0.256,0.23400001,0.499,2.4010625,0,nan,nan,nan,0.0,0,3,0,0,1,26,0,0,0
103348728,0,33.6448531,-117.8420634,25.92,25.92,1710221012800000,8748291,0.05758667,0.74116015,0.8921314,1.3671652,0.58984375,0.97021484,-1,-1,0.55420125,-0.15300001,0.23300001,0.47900003,2.151834,0,nan,nan,nan,0.0,0,3,0,0,1,26,0,0,0
103554512,0,33.6448527,-117.842063,25.73,25.73,1710221013000000,8748291,0.06707764,0.9348929,0.8921314,1.3710881,0.58984375,0.97021484,-1,-1,0.91986364,-0.25500003,0.082,0.88000005,2.8304675,0,nan,nan,nan,0.0,0,3,0,0,1,26,0,0,0
103748023,0,33.6448525,-117.842063,25.64,25.64,1710221013200000,8748291,0.08062744,89.0911,0.8910361,1.3760649,0.58984375,0.97021484,-1,-1,0.38617355,0.011000001,-0.028,0.38500002,-1.1964626,0,nan,nan,nan,0.0,0,3,0,0,1,26,0,0,0
103964021,0,33.6448525,-117.8420631,25.5,25.5,1710221013400000,8748291,0.06866455,2.8200152,0.8921314,1.377838,0.58984375,0.97021484,-1,-1,0.8651878,0.018000001,-0.155,0.851,-1.4551852,0,nan,nan,nan,0.0,0,3,0,0,1,26,0,0,0
104144051,0,33.6448527,-117.8420636,25.330000000000002,25.330000000000002,1710221013600000,8748291,0.083496094,0.7118773,0.8921314,1.382084,0.58984375,0.97021484,-1,-1,0.77480006,0.13900001,-0.31300002,0.69500005,-1.1528685,0,nan,nan,nan,0.0,0,3,0,0,1,26,0,0,0
104347464,0,33.6448527,-117.8420639,25.14,25.14,1710221013800000,8748291,0.077819824,7.728653,0.892952,1.3859648,0.58984375,0.97021484,-1,-1,0.99308264,-0.087000005,0.05,0.98800004,2.6199744,0,nan,nan,nan,0.0,0,3,0,0,1,26,0,0,0
104558027,0,33.6448528,-117.84206400000001,24.98,24.98,1710221014000000,8748291,0.070739746,2.7821815,0.892952,1.3870213,0.58984375,0.97021484,-1,-1,0.81475586,0.09900001,-0.125,0.799,-0.90095246,0,nan,nan,nan,0.0,0,3,0,0,1,26,0,0,0
104748020,0,33.644852900000004,-117.8420642,24.89,24.89,1710221014200000,8748291,0.07897949,7.9576306,0.894045,1.3908883,0.58984375,0.97021484,-1,-1,0.7873284,-0.081,-0.058000002,0.781,-2.5201764,0,nan,nan,nan,0.0,0,3,0,0,1,26,0,0,0
104960704,0,33.644853,-117.8420643,24.68,24.68,1710221014400000,8748291,0.0625,0.7371934,0.89486384,1.3898348,0.58984375,0.97021484,-1,-1,0.6904035,0.291,0.010000001,0.62600005,0.03435074,0,nan,nan,nan,0.0,0,3,0,0,1,26,0,0,0
105148650,0,33.6448534,-117.8420641,24.52,24.52,1710221014600000,8748291,0.07952881,3.331468,0.89486384,1.3950946,0.58984375,0.97021484,-1,-1,0.74714994,0.056,0.14400001,0.731,1.199905,0,nan,nan,nan,0.0,0,3,0,0,1,26,0,0,0
105350115,0,33.6448535,-117.8420639,24.41,24.41,1710221014800000,8748291,0.077819824,255.14694,0.89595443,1.3961443,0.58984375,0.97021484,-1,-1,0.44734105,0.007,0.016,0.44700003,1.1583859,0,nan,nan,nan,0.0,0,3,0,0,1,26,0,0,0
105556939,0,33.6448534,-117.8420637,24.28,24.28,1710221015000000,8748291,0.07672119,1.1506913,0.89704376,1.401032,0.58984375,0.97021484,-1,-1,0.9690356,-0.143,0.215,0.934,2.1577249,0,nan,nan,nan,0.0,0,3,0,0,1,26,0,0,0
105751484,0,33.6448531,-117.8420632,24.150000000000002,24.150000000000002,1710221015200000,8748291,0.06604004,0.48538497,0.89704376,1.4041651,0.58984375,0.97021484,-1,-1,0.81254727,-0.29900002,0.216,0.72400004,2.5159855,0,nan,nan,nan,0.0,0,3,0,0,1,26,0,0,0
105954054,0,33.6448528,-117.84206280000001,23.97,23.97,1710221015400000,8748291,0.078430176,2.8183908,0.89704376,1.4069443,0.58984375,0.97021484,-1,-1,1.038486,-0.102000006,0.132,1.0250001,2.228685,0,nan,nan,nan,0.0,0,3,0,0,1,26,0,0,0
106147583,0,33.6448528,-117.8420627,23.87,23.87,1710221015600000,8748291,0.05758667,2.0910192,0.8981317,1.4090251,0.58984375,0.97021484,-1,-1,0.17420965,0.162,-0.036000002,-0.053000003,-0.21866897,0,nan,nan,nan,0.0,0,3,0,0,1,26,0,0,0
106346888,0,33.6448532,-117.8420633,23.91,23.91,1710221015800000,8748291,0.051971436,0.23495114,0.9000326,1.4128318,0.58984375,0.97021484,-1,-1,0.5039465,0.14,-0.44900003,0.18100001,-1.2685456,0,nan,nan,nan,0.0,0,3,0,0,1,26,0,0,0
106555310,0,33.6448535,-117.8420641,23.84,23.84,1710221016000000,8748291,0.097351074,0.89119124,0.9011169,1.417662,0.58984375,0.97021484,-1,-1,0.45519888,0.17400001,-0.28100002,0.31300002,-1.0163664,0,nan,nan,nan,0.0,0,3,0,0,1,26,0,0,0
106748288,0,33.6448538,-117.8420648,23.73,23.73,1710221016200000,8748291,0.09674072,0.4178341,0.90409225,1.4231622,0.58984375,0.97021484,-1,-1,0.8208252,0.165,-0.45200002,0.665,-1.2207824,0,nan,nan,nan,0.0,0,3,0,0,1,26,0,0,0
106963240,0,33.6448542,-117.8420654,23.76,23.76,1710221016400000,8748291,0.08526611,2.9368684,0.90409225,1.4259043,0.58984375,0.97021484,-1,-1,0.21615273,0.15200001,-0.07700001,0.133,-0.46889693,0,nan,nan,nan,0.0,0,3,0,0,1,26,0,0,0
107146454,0,33.6448545,-117.8420655,23.47,23.47,1710221016600000,8748291,0.097961426,4.2820916,0.9059806,1.4340992,0.58984375,0.97021484,-1,-1,2.6183722,0.149,-0.026,2.614,-0.17275724,0,nan,nan,nan,0.0,0,3,0,0,1,26,0,0,0
107344529,0,33.6448547,-117.8420658,22.77,22.77,1710221016800000,8748291,0.113586426,2.3169081,0.9081338,1.4340992,0.58984375,0.97021484,-1,-1,4.526419,0.044000003,-0.21700001,4.5210004,-1.3707435,0,nan,nan,nan,0.0,0,3,0,0,1,26,0,0,0
107550424,0,33.6448545,-117.8420679,22.04,22.04,1710221017000000,8748291,0.24304199,0.07931299,0.9150969,1.4422476,0.58984375,0.97021484,-1,-1,2.8848207,-0.254,-1.7320001,2.2930002,-1.7164096,0,nan,nan,nan,0.0,0,3,0,0,1,26,0,0,0
107736201,0,33.6448538,-117.8420698,21.75,21.75,1710221017200000,8748291,0.45825195,1.5530751,0.9299173,1.4617519,0.60009766,0.97021484,-1,-1,0.7968375,-0.53000003,-0.119,0.583,-2.9207273,0,nan,nan,nan,0.0,0,3,0,0,1,25,0,0,0
