timestamp,timestamp_sample,yaw_composite,yaw_variance,yaw[0],yaw[1],yaw[2],yaw[3],yaw[4],innov_vn[0],innov_vn[1],innov_vn[2],innov_vn[3],innov_vn[4],innov_ve[0],innov_ve[1],innov_ve[2],innov_ve[3],innov_ve[4],weight[0],weight[1],weight[2],weight[3],weight[4],yaw_composite_valid
81369762,81269194,-0.03896837,3.465818,-2.5052588,-1.2447495,-0.00031346935,1.2449441,2.5065796,-0.02586938,-0.0038148826,0.00697109,-0.008222339,-0.028844886,-0.06709151,-0.07111226,-0.051612895,-0.035053305,-0.04459759,0.19502302,0.2021662,0.20636757,0.20170106,0.19474214,0
82373369,82269069,0.59450114,3.7112458,-2.5127044,-1.2330133,0.0132808,1.2410375,2.489412,-0.03229391,-0.03811809,-0.016970687,0.0018272419,-0.0070267883,0.018938068,-0.0056168903,-0.018390745,-0.0027396353,0.020453164,0.18736762,0.19634077,0.21060322,0.21011178,0.19557668,0
83373586,83269068,0.6742124,3.550951,-2.5146751,-1.2143192,0.02753424,1.2330002,2.4707584,-0.016728068,-0.029127905,-0.025397254,-0.011696922,-0.0057952013,-0.007584509,-0.0155013,-0.029105395,-0.030230414,-0.017424867,0.17755118,0.19163373,0.21794344,0.21926503,0.1936065,0
84369645,84269194,0.94358814,3.2399073,-2.5296705,-1.2088518,0.045965627,1.2406071,2.4580247,-0.010264959,-0.03190578,-0.033066858,-0.014077246,0.0003290046,0.063382484,0.058205437,0.036871426,0.02886138,0.044106565,0.17274396,0.18255912,0.21690628,0.22836629,0.19942433,0
85369621,85269194,0.7737936,3.3334851,-2.519818,-1.1999097,0.042944286,1.231299,2.4558563,0.011051552,-0.0033824388,-0.029027432,-0.031357594,-0.008142043,-0.040070586,-0.016161334,-0.022997033,-0.04825508,-0.05979024,0.16993874,0.18581127,0.2222874,0.2279324,0.19403023,0
86369913,86269286,-0.40584832,1.399947,-2.1950848,-1.0008136,-0.09550014,0.9510734,2.4549336,0.1883865,0.06404218,0.059753537,0.16905665,0.2643242,0.11007577,0.067968056,-0.051673323,-0.10465936,-0.00860662,0.095501915,0.3234302,0.38562632,0.14741096,0.04803054,0
87369642,87269252,-0.53605,0.5258479,-1.8694652,-0.89027745,-0.21655054,0.7084541,2.5065718,-0.16028208,-0.08764466,-0.070878334,-0.109211706,-0.21328473,0.024596762,0.051300947,0.10419361,0.16290158,0.12917149,0.047842562,0.4403343,0.4502394,0.056984477,0.0045992606,0
88369628,88269230,-0.52078176,0.18318954,-1.4144709,-0.74289066,-0.35798076,0.2436961,2.3217332,-0.2186748,-0.13320485,-0.093456306,-0.07737113,-0.26964286,-0.01506526,0.0022973344,0.04028776,0.12105873,0.2010394,0.006418304,0.42432326,0.5495844,0.019668687,5.4203524e-06,0
89373325,89269087,-1.0182787,0.053691957,-1.203631,-1.0565267,-0.9302963,-0.60335696,2.70017,-0.12621546,-0.1462515,-0.16533604,-0.21570706,-0.23186079,0.17210561,0.18710198,0.1941067,0.20419316,-0.10854474,0.01225414,0.6904753,0.29714686,0.00011856874,5.164644e-06,1
90373301,90269193,-0.7992577,0.038602795,-0.93765634,-0.8307913,-0.7482476,-0.52949166,2.6131637,0.14053021,0.1241417,0.11099766,0.08562879,0.48460868,0.11008483,0.08966875,0.0759013,0.03070563,-0.121098444,0.0047365623,0.5772445,0.41760927,0.0004074321,2.2057561e-06,1
91369666,91269193,-0.6837308,0.033953514,-0.8190274,-0.7199477,-0.64836305,-0.455261,2.4615,-0.074239165,-0.06377478,-0.0527979,-0.020941852,0.2645983,0.21391542,0.19305024,0.18150954,0.15156661,0.47395754,0.0027107946,0.5096095,0.48675442,0.00092204363,3.2499622e-06,1
92369586,92269072,-0.6591342,0.030894354,-0.78090036,-0.68984276,-0.62419146,-0.44743508,2.4647222,0.22983532,0.22531158,0.2207527,0.20916769,0.16703585,-0.052657314,-0.049686536,-0.048242487,-0.045211785,-0.17946655,0.0024746854,0.50282115,0.49374825,0.00095137575,4.542765e-06,1
93369584,93269434,-0.6403783,0.029107248,-0.7403995,-0.6480655,-0.5836101,-0.40960795,2.4166481,0.07743552,0.076606974,0.07558465,0.07228498,-0.004828185,0.048880316,0.052653782,0.05471938,0.06058476,0.022816006,0.0021263997,0.4805883,0.51604617,0.0012358624,3.3001834e-06,1
94369601,94269275,-0.54394025,0.026009444,-0.64950603,-0.5715694,-0.51917905,-0.3757344,2.3422365,0.014695436,0.012949735,0.0110581815,0.0063765347,-0.019561082,0.16899669,0.16990638,0.17034005,0.1712325,0.10804352,0.0016880131,0.4468216,0.5498629,0.001624809,2.642645e-06,1
95369655,95269236,-0.5911187,0.02337094,-0.66931975,-0.6222637,-0.58047897,-0.4712006,2.294233,0.24009445,0.23242545,0.22398177,0.20500153,0.3450215,-0.18089566,-0.18693863,-0.19037877,-0.2023319,-0.48848656,0.0017072011,0.44378036,0.5530183,0.0014835288,1.0628679e-05,1
96369611,96269068,-0.5853579,0.020788696,-0.64689463,-0.60967153,-0.5741778,-0.4824194,2.2334218,-0.15703893,-0.15676096,-0.1567309,-0.15793958,-0.4554991,-0.2032493,-0.19414815,-0.18992922,-0.17614284,-0.18270668,0.0015700675,0.43516502,0.5617057,0.0015535533,5.6483195e-06,1
97373778,97269193,-0.6242052,0.017049579,-0.67167413,-0.6421169,-0.61547434,-0.5449016,2.1824977,-0.15468737,-0.14698619,-0.13680306,-0.11408745,-0.29088214,0.17972112,0.18718913,0.1905544,0.20291117,0.6869715,0.0016980908,0.44367555,0.55336326,0.0012580312,5.0973754e-06,1
98373693,98269068,-0.64186335,0.014882695,-0.6506961,-0.6116771,-0.5878732,-0.5192225,1.9372905,0.15689656,0.15899462,0.16238225,0.16934201,-0.060862705,-0.15833601,-0.15182728,-0.14957201,-0.1406726,0.07545124,0.0013823989,0.43247154,0.5646069,0.0015169764,2.2306724e-05,1
99369661,99269194,-0.65044403,0.014042898,-0.68607014,-0.66460276,-0.64355445,-0.5884704,1.9689764,0.10594384,0.106666856,0.10793958,0.11053865,0.020723162,-0.09942967,-0.096934125,-0.09613969,-0.092863016,-0.0033299625,0.0013400877,0.41703743,0.5799221,0.0016971711,3.170893e-06,1
100369639,100269193,-0.6267769,0.013382731,-0.69882804,-0.6797962,-0.660885,-0.6113562,1.8755292,0.005487889,0.004760802,0.003263712,-0.00030219555,-0.20173055,-0.3830483,-0.37986028,-0.37891006,-0.37503183,-0.4460681,0.0012632144,0.41148835,0.58539444,0.0018144756,3.9472125e-05,1
101369607,101269483,-0.5394964,0.012842412,-0.58078694,-0.54792696,-0.5298371,-0.47505957,1.7572594,-0.20830533,-0.2077317,-0.20654018,-0.20402461,-0.22044504,-0.0019035488,-0.0008984655,-0.0006132275,0.00068734586,0.08280344,0.0011972744,0.41108727,0.58583,0.0018816575,3.8831004e-06,1
102369687,102269307,-0.6301936,0.012087949,-0.66833735,-0.65231705,-0.6341731,-0.5879742,1.8674706,0.13804702,0.13794523,0.13766336,0.13689393,0.026270002,-0.16770063,-0.16583832,-0.16533998,-0.16313133,-0.16514982,0.0012052687,0.4229777,0.57410735,0.0016960413,1.3689651e-05,1
103369794,103269069,-0.6516156,0.011167523,-0.67284185,-0.657793,-0.64009625,-0.59533197,1.8260298,0.04327877,0.044656694,0.047953412,0.054692745,-0.059312284,-0.09215897,-0.088104025,-0.08699538,-0.08194342,0.1620912,0.0011042324,0.42626375,0.5708945,0.0017355474,2.0365735e-06,1
104369601,104269068,-0.60340583,0.01051695,-0.6364761,-0.6089332,-0.5925526,-0.5443117,1.5467203,0.27506933,0.27510005,0.27511382,0.27489445,0.08794102,-0.2515654,-0.2483499,-0.2476397,-0.24406438,-0.20580828,0.0010894021,0.42621735,0.57094175,0.0017171605,3.422218e-05,1
105373386,105269069,-0.6936543,0.009910772,-0.71697986,-0.7035156,-0.6891432,-0.6516694,1.6974728,0.28566158,0.28718716,0.2914666,0.30004033,0.09523157,-0.059990704,-0.053562753,-0.052180283,-0.044924144,0.3127848,0.0011080289,0.44086352,0.55650187,0.0015163728,1.023505e-05,1
106373655,106269096,-0.74938756,0.009010218,-0.7548923,-0.74283105,-0.7313532,-0.7003591,1.5680938,0.13557221,0.13784142,0.14509995,0.15974627,-0.0031018853,0.25062054,0.2587478,0.26027945,0.26910454,0.8645911,0.0011895705,0.44177192,0.5556353,0.0013933734,9.921165e-06,1
107369602,107269234,-0.9172349,0.010885037,-0.9717663,-0.9539913,-0.9333271,-0.88334423,1.2103235,0.11979395,0.119772345,0.11972079,0.119584695,0.09766285,0.13073045,0.13103044,0.13107885,0.13138029,0.1342229,0.0011240104,0.44969288,0.5473524,0.0013615168,0.00046926076,1
