timestamp,timestamp_sample,ref_timestamp,ref_lat,ref_lon,x,y,z,delta_xy[0],delta_xy[1],delta_z,vx,vy,vz,z_deriv,delta_vxy[0],delta_vxy[1],delta_vz,ax,ay,az,heading,heading_var,unaided_heading,delta_heading,tilt_var,ref_alt,dist_bottom,eph,epv,evh,evv,vxy_max,vz_max,hagl_min,hagl_max,xy_valid,z_valid,v_xy_valid,v_z_valid,xy_reset_counter,z_reset_counter,vxy_reset_counter,vz_reset_counter,heading_reset_counter,heading_good_for_control,xy_global,z_global,dist_bottom_valid,dist_bottom_sensor_bitfield,dead_reckoning
80398327,80397176,39031707,33.6448666,-117.84206859999999,-1.2118615,0.20691025,1.88652,0.00027775922,0.0006502995,-0.5318836,-0.0091728065,0.001307656,0.05476943,0.05019516,0.03809273,0.04054226,0.00063033146,-3.8075342,1.4266135,0.66076237,-0.14066505,0.021339353,0.0015436353,0.0026167333,0.00015628965,26.391214,0.09418249,0.33212298,0.25372583,0.13747495,0.07315852,inf,inf,inf,inf,1,1,1,1,2,2,2,2,3,0,1,1,1,0,0
80408733,80407884,39031707,33.6448666,-117.84206859999999,-1.2120512,0.20704333,1.8870593,0.00027775922,0.0006502995,-0.5318836,-0.010760053,-0.009347996,0.0520857,0.04754193,0.03809273,0.04054226,0.00063033146,-3.197547,-0.5568286,-0.055509243,-0.14064719,0.021340074,0.0015682394,0.0026167333,0.00015637345,26.391214,0.094175935,0.33297786,0.25422767,0.1379441,0.073263474,inf,inf,inf,inf,1,1,1,1,2,2,2,2,3,0,1,1,1,0,0
80599938,80598503,39031707,33.6448666,-117.84206859999999,-1.2150452,0.2088393,1.8957474,0.00027775922,0.0006502995,-0.5318836,0.009945709,0.0019459048,0.051046997,0.046270862,0.03809273,0.04054226,0.00063033146,2.0902257,-0.6618815,-0.3758964,-0.14010696,0.02135293,0.00219558,0.0026167333,0.00015627051,26.391214,0.09748864,0.332149,0.25357005,0.13742323,0.073134124,inf,inf,inf,inf,1,1,1,1,2,2,2,2,3,0,1,1,1,0,0
80694720,80693849,39031707,33.6448666,-117.84206859999999,-1.216782,0.20919934,1.9016429,0.00027775922,0.0006502995,-0.5318836,-0.0082903,0.005132759,0.055622432,0.052254405,0.03809273,0.04054226,0.00063033146,-1.895894,2.2818975,1.0412669,-0.1409413,0.021359447,0.0013687443,0.0026167333,0.00015703481,26.391214,0.096258044,0.34008086,0.25680226,0.14176327,0.073918104,inf,inf,inf,inf,1,1,1,1,2,2,2,2,3,0,1,1,1,0,0
80800595,80799770,39031707,33.6448666,-117.84206859999999,-1.2178581,0.2089436,1.9070983,0.00027775922,0.0006502995,-0.5318836,0.0029171447,0.0048382,0.052582428,0.049598105,0.03809273,0.04054226,0.00063033146,0.053086072,1.3337512,0.22935496,-0.13970259,0.021366628,0.0025952668,0.0026167333,0.00015627495,26.391214,0.09550142,0.3322446,0.25344402,0.13745071,0.07312319,inf,inf,inf,inf,1,1,1,1,2,2,2,2,3,0,1,1,1,0,0
80896021,80895150,39031707,33.6448666,-117.84206859999999,-1.2183368,0.20829096,1.9116509,0.00027775922,0.0006502995,-0.5318836,0.012763855,-0.0032819654,0.052142996,0.04914157,0.03809273,0.04054226,0.00063033146,4.7805667,-1.8432375,-1.1478006,-0.13978519,0.021373121,0.002491534,0.0026167333,0.00015703891,26.391214,0.09331083,0.34017473,0.2566726,0.14179161,0.07390542,inf,inf,inf,inf,1,1,1,1,2,2,2,2,3,0,1,1,1,0,0
81001904,81001099,39031707,33.6448666,-117.84206859999999,-1.2190301,0.20754054,1.9159038,0.00027775922,0.0006502995,-0.5318836,0.01835158,-0.008105374,0.046641607,0.042914998,0.03809273,0.04054226,0.00063033146,1.3441485,-1.1559311,-0.6558804,-0.14039026,0.021375151,0.0018567245,0.0026167333,0.00015629803,26.391214,0.093114376,0.33241805,0.25333852,0.13755144,0.07312239,inf,inf,inf,inf,1,1,1,1,2,2,2,2,3,0,1,1,1,0,0
81097211,81096395,39031707,33.6448666,-117.84206859999999,-1.2195772,0.20695473,1.9185739,0.00027775922,0.0006502995,-0.5318836,-0.004816651,0.007237903,0.05249006,0.04713735,0.03809273,0.04054226,0.00063033146,-2.7796435,1.9361725,0.53915036,-0.14020222,0.021381682,0.002014192,0.0026167333,0.00015706319,26.391214,0.09044433,0.34036484,0.25657338,0.1418908,0.07390562,inf,inf,inf,inf,1,1,1,1,2,2,2,2,3,0,1,1,1,0,0
81192650,81191831,39031707,33.6448666,-117.84206859999999,-1.2224131,0.20648503,1.9222217,0.00027775922,0.0006502995,-0.5318836,0.01875409,0.0063205333,0.052678194,0.04690118,0.03809273,0.04054226,0.00063033146,2.2653053,0.8429323,0.5820972,-0.14015946,0.02138803,0.0020518573,0.0026167333,0.00015622794,26.391214,0.0960021,0.33169964,0.2527223,0.1371885,0.0730126,inf,inf,inf,inf,1,1,1,1,2,2,2,2,3,0,1,1,1,0,0
81298469,81297694,39031707,33.6448666,-117.84206859999999,-1.2265124,0.20639727,1.9270948,0.00027775922,0.0006502995,-0.5318836,0.022301741,-0.004239546,0.04826173,0.04282517,0.03809273,0.04054226,0.00063033146,4.798186,-2.4801416,-0.61194396,-0.138847,0.021395346,0.003386477,0.0026167333,0.00015707794,26.391214,0.093691945,0.34051046,0.25646263,0.1419731,0.07390191,inf,inf,inf,inf,1,1,1,1,2,2,2,2,3,0,1,1,1,0,0
81393841,81393079,39031707,33.6448666,-117.84206859999999,-1.2311621,0.20783718,1.9319253,0.00027775922,0.0006502995,-0.5318836,-0.0038910694,0.011399697,0.05129687,0.046545457,0.03809273,0.04054226,0.00063033146,-0.12519239,3.0605702,0.4261054,-0.14010474,0.021401646,0.0021238376,0.0026167333,0.00015623894,26.391214,0.09724021,0.33184683,0.25261253,0.13724545,0.07300803,inf,inf,inf,inf,1,1,1,1,2,2,2,2,3,0,1,1,1,0,0
81500180,81499036,39031707,33.6448666,-117.84206859999999,-1.2365888,0.21047896,1.936722,0.00027775922,0.0006502995,-0.5318836,0.00068222266,0.021762295,0.05333617,0.04862587,0.03809273,0.04054226,0.00063033146,2.704029,1.8070564,-0.19292027,-0.13886248,0.021408996,0.0033239583,0.0026167333,0.00015708868,26.391214,0.09313512,0.34066194,0.25635287,0.14207153,0.07389613,inf,inf,inf,inf,1,1,1,1,2,2,2,2,3,0,1,1,1,0,0
81595132,81594334,39031707,33.6448666,-117.84206859999999,-1.240862,0.21089283,1.9411373,0.00027775922,0.0006502995,-0.5318836,-0.01744484,-0.0048648673,0.047861315,0.043338865,0.03809273,0.04054226,0.00063033146,-5.043739,-2.0976474,-0.18392593,-0.13914889,0.021413589,0.0029856695,0.0026167333,0.00015625413,26.391214,0.09630084,0.33198372,0.25252178,0.13732146,0.07300456,inf,inf,inf,inf,1,1,1,1,2,2,2,2,3,0,1,1,1,0,0
81701367,81700319,39031707,33.6448666,-117.84206859999999,-1.2448761,0.21005733,1.9451427,0.00027775922,0.0006502995,-0.5318836,-0.00538501,0.00087136053,0.04958622,0.0444669,0.03809273,0.04054226,0.00063033146,-0.6784909,-0.92865163,0.42729902,-0.14016926,0.021420984,0.0018960757,0.0026167333,0.00015710366,26.391214,0.092778444,0.34080246,0.25626236,0.14218983,0.073891856,inf,inf,inf,inf,1,1,1,1,2,2,2,2,3,0,1,1,1,0,0
81796460,81795635,39031707,33.6448666,-117.84206859999999,-1.249283,0.2093512,1.9493169,0.00027775922,0.0006502995,-0.5318836,0.014296259,0.006626148,0.048629537,0.043661267,0.03809273,0.04054226,0.00063033146,3.2123065,-1.5185249,-0.28127706,-0.139083,0.021427484,0.0029497507,0.0026167333,0.00015626094,26.391214,0.09762585,0.3321228,0.25244617,0.13737306,0.07300075,inf,inf,inf,inf,1,1,1,1,2,2,2,2,3,0,1,1,1,0,0
81902706,81901610,39031707,33.6448666,-117.84206859999999,-1.254326,0.20866686,1.9538839,0.00027775922,0.0006502995,-0.5318836,0.01881668,0.0074546854,0.04606451,0.041100416,0.03809273,0.04054226,0.00063033146,2.7233222,-5.567308,-1.4397733,-0.13922708,0.021434916,0.0027981126,0.0026167333,0.00015711147,26.391214,0.09369922,0.34095356,0.25619197,0.14219293,0.07388893,inf,inf,inf,inf,1,1,1,1,2,2,2,2,3,0,1,1,1,0,0
81997726,81996940,39031707,33.6448666,-117.84206859999999,-1.258255,0.2072014,1.9589887,0.00027775922,0.0006502995,-0.5318836,-0.0058135684,0.021405281,0.051467843,0.04758266,0.03809273,0.04054226,0.00063033146,0.6204562,4.0804863,0.57715654,-0.13837536,0.021439305,0.00366282,0.0026167333,0.00015629275,26.391214,0.09859133,0.33232352,0.25241065,0.13751079,0.073009714,inf,inf,inf,inf,1,1,1,1,2,2,2,2,3,0,1,1,1,0,0
82093105,82092241,39031707,33.6448666,-117.84206859999999,-1.261204,0.2058403,1.9638332,0.00027775922,0.0006502995,-0.5318836,-0.014250054,-0.0071239606,0.051290344,0.04806547,0.03809273,0.04054226,0.00063033146,-3.5497859,0.86469144,1.0374079,-0.13844277,0.021446068,0.0036179386,0.0026167333,0.00015705932,26.391214,0.095264554,0.34026074,0.2556442,0.14187922,0.0737919,inf,inf,inf,inf,1,1,1,1,2,2,2,2,3,0,1,1,1,0,0
82199054,82198225,39031707,33.6448666,-117.84206859999999,-1.2657593,0.20477055,1.9699601,0.00027775922,0.0006502995,-0.5318836,-0.014269097,-0.0028480508,0.048922077,0.047030497,0.03809273,0.04054226,0.00063033146,-3.990842,1.2620883,0.74722624,-0.14000653,0.021451768,0.002080881,0.0026167333,0.00015631306,26.391214,0.099842906,0.33252636,0.2523899,0.13762614,0.073017456,inf,inf,inf,inf,1,1,1,1,2,2,2,2,3,0,1,1,1,0,0
82294490,82293581,39031707,33.6448666,-117.84206859999999,-1.2698903,0.20419174,1.9750688,0.00027775922,0.0006502995,-0.5318836,-0.008868701,-0.0013664517,0.04996127,0.04864043,0.03809273,0.04054226,0.00063033146,-1.5745978,-0.3652144,0.33863798,-0.13946477,0.021458568,0.0026483885,0.0026167333,0.00015707914,26.391214,0.09586239,0.34047106,0.25562388,0.14196332,0.07379884,inf,inf,inf,inf,1,1,1,1,2,2,2,2,3,0,1,1,1,0,0
82400314,82399514,39031707,33.6448666,-117.84206859999999,-1.2743603,0.20338634,1.9804499,0.00027775922,0.0006502995,-0.5318836,-0.012217658,0.0021362007,0.052925404,0.05183409,0.03809273,0.04054226,0.00063033146,-1.8849779,0.18161152,1.0067964,-0.13960895,0.021465976,0.00251591,0.0026167333,0.00015631295,26.391214,0.097165585,0.33266982,0.25236145,0.13763373,0.07301438,inf,inf,inf,inf,1,1,1,1,2,2,2,2,3,0,1,1,1,0,0
82495684,82494846,39031707,33.6448666,-117.84206859999999,-1.2782348,0.20261216,1.9852042,0.00027775922,0.0006502995,-0.5318836,0.013680773,0.0011860803,0.046511423,0.045482304,0.03809273,0.04054226,0.00063033146,5.4978566,-0.286007,-1.180867,-0.13914603,0.0214728,0.0029772024,0.0026167333,0.00015707815,26.391214,0.09495783,0.3406127,0.25627288,0.14196442,0.07387902,inf,inf,inf,inf,1,1,1,1,2,2,2,2,3,0,1,1,1,0,0
82601567,82600794,39031707,33.6448666,-117.84206859999999,-1.2827597,0.2019743,1.9908803,0.00027775922,0.0006502995,-0.5318836,-7.524096e-05,0.0020491881,0.049593896,0.049029034,0.03809273,0.04054226,0.00063033146,0.20945233,0.32305264,0.08748338,-0.14002709,0.02148016,0.0020921386,0.0026167333,0.0001563144,26.391214,0.09814,0.33281386,0.2523486,0.137673,0.07301104,inf,inf,inf,inf,1,1,1,1,2,2,2,2,3,0,1,1,1,0,0
82696936,82696123,39031707,33.6448666,-117.84206859999999,-1.286829,0.2015742,1.995847,0.00027775922,0.0006502995,-0.5318836,-0.012645148,0.003950067,0.051183138,0.050843004,0.03809273,0.04054226,0.00063033146,-1.5715402,0.61208135,0.17204536,-0.13987957,0.021487016,0.0022398147,0.0026167333,0.00015707992,26.391214,0.09450555,0.34076098,0.25626236,0.14199343,0.073875874,inf,inf,inf,inf,1,1,1,1,2,2,2,2,3,0,1,1,1,0,0
82792330,82791482,39031707,33.6448666,-117.84206859999999,-1.292763,0.20115933,2.0008886,0.00027775922,0.0006502995,-0.5318836,-0.0043807235,-0.0010135027,0.048483435,0.048493844,0.03809273,0.04054226,0.00063033146,3.2755952,0.5460295,0.2631178,-0.13989495,0.021493845,0.0022293187,0.0026167333,0.00015624755,26.391214,0.0980382,0.33215973,0.25252017,0.13727449,0.07299412,inf,inf,inf,inf,1,1,1,1,2,2,2,2,3,0,1,1,1,0,0
82898237,82897428,39031707,33.6448666,-117.84206859999999,-1.300176,0.20077842,2.0058572,0.00027775922,0.0006502995,-0.5318836,-0.0006705238,0.004154896,0.04956458,0.049259413,0.03809273,0.04054226,0.00063033146,4.58916,-0.0827266,-0.46795377,-0.13965173,0.02150147,0.0024806277,0.0026167333,0.00015709767,26.391214,0.09355903,0.3409695,0.25628525,0.14208671,0.07388357,inf,inf,inf,inf,1,1,1,1,2,2,2,2,3,0,1,1,1,0,0
82993588,82992806,39031707,33.6448666,-117.84206859999999,-1.3052589,0.20125253,2.0119035,0.00027775922,0.0006502995,-0.5318836,-0.032923676,-0.00093697914,0.053337723,0.054388653,0.03809273,0.04054226,0.00063033146,-3.3807862,0.34535167,0.5192303,-0.13989519,0.02150542,0.0022619653,0.0026167333,0.00015626164,26.391214,0.1026876,0.33235788,0.2525468,0.13734473,0.073000304,inf,inf,inf,inf,1,1,1,1,2,2,2,2,3,0,1,1,1,0,0
83099855,83098760,39031707,33.6448666,-117.84206859999999,-1.3094594,0.2022329,2.0184138,0.00027775922,0.0006502995,-0.5318836,-0.02672681,0.0020642332,0.052310646,0.054400925,0.03809273,0.04054226,0.00063033146,-2.0559785,0.83609116,0.35652643,-0.1389836,0.02151307,0.0032244804,0.0026167333,0.00015711294,26.391214,0.09655118,0.34118232,0.25631702,0.14220469,0.073891096,inf,inf,inf,inf,1,1,1,1,2,2,2,2,3,0,1,1,1,0,0
83194918,83194064,39031707,33.6448666,-117.84206859999999,-1.3150984,0.20185663,2.0249522,0.00027775922,0.0006502995,-0.5318836,-0.009791944,-0.0054466366,0.049499076,0.053085063,0.03809273,0.04054226,0.00063033146,2.4842947,-0.83911705,-0.22280906,-0.13929728,0.021519994,0.0029370717,0.0026167333,0.00015627607,26.391214,0.10247159,0.3325445,0.252587,0.13744946,0.07300736,inf,inf,inf,inf,1,1,1,1,2,2,2,2,3,0,1,1,1,0,0
83300778,83299994,39031707,33.6448666,-117.84206859999999,-1.322276,0.2005742,2.032079,0.00027775922,0.0006502995,-0.5318836,-0.020213395,-0.003330101,0.05002448,0.054834586,0.03809273,0.04054226,0.00063033146,-0.67660683,-0.9495765,-0.4699491,-0.1392842,0.02152769,0.002957999,0.0026167333,0.00015712704,26.391214,0.09637642,0.34137118,0.2563531,0.14224516,0.07389542,inf,inf,inf,inf,1,1,1,1,2,2,2,2,3,0,1,1,1,0,0
83396179,83395378,39031707,33.6448666,-117.84206859999999,-1.3283731,0.1997532,2.0388505,0.00027775922,0.0006502995,-0.5318836,-0.03202699,-0.007903298,0.054048106,0.0601957,0.03809273,0.04054226,0.00063033146,-4.3996196,-0.17183669,1.3116865,-0.13992824,0.021530993,0.0023088453,0.0026167333,0.00015628713,26.391214,0.10157871,0.33270928,0.25262007,0.13747089,0.07301073,inf,inf,inf,inf,1,1,1,1,2,2,2,2,3,0,1,1,1,0,0
83502183,83501349,39031707,33.6448666,-117.84206859999999,-1.3344768,0.19923098,2.0460918,0.00027775922,0.0006502995,-0.5318836,-0.019458732,-0.003379724,0.050924286,0.05800647,0.03809273,0.04054226,0.00063033146,0.84208804,-0.45167726,-0.22163275,-0.1401501,0.02153873,0.0020761187,0.0026167333,0.00015713897,26.391214,0.096493006,0.34154725,0.25638786,0.1423213,0.07389892,inf,inf,inf,inf,1,1,1,1,2,2,2,2,3,0,1,1,1,0,0
83597450,83596660,39031707,33.6448666,-117.84206859999999,-1.3400718,0.19941427,2.0521684,0.00027775922,0.0006502995,-0.5318836,-0.019327888,-0.008929578,0.049877495,0.057386454,0.03809273,0.04054226,0.00063033146,4.547306,-1.9852959,-1.4533408,-0.14037567,0.021545673,0.0018424301,0.0026167333,0.00015627264,26.391214,0.100673914,0.3327943,0.25263628,0.13743596,0.07300208,inf,inf,inf,inf,1,1,1,1,2,2,2,2,3,0,1,1,1,0,0
83693037,83691986,39031707,33.6448666,-117.84206859999999,-1.345598,0.19999409,2.05877,0.00027775922,0.0006502995,-0.5318836,-0.02863142,-0.0060531213,0.05170863,0.060180515,0.03809273,0.04054226,0.00063033146,-3.8768466,0.041910756,0.49010462,-0.13716103,0.02155266,0.005049479,0.0026167333,0.00015703922,26.391214,0.0971086,0.3407218,0.2558899,0.14179617,0.07378566,inf,inf,inf,inf,1,1,1,1,2,2,2,2,3,0,1,1,1,0,0
83798856,83798060,39031707,33.6448666,-117.84206859999999,-1.3508115,0.20056322,2.0649471,0.00027775922,0.0006502995,-0.5318836,-0.018719712,0.0024570595,0.0492858,0.05753794,0.03809273,0.04054226,0.00063033146,2.1453767,2.1166906,-0.42447364,-0.13981998,0.021559617,0.0023905132,0.0026167333,0.0001562995,26.391214,0.09676194,0.33300567,0.25270322,0.13758683,0.0730165,inf,inf,inf,inf,1,1,1,1,2,2,2,2,3,0,1,1,1,0,0
83894059,83893326,39031707,33.6448666,-117.84206859999999,-1.3544168,0.20090094,2.0693548,0.00027775922,0.0006502995,-0.5318836,-0.018659677,-0.0009153332,0.053163823,0.06018843,0.03809273,0.04054226,0.00063033146,1.3772918,-0.09299565,0.57997984,-0.1390372,0.021566689,0.0031781264,0.0026167333,0.0001570661,26.391214,0.0923543,0.34094092,0.25595602,0.14194056,0.07379843,inf,inf,inf,inf,1,1,1,1,2,2,2,2,3,0,1,1,1,0,0
84000070,83999312,39031707,33.6448666,-117.84206859999999,-1.3582052,0.20096982,2.0752892,0.00027775922,0.0006502995,-0.5318836,-0.014684901,-0.0015362372,0.050143823,0.0570387,0.03809273,0.04054226,0.00063033146,0.1945502,1.656363,0.4083115,-0.1390418,0.021573972,0.0031797532,0.0026167333,0.00015632271,26.391214,0.09756255,0.33320403,0.25276887,0.1376778,0.07302894,inf,inf,inf,inf,1,1,1,1,2,2,2,2,3,0,1,1,1,0,0
84095356,84094563,39031707,33.6448666,-117.84206859999999,-1.3610739,0.20113137,2.0802312,0.00027775922,0.0006502995,-0.5318836,-0.026728678,-0.0139385555,0.04777378,0.054153357,0.03809273,0.04054226,0.00063033146,-1.1807057,0.27688646,0.33257425,-0.13787831,0.021581084,0.0043449523,0.0026167333,0.0001570894,26.391214,0.09406257,0.34114942,0.2560228,0.14205453,0.073810205,inf,inf,inf,inf,1,1,1,1,2,2,2,2,3,0,1,1,1,0,0
84201329,84200546,39031707,33.6448666,-117.84206859999999,-1.3669008,0.20206012,2.085599,0.00027775922,0.0006502995,-0.5318836,-0.01854388,0.007653943,0.05138139,0.057130028,0.03809273,0.04054226,0.00063033146,-0.42811283,3.711704,0.6506596,-0.13853675,0.021588394,0.00369205,0.0026167333,0.00015634106,26.391214,0.094233274,0.33337787,0.2528308,0.13781819,0.073037185,inf,inf,inf,inf,1,1,1,1,2,2,2,2,3,0,1,1,1,0,0
84296582,84295851,39031707,33.6448666,-117.84206859999999,-1.372857,0.2031645,2.0891201,0.00027775922,0.0006502995,-0.5318836,-0.028515909,-0.008193981,0.046128493,0.050269905,0.03809273,0.04054226,0.00063033146,-3.3459866,-0.9087398,-0.12820004,-0.13924538,0.02159555,0.0029924922,0.0026167333,0.00015710926,26.391214,0.09096146,0.3413339,0.2560868,0.14218375,0.07381844,inf,inf,inf,inf,1,1,1,1,2,2,2,2,3,0,1,1,1,0,0
84402586,84401828,39031707,33.6448666,-117.84206859999999,-1.3803221,0.203459,2.0938323,0.00027775922,0.0006502995,-0.5318836,-0.030415433,-0.0029229855,0.04756211,0.051013887,0.03809273,0.04054226,0.00063033146,-0.94261026,-0.2094066,-0.048327684,-0.14092645,0.021602072,0.0013276484,0.0026167333,0.00015635016,26.391214,0.09537625,0.33354023,0.2528913,0.13788931,0.07304441,inf,inf,inf,inf,1,1,1,1,2,2,2,2,3,0,1,1,1,0,0
84497923,84497161,39031707,33.6448666,-117.84206859999999,-1.3866752,0.20302442,2.0976174,0.00027775922,0.0006502995,-0.5318836,-0.0041427007,-0.0137970215,0.041574083,0.044213187,0.03809273,0.04054226,0.00063033146,1.2536646,-0.61927134,0.0049568256,-0.13783638,0.021609262,0.004439531,0.0026167333,0.0001571179,26.391214,0.09239411,0.34150466,0.25614578,0.14221455,0.07382489,inf,inf,inf,inf,1,1,1,1,2,2,2,2,3,0,1,1,1,0,0
84593562,84592501,39031707,33.6448666,-117.84206859999999,-1.390961,0.20310904,2.1018436,0.00027775922,0.0006502995,-0.5318836,-0.029828565,0.002600903,0.04676558,0.04910118,0.03809273,0.04054226,0.00063033146,-0.8427054,0.34734294,-0.1071415,-0.13806286,0.021613471,0.0042147744,0.0026167333,0.00015627133,26.391214,0.096351385,0.33285433,0.25245318,0.13747519,0.0729454,inf,inf,inf,inf,1,1,1,1,2,2,2,2,3,0,1,1,1,0,0
84699236,84698456,39031707,33.6448666,-117.84206859999999,-1.3938642,0.20330416,2.1061616,0.00027775922,0.0006502995,-0.5318836,-0.031345896,-0.00056371227,0.04696096,0.048714392,0.03809273,0.04054226,0.00063033146,-2.4232965,1.5352209,0.9008219,-0.13873562,0.021621503,0.0035211565,0.0026167333,0.00015712375,26.391214,0.09294939,0.34167764,0.25620928,0.14229298,0.0738301,inf,inf,inf,inf,1,1,1,1,2,2,2,2,3,0,1,1,1,0,0
84794959,84793766,39031707,33.6448666,-117.84206859999999,-1.397991,0.20312062,2.1096356,0.00027775922,0.0006502995,-0.5318836,-0.016577028,-0.0055990866,0.041158784,0.042153955,0.03809273,0.04054226,0.00063033146,2.0114324,-0.4931984,-0.24243602,-0.13942534,0.021628402,0.0028164398,0.0026167333,0.00015627632,26.391214,0.09413409,0.33300474,0.25252822,0.13754316,0.07295081,inf,inf,inf,inf,1,1,1,1,2,2,2,2,3,0,1,1,1,0,0
84900548,84899742,39031707,33.6448666,-117.84206859999999,-1.4032931,0.2025579,2.1130216,0.00027775922,0.0006502995,-0.5318836,-0.021409402,-0.010282716,0.04255959,0.042416073,0.03809273,0.04054226,0.00063033146,1.3202136,-0.33223906,0.031645082,-0.13931248,0.02163647,0.0029231822,0.0026167333,0.00015712855,26.391214,0.09209442,0.3418353,0.2562827,0.14236012,0.07383414,inf,inf,inf,inf,1,1,1,1,2,2,2,2,3,0,1,1,1,0,0
84996202,84995119,39031707,33.6448666,-117.84206859999999,-1.4079889,0.20287982,2.115665,0.00027775922,0.0006502995,-0.5318836,-0.03130272,-0.005459588,0.042515073,0.041169968,0.03809273,0.04054226,0.00063033146,-2.8269634,-0.6396974,0.35946468,-0.139005,0.021642031,0.0032344472,0.0026167333,0.00015627813,26.391214,0.09268665,0.33314627,0.2526049,0.13757779,0.072955474,inf,inf,inf,inf,1,1,1,1,2,2,2,2,3,0,1,1,1,0,0
85101907,85101065,39031707,33.6448666,-117.84206859999999,-1.4128244,0.20350504,2.1180484,0.00027775922,0.0006502995,-0.5318836,-0.013291277,-0.005784331,0.03830229,0.035346013,0.03809273,0.04054226,0.00063033146,2.8395865,-0.18161073,-0.40077057,-0.13945234,0.021650134,0.0027996853,0.0026167333,0.00015713103,26.391214,0.0914371,0.3419856,0.25636166,0.14241454,0.07383966,inf,inf,inf,inf,1,1,1,1,2,2,2,2,3,0,1,1,1,0,0
85197217,85196394,39031707,33.6448666,-117.84206859999999,-1.4167553,0.2034986,2.1201386,0.00027775922,0.0006502995,-0.5318836,-0.021338826,-0.0030470046,0.039532848,0.03537467,0.03809273,0.04054226,0.00063033146,1.3848451,0.9200697,0.11693457,-0.138741,0.02165736,0.0035170757,0.0026167333,0.00015627738,26.391214,0.09313226,0.33329177,0.25268394,0.137635,0.07295892,inf,inf,inf,inf,1,1,1,1,2,2,2,2,3,0,1,1,1,0,0
85292571,85291798,39031707,33.6448666,-117.84206859999999,-1.4202977,0.20305537,2.1223772,0.00027775922,0.0006502995,-0.5318836,-0.013805573,-0.0101500815,0.01734611,0.012436212,0.03809273,0.04054226,0.00063033146,0.7727558,1.5085372,-3.9807868,-0.13788164,0.02166464,0.0043765735,0.0026167333,0.00015704488,26.391214,0.0931294,0.34122592,0.2559256,0.1419714,0.07373794,inf,inf,inf,inf,1,1,1,1,2,2,2,2,3,0,1,1,1,0,0
85398532,85397692,39031707,33.6448666,-117.84206859999999,-1.4204601,0.20185754,2.1228461,0.00027775922,0.0006502995,-0.5318836,0.0032299203,-0.0056072343,0.09549108,0.089999065,0.03809273,0.04054226,0.00063033146,5.494691,2.9964468,1.7535203,-0.13429727,0.021671629,0.008224109,0.0026167333,0.00015627811,26.391214,0.09744048,0.33343557,0.25276715,0.13774218,0.07296368,inf,inf,inf,inf,1,1,1,1,2,2,2,2,3,0,1,1,1,0,0
85493870,85493057,39031707,33.6448666,-117.84206859999999,-1.4260799,0.2008728,2.1255078,0.00027775922,0.0006502995,-0.5318836,-0.054817293,-0.06159606,-0.01173393,-0.0187734,0.03809273,0.04054226,0.00063033146,5.6092095,-6.113198,3.7192798,-0.13734421,0.021683784,0.0050958903,0.0026167333,0.00015706365,26.391214,0.087864876,0.34137285,0.2560053,0.14203145,0.073740914,inf,inf,inf,inf,1,1,1,1,2,2,2,2,3,0,1,1,1,0,0
85599885,85598995,39031707,33.6448666,-117.84206859999999,-1.4321547,0.20187566,2.1278758,0.00027775922,0.0006502995,-0.5318836,-0.033920527,-0.0066741016,0.031150434,0.02284725,0.03809273,0.04054226,0.00063033146,-3.1652322,0.073072016,3.3377926,-0.13410142,0.021689555,0.008607655,0.0026167333,0.00015635393,26.391214,0.09649563,0.33358055,0.25284734,0.13823386,0.07296883,inf,inf,inf,inf,1,1,1,1,2,2,2,2,3,0,1,1,0,0,0
85695161,85694334,39031707,33.6448666,-117.84206859999999,-1.4361546,0.20546836,2.1232233,0.00027775922,0.0006502995,-0.5318836,-0.028751591,0.0222241,0.028294684,0.017266298,0.03809273,0.04054226,0.00063033146,-2.655751,-1.8500817,11.992278,-0.13227397,0.021700414,0.011158179,0.0026167333,0.00015714343,26.391214,0.10114813,0.34151244,0.25608346,0.14213301,0.07374342,inf,inf,inf,inf,1,1,1,1,2,2,2,2,3,0,1,1,0,0,0
85801080,85800239,39031707,33.6448666,-117.84206859999999,-1.4449984,0.20854206,2.1271238,0.00027775922,0.0006502995,-0.5318836,-0.0668286,0.026832107,0.024842255,0.012874936,0.03809273,0.04054226,0.00063033146,-0.5575915,-5.0189357,0.8523729,-0.12458882,0.021716772,0.018764777,0.0026167333,0.0001563851,26.391214,0.0972476,0.33377078,0.25295728,0.13784055,0.07298129,inf,inf,inf,inf,1,1,1,1,2,2,2,2,3,0,1,1,0,0,0
85896623,85895583,39031707,33.6448666,-117.84206859999999,-1.4531492,0.21361525,2.128592,0.00027775922,0.0006502995,-0.5318836,-0.09669129,-0.024352878,0.009963128,-0.0032018023,0.03809273,0.04054226,0.00063033146,-2.2594168,-3.0382574,-8.827806,-0.12774506,0.02174648,0.016161725,0.0026167333,0.0001572336,26.391214,0.09577942,0.34171298,0.25619543,0.14223514,0.07375887,inf,inf,inf,inf,1,1,1,1,2,2,2,2,3,0,1,1,0,0,0
86002394,86001556,39031707,33.6448666,-117.84206859999999,-1.4638361,0.21858014,2.1271744,0.00027775922,0.0006502995,-0.5318836,-0.06288883,0.0680312,-0.029177003,-0.04276913,0.03809273,0.04054226,0.00063033146,-0.9905263,-5.133318,-8.114926,-0.13101736,0.021775508,0.012518099,0.0026167333,0.00015660837,26.391214,0.09949112,0.3339491,0.25306454,0.13846734,0.07299461,inf,inf,inf,inf,1,1,1,1,2,2,2,2,3,0,1,1,0,0,0
86098013,86096890,39031707,33.6448666,-117.84206859999999,-1.4738586,0.2213484,2.1238604,0.00027775922,0.0006502995,-0.5318836,-0.07874969,-0.0746514,-0.14911583,-0.16489911,0.03809273,0.04054226,0.00063033146,0.6101433,3.5015514,-7.8232155,-0.12511797,0.021817256,0.018761631,0.0026167333,0.00015750175,26.391214,0.10280514,0.3419123,0.25630286,0.14286774,0.073772974,inf,inf,inf,inf,1,1,1,1,2,2,2,2,3,0,1,1,0,0,0
86192934,86192203,39031707,33.6448666,-117.84206859999999,-1.4853971,0.22260664,2.1175783,0.00027775922,0.0006502995,-0.5318836,-0.06580059,0.005000176,-0.025501134,-0.045518976,0.03809273,0.04054226,0.00063033146,2.9647644,-1.86954,11.087835,-0.10178996,0.021880839,0.03812605,0.0026167333,0.00015693394,26.391214,0.10908723,0.33327308,0.25332883,0.138993,0.072978415,inf,inf,inf,inf,1,1,1,1,2,2,2,2,3,0,1,1,0,0,0
86298973,86298180,39031707,33.6448666,-117.84206859999999,-1.5015261,0.22559461,2.1078181,0.00027775922,0.0006502995,-0.5318836,-0.11772278,-0.10565733,0.044643857,0.01812479,0.03809273,0.04054226,0.00063033146,-0.30528817,-1.6689057,13.652604,-0.108702295,0.021973846,0.036902312,0.0026167333,0.00015809818,26.391214,0.11884737,0.34210595,0.25640777,0.14267418,0.07377517,inf,inf,inf,inf,1,1,1,1,2,2,2,2,3,0,1,1,0,0,0
86394437,86393520,39031707,33.6448666,-117.84206859999999,-1.5211462,0.22972551,2.1087945,0.00027775922,0.0006502995,-0.5318836,-0.1193777,0.039544877,0.075706564,0.04515017,0.03809273,0.04054226,0.00063033146,1.9539522,4.7139935,6.5731244,-0.08947919,0.022038523,0.05935673,0.0026167333,0.00015754043,26.391214,0.117871046,0.33340025,0.2534336,0.13932393,0.07298364,inf,inf,inf,inf,1,1,1,1,2,2,2,2,3,0,1,1,0,0,0
86500167,86499429,39031707,33.6448666,-117.84206859999999,-1.5498999,0.23229747,2.0952787,0.00027775922,0.0006502995,-0.5318836,-0.17784259,-0.15355374,-0.043092344,-0.07901672,0.03809273,0.04054226,0.00063033146,6.5814433,-7.964806,8.897978,-0.08742171,0.022156948,0.06785398,0.0026167333,0.00015880211,26.391214,0.13138676,0.3422392,0.25720078,0.14270751,0.0738678,inf,inf,inf,inf,1,1,1,1,2,2,2,2,3,0,1,1,0,0,0
86595603,86594824,39031707,33.6448666,-117.84206859999999,-1.5771905,0.23255405,2.0867538,0.00027775922,0.0006502995,-0.5318836,-0.18343486,-0.068608224,0.046738725,0.006901376,0.03809273,0.04054226,0.00063033146,9.516156,-1.908113,9.160045,-0.085421816,0.022150863,0.06924749,0.0026167333,0.00015817364,26.391214,0.13991165,0.33336407,0.25348455,0.14153183,0.072981715,inf,inf,inf,inf,1,1,1,1,2,2,2,2,3,0,1,1,0,0,0
86701549,86700764,39031707,33.6448666,-117.84206859999999,-1.6045794,0.23317857,2.0806136,0.00027775922,0.0006502995,-0.5318836,-0.18261544,-0.1449242,0.10105035,0.056224875,0.03809273,0.04054226,0.00063033146,-2.00421,6.737027,-0.92072797,-0.07877488,0.02225308,0.07875874,0.0026167333,0.00015936479,26.391214,0.14605188,0.3422263,0.25725004,0.14408083,0.07386141,inf,inf,inf,inf,1,1,1,1,2,2,2,2,3,0,1,1,0,0,0
86796982,86796130,39031707,33.6448666,-117.84206859999999,-1.6317589,0.23725986,2.0882096,0.00027775922,0.0006502995,-0.5318836,-0.18835437,-0.08029986,0.1004804,0.053946845,0.03809273,0.04054226,0.00063033146,2.9515092,-4.5760927,4.3047147,-0.06542811,0.022185009,0.098945335,0.0026167333,0.0001587506,26.391214,0.13845587,0.33335575,0.2535505,0.14022022,0.0729853,inf,inf,inf,inf,1,1,1,1,2,2,2,2,3,0,1,1,0,0,0
86902725,86902004,39031707,33.6448666,-117.84206859999999,-1.6620314,0.23729487,2.0772202,0.00027775922,0.0006502995,-0.5318836,-0.12157688,-0.123575196,-0.011965042,-0.05988762,0.03809273,0.04054226,0.00063033146,6.964236,10.236013,9.91161,-0.054787077,0.02228639,0.118081525,0.0026167333,0.000159953,26.391214,0.1494453,0.3422006,0.25731605,0.14366531,0.07386833,inf,inf,inf,inf,1,1,1,1,2,2,2,2,3,0,1,1,0,0,0
86998527,86997423,39031707,33.6448666,-117.84206859999999,-1.6860904,0.24263924,2.080157,0.00027775922,0.0006502995,-0.5318836,-0.1598641,-0.031282824,0.16163397,0.1138037,0.03809273,0.04054226,0.00063033146,-1.3964412,0.0122497985,-2.2415352,-0.05605849,0.02221692,0.12094992,0.0026167333,0.0001593763,26.391214,0.14650846,0.33335972,0.2536365,0.14028077,0.07300213,inf,inf,inf,inf,1,1,1,1,2,2,2,2,3,0,1,1,0,0,0
87093525,87092720,39031707,33.6448666,-117.84206859999999,-1.7116915,0.24650627,2.0793493,0.00027775922,0.0006502995,-0.5318836,-0.17305394,-0.07423433,-0.031996682,-0.07947287,0.03809273,0.04054226,0.00063033146,-1.3766285,12.609927,-0.34966257,-0.05815211,0.022288136,0.11972704,0.0026167333,0.00016037443,26.391214,0.14731622,0.34130678,0.2568853,0.14207679,0.073773734,inf,inf,inf,inf,1,1,1,1,2,2,2,2,3,0,1,1,0,0,0
87200115,87198692,39031707,33.6448666,-117.84206859999999,-1.7411203,0.25824776,2.0790334,0.00027775922,0.0006502995,-0.5318836,-0.19968612,-0.02688957,0.024019875,-0.019772734,0.03809273,0.04054226,0.00063033146,-5.6436105,-3.6352348,4.085235,-0.08761968,0.022302356,0.09094066,0.0026167333,0.00015982994,26.391214,0.14763212,0.33337033,0.2537312,0.13899931,0.07300918,inf,inf,inf,inf,1,1,1,1,2,2,2,2,3,0,1,1,0,0,0
87294848,87294006,39031707,33.6448666,-117.84206859999999,-1.7635921,0.26586148,2.072421,0.00027775922,0.0006502995,-0.5318836,-0.17378743,-0.013782184,0.013964048,-0.027544074,0.03809273,0.04054226,0.00063033146,-6.8505,3.4787984,-2.521952,-0.08896118,0.022364402,0.09313796,0.0026167333,0.00016080141,26.391214,0.15424442,0.3413243,0.25698185,0.14280643,0.073785834,inf,inf,inf,inf,1,1,1,1,2,2,2,2,3,0,1,1,0,0,0
87400808,87399972,39031707,33.6448666,-117.84206859999999,-1.7845494,0.27644524,2.079219,0.00027775922,0.0006502995,-0.5318836,-0.1383801,-0.02793913,-0.034881543,-0.07188187,0.03809273,0.04054226,0.00063033146,-3.5858164,3.650527,-8.126417,-0.09579435,0.022396741,0.08266143,0.0026167333,0.00016000726,26.391214,0.1474464,0.33334503,0.25383627,0.13843945,0.0730201,inf,inf,inf,inf,1,1,1,1,2,2,2,2,3,0,1,1,0,0,0
87496064,87495294,39031707,33.6448666,-117.84206859999999,-1.7979423,0.2797504,2.0811157,0.00027775922,0.0006502995,-0.5318836,-0.13708448,-0.0034623495,0.15347847,0.118516035,0.03809273,0.04054226,0.00063033146,-8.155232,-6.275274,3.9579093,-0.09894465,0.022472363,0.08513105,0.0026167333,0.00016101933,26.391214,0.14554977,0.34128514,0.2570816,0.14280121,0.07379884,inf,inf,inf,inf,1,1,1,1,2,2,2,2,3,0,1,1,0,0,0
87602030,87601231,39031707,33.6448666,-117.84206859999999,-1.8120155,0.28388372,2.084002,0.00027775922,0.0006502995,-0.5318836,-0.063745484,-0.023263045,-0.050327502,-0.08362231,0.03809273,0.04054226,0.00063033146,7.0640626,4.8641486,15.204416,-0.123309754,0.018012058,0.07341063,0.0026167333,0.00016020655,26.391214,0.14266348,0.33323243,0.25392893,0.13777752,0.07302058,inf,inf,inf,inf,1,1,1,1,2,2,2,2,3,0,1,1,0,0,0
87697480,87696576,39031707,33.6448666,-117.84206859999999,-1.8179702,0.2836102,2.078779,0.00027775922,0.0006502995,-0.5318836,-0.068428524,0.035119977,0.0012838641,-0.03166531,0.03809273,0.04054226,0.00063033146,-5.0276365,-1.6907951,1.753702,-0.16645224,0.018053295,0.059853774,0.0026167333,0.00016113612,26.391214,0.14788651,0.34117106,0.2571709,0.14331812,0.07380074,inf,inf,inf,inf,1,1,1,1,2,2,2,2,3,0,1,1,0,0,0
87792647,87791920,39031707,33.6448666,-117.84206859999999,-1.8207815,0.28105003,2.07528,0.00027775922,0.0006502995,-0.5318836,-0.0068015032,-0.0024097867,0.07104078,0.039207377,0.03809273,0.04054226,0.00063033146,1.786119,3.9323964,5.6352906,-0.19291723,0.018064998,0.05419801,0.0026167333,0.00016017245,26.391214,0.15138555,0.3323452,0.25355098,0.1382873,0.07292508,inf,inf,inf,inf,1,1,1,1,2,2,2,2,3,0,1,1,0,0,0
87898757,87897937,39031707,33.6448666,-117.84206859999999,-1.8183126,0.27988133,2.0796156,0.00027775922,0.0006502995,-0.5318836,-0.017320693,-0.019547287,0.016049594,-0.013653828,0.03809273,0.04054226,0.00063033146,-0.806804,-1.5862359,-2.8539176,-0.2241858,0.01810232,0.021769706,0.0026167333,0.00016116592,26.391214,0.1470499,0.3411508,0.25729522,0.14328952,0.07380858,inf,inf,inf,inf,1,1,1,1,2,2,2,2,3,0,1,1,0,0,0
87994029,87993238,39031707,33.6448666,-117.84206859999999,-1.8272067,0.2792898,2.0853145,0.00027775922,0.0006502995,-0.5318836,-0.14338934,0.09542166,0.12446092,0.098335885,0.03809273,0.04054226,0.00063033146,-4.6490808,-1.5284946,-0.8233151,-0.21353939,0.018075988,0.03516885,0.0026167333,0.00016028737,26.391214,0.14135098,0.33231926,0.2536827,0.13849807,0.07295206,inf,inf,inf,inf,1,1,1,1,2,2,2,2,3,0,1,1,0,0,0
88100063,88099299,39031707,33.6448666,-117.84206859999999,-1.8394475,0.28121194,2.0854971,0.00027775922,0.0006502995,-0.5318836,-0.051303737,0.036480222,-0.11462485,-0.1367983,0.03809273,0.04054226,0.00063033146,-1.464896,1.1684879,-7.4224935,-0.22517818,0.018094305,0.0227274,0.0026167333,0.00016120402,26.391214,0.14116836,0.3411224,0.2574262,0.14309454,0.073899664,inf,inf,inf,inf,1,1,1,1,2,2,2,2,3,0,1,1,0,0,0
88195233,88194499,39031707,33.6448666,-117.84206859999999,-1.8447438,0.28141668,2.0876307,0.00027775922,0.0006502995,-0.5318836,-0.03677449,0.012950742,0.026597379,0.009069541,0.03809273,0.04054226,0.00063033146,-3.791177,0.0039180834,5.0208354,-0.22642125,0.018080024,0.020258479,0.0026167333,0.00016019834,26.391214,0.13903475,0.33234906,0.25384033,0.13894267,0.07303334,inf,inf,inf,inf,1,1,1,1,2,2,2,2,3,0,1,1,0,0,0
88301581,88300555,39031707,33.6448666,-117.84206859999999,-1.8475568,0.28083798,2.0876653,0.00027775922,0.0006502995,-0.5318836,0.037537526,-0.015712708,-0.11307895,-0.12588336,0.03809273,0.04054226,0.00063033146,-2.2653582,-1.4540894,-0.78768206,-0.21363617,0.018089907,0.033510104,0.0026167333,0.00016106718,26.391214,0.13900018,0.34117177,0.25758272,0.14316687,0.07396192,inf,inf,inf,inf,1,1,1,1,2,2,2,2,3,0,1,1,0,0,0
88396592,88395810,39031707,33.6448666,-117.84206859999999,-1.8378032,0.27061233,2.0572548,0.00027775922,0.0006502995,-0.5318836,0.20518799,-0.17071314,-0.64009476,-0.6492712,0.03809273,0.04054226,0.00063033146,-1.1441178,-7.5021744,-8.021753,-0.21381493,0.018045124,0.030688003,0.0026167333,0.00016000734,26.391214,0.1694107,0.3322893,0.25397155,0.13944702,0.07309561,inf,inf,inf,inf,1,1,1,1,2,2,2,2,3,0,1,1,0,0,0
88502884,88501848,39031707,33.6448666,-117.84206859999999,-1.8105336,0.24418323,1.9427267,0.00027775922,0.0006502995,-0.5318836,0.3228067,-0.25204244,-1.5598983,-1.5679985,0.03809273,0.04054226,0.00063033146,-0.9360049,5.5837054,-10.149611,-0.21648636,0.018071206,0.03302543,0.0026167333,0.00016094571,26.391214,0.28393877,0.3411743,0.25771573,0.1527391,0.073954016,inf,inf,inf,inf,1,1,1,1,2,2,2,2,3,0,1,1,0,0,0
88597846,88597091,39031707,33.6448666,-117.84206859999999,-1.7922221,0.20151106,1.749626,0.00027775922,0.0006502995,-0.5318836,0.32798856,-0.32236266,-2.4102983,-2.422605,0.03809273,0.04054226,0.00063033146,-2.3940167,-1.9428842,-21.678062,-0.22471891,0.017523674,0.034594208,0.0026167333,0.00015888878,26.391214,0.47703946,0.332189,0.2541175,0.15615918,0.07307532,inf,inf,inf,inf,1,1,1,1,2,2,2,2,3,0,1,1,0,0,0
88693246,88692431,39031707,33.6448666,-117.84206859999999,-1.778031,0.14774825,1.4780055,0.00027775922,0.0006502995,-0.5318836,0.37054145,-0.35905665,-3.2390394,-3.2562203,0.03809273,0.04054226,0.00063033146,-3.197489,-4.516055,-14.436568,-0.24276567,0.017538058,0.03611036,0.0026167333,0.00015968652,26.391214,0.74865997,0.34038422,0.25734618,0.16676277,0.073855974,inf,inf,inf,inf,1,1,1,1,2,2,2,2,3,0,1,1,0,0,0
88799134,88798394,39031707,33.6448666,-117.84206859999999,-1.7740787,0.08505361,1.083692,0.00027775922,0.0006502995,-0.5318836,0.33910006,-0.35670617,-4.140641,-4.1576552,0.03809273,0.04054226,0.00063033146,-0.8485842,2.1212952,-1.9954954,-0.25182566,0.016773274,0.04940347,0.0026167333,0.00015576216,26.391214,1.1429735,0.3322361,0.25427276,0.16507876,0.07310809,inf,inf,inf,inf,1,1,1,1,2,2,2,2,3,1,1,1,0,0,0
88894610,88893712,39031707,33.6448666,-117.84206859999999,-1.7779287,0.03437862,0.65550095,0.00027775922,0.0006502995,-0.5318836,0.30340523,-0.29407585,-4.818978,-4.834315,0.03809273,0.04054226,0.00063033146,2.5324235,-6.7222514,0.18494098,-0.27503332,0.016787939,0.04400065,0.0026167333,0.00015654723,26.391214,1.5711646,0.34068844,0.25749844,0.17501077,0.07387787,inf,inf,inf,inf,1,1,1,1,2,2,2,2,3,1,1,1,0,0,0
89000432,88999649,39031707,33.6448666,-117.84206859999999,-1.7782059,-0.008882019,0.10202282,0.00027775922,0.0006502995,-0.5318836,0.3058849,-0.27549896,-5.543188,-5.5596585,0.03809273,0.04054226,0.00063033146,-1.0692936,-7.789945,-13.891614,-0.2739444,0.016180608,0.05407287,0.0026167333,0.0001506579,26.391214,2.1246426,0.33238178,0.25443068,0.1661696,0.07313304,inf,inf,inf,inf,1,1,1,1,2,2,2,2,3,1,1,1,0,0,0
89095909,89095034,39031707,33.6448666,-117.84206859999999,-1.7714269,-0.041478,-0.4429095,0.00027775922,0.0006502995,-0.5318836,0.30150196,-0.24404489,-5.8025737,-5.8206515,0.03809273,0.04054226,0.00063033146,4.1240525,0.7743266,9.4614525,-0.28896466,0.016193764,0.039455842,0.0026167333,0.0001514228,26.391214,2.669575,0.3409857,0.25765678,0.17450239,0.07390915,inf,inf,inf,inf,1,1,1,1,2,2,2,2,3,1,1,1,0,0,0
89201687,89200948,39031707,33.6448666,-117.84206859999999,-1.7572962,-0.071000926,-1.085307,0.00027775922,0.0006502995,-0.5318836,0.26126492,-0.22661999,-6.144987,-6.1658998,0.03809273,0.04054226,0.00063033146,3.7963772,0.2037041,6.2538886,-0.2973097,0.015710196,0.03156937,0.0026167333,0.00014475224,26.391214,3.3119726,0.33261055,0.25459832,0.16671078,0.073151976,inf,inf,inf,inf,1,1,1,1,2,2,2,2,3,1,1,1,0,0,0
89297167,89296298,39031707,33.6448666,-117.84206859999999,-1.7407557,-0.092007525,-1.6782297,0.00027775922,0.0006502995,-0.5318836,0.26802784,-0.15387842,-6.1760554,-6.198976,0.03809273,0.04054226,0.00063033146,2.1213644,-1.3138074,2.239457,-0.3143565,0.015629655,0.017534584,0.0026167333,0.00014547977,26.391214,3.9048953,0.34127185,0.25782353,0.17206801,0.07394175,inf,inf,inf,inf,1,1,1,1,2,2,2,2,3,1,1,1,0,0,0
89392546,89391680,39031707,33.6448666,-117.84206859999999,-1.7133671,-0.11596471,-2.2584748,0.00027775922,0.0006502995,-0.5318836,0.22870585,-0.16357401,-5.895957,-5.9161057,0.03809273,0.04054226,0.00063033146,-4.2763524,-0.50779027,2.8262548,-0.31248805,0.015403036,0.024199737,0.0026167333,0.00013986195,26.391214,4.4851403,0.3319328,0.254256,0.16272508,0.07307424,inf,inf,inf,inf,1,1,1,1,2,2,2,2,3,1,1,1,0,0,0
89498430,89497615,39031707,33.6448666,-117.84206859999999,-1.67933,-0.13391432,-2.8587883,0.00027775922,0.0006502995,-0.5318836,0.18579336,-0.058116417,-5.518746,-5.533826,0.03809273,0.04054226,0.00063033146,3.5722513,-3.6458435,3.8421686,-0.31863505,0.015306299,0.04570115,0.0026167333,0.00014088428,26.391214,5.085454,0.34146062,0.25798512,0.16400398,0.07397691,inf,inf,inf,inf,1,1,1,1,2,2,2,2,3,1,1,1,0,0,0
89593928,89593073,39031707,33.6448666,-117.84206859999999,-1.6568819,-0.14332971,-3.362946,0.00027775922,0.0006502995,-0.5318836,0.15997754,-0.062155467,-5.124622,-5.1312923,0.03809273,0.04054226,0.00063033146,-0.14886719,0.05921954,4.9836717,-0.33825278,0.015130286,0.03332558,0.0026167333,0.00013658896,26.391214,5.5896115,0.33220392,0.25443733,0.15435876,0.073099665,inf,inf,inf,inf,1,1,1,1,2,2,2,2,3,1,1,1,0,0,0
89700036,89698905,39031707,33.6448666,-117.84206859999999,-1.6273359,-0.13988292,-3.89038,0.00027775922,0.0006502995,-0.5318836,0.2208869,0.028824115,-5.037321,-5.034642,0.03809273,0.04054226,0.00063033146,-0.87599516,1.7097343,-2.6955023,-0.36218274,0.0150770135,0.013137837,0.0026167333,0.00013758059,26.391214,6.1170454,0.34152737,0.25816864,0.15555628,0.07398932,inf,inf,inf,inf,1,1,1,1,2,2,2,2,3,1,1,1,0,0,0
89795070,89794320,39031707,33.6448666,-117.84206859999999,-1.6019554,-0.13436857,-4.3466277,0.00027775922,0.0006502995,-0.5318836,0.22157775,0.103238136,-4.7408166,-4.7293253,0.03809273,0.04054226,0.00063033146,2.7405655,7.7414474,-3.2409565,-0.35905442,0.014840182,0.020910421,0.0026167333,0.00013467437,26.391214,6.573293,0.33236548,0.2553061,0.14977606,0.07321067,inf,inf,inf,inf,1,1,1,1,2,2,2,2,3,1,1,1,0,0,0
89901014,89900174,39031707,33.6448666,-117.84206859999999,-1.5785826,-0.11935356,-4.825755,0.00027775922,0.0006502995,-0.5318836,0.10666629,0.03470904,-4.5732174,-4.55324,0.03809273,0.04054226,0.00063033146,-6.641088,-3.1257155,-4.3905926,-0.37014756,0.014776001,0.023376,0.0026167333,0.0001355191,26.391214,7.0524206,0.3415593,0.25836208,0.1550192,0.0740052,inf,inf,inf,inf,1,1,1,1,2,2,2,2,3,1,1,1,0,0,0
89996331,89995585,39031707,33.6448666,-117.84206859999999,-1.563923,-0.10438522,-5.229788,0.00027775922,0.0006502995,-0.5318836,0.11838126,0.17080648,-4.222362,-4.1926265,0.03809273,0.04054226,0.00063033146,3.4114463,8.297519,2.0118814,-0.3630537,0.014528969,0.025908692,0.0026167333,0.0001335748,26.391214,7.4564533,0.33254585,0.25554848,0.1453491,0.07325836,inf,inf,inf,inf,1,1,1,1,2,2,2,2,3,1,1,1,0,0,0
90102344,90101523,39031707,33.6448666,-117.84206859999999,-1.5502363,-0.07553248,-5.6517096,0.00027775922,0.0006502995,-0.5318836,0.0012563576,0.1505961,-4.004189,-3.96615,0.03809273,0.04054226,0.00063033146,-3.7636542,2.5959985,-0.64922994,-0.38816005,0.014530175,0.020710843,0.0026167333,0.00013460292,26.391214,7.878375,0.34160417,0.2586021,0.1513791,0.07403751,inf,inf,inf,inf,1,1,1,1,2,2,2,2,3,1,1,1,0,0,0
90197636,90196862,39031707,33.6448666,-117.84206859999999,-1.5439698,-0.050282836,-6.00408,0.00027775922,0.0006502995,-0.5318836,-0.04080324,0.21112323,-3.6701357,-3.627416,0.03809273,0.04054226,0.00063033146,-1.4676865,5.0419183,-7.8930264,-0.37938344,0.014277652,0.020619195,0.0026167333,0.00013365116,26.391214,8.230745,0.332586,0.25578558,0.14412713,0.07325834,inf,inf,inf,inf,1,1,1,1,2,2,2,2,3,1,1,1,0,0,0
90293381,90292216,39031707,33.6448666,-117.84206859999999,-1.5389111,-0.016632345,-6.3342676,0.00027775922,0.0006502995,-0.5318836,-0.06403086,0.16906762,-3.4798055,-3.4346888,0.03809273,0.04054226,0.00063033146,-2.4502292,-9.264676,-11.010968,-0.38841763,0.014269351,0.023719197,0.0026167333,0.00013451511,26.391214,8.560933,0.34058064,0.25901505,0.1500538,0.07404108,inf,inf,inf,inf,1,1,1,1,2,2,2,2,3,1,1,1,0,0,0
90398872,90398120,39031707,33.6448666,-117.84206859999999,-1.5362053,0.0065659075,-6.6735473,0.00027775922,0.0006502995,-0.5318836,-0.016116474,0.105468884,-3.1580262,-3.10654,0.03809273,0.04054226,0.00063033146,-0.69524425,-7.383241,2.698651,-0.39529476,0.013947764,0.041314982,0.0026167333,0.00013401837,26.391214,8.900213,0.33260423,0.25604847,0.14265057,0.073299356,inf,inf,inf,inf,1,1,1,1,2,2,2,2,3,1,1,1,0,0,0
90494235,90493478,39031707,33.6448666,-117.84206859999999,-1.5263634,0.02909758,-6.9613476,0.00027775922,0.0006502995,-0.5318836,0.056238487,0.120334744,-3.0526168,-2.9964373,0.03809273,0.04054226,0.00063033146,2.971507,-0.32096845,10.836923,-0.41880962,0.014004253,0.014184103,0.0026167333,0.00013511695,26.391214,9.188013,0.34052068,0.25927824,0.14396362,0.07408554,inf,inf,inf,inf,1,1,1,1,2,2,2,2,3,1,1,1,0,0,0
90600225,90599443,39031707,33.6448666,-117.84206859999999,-1.5118088,0.047326755,-7.260178,0.00027775922,0.0006502995,-0.5318836,0.08406573,0.18646972,-2.8109767,-2.7516112,0.03809273,0.04054226,0.00063033146,2.8662014,1.8268754,-4.8021703,-0.4051832,0.013853577,0.036567055,0.0026167333,0.00013490976,26.391214,9.486843,0.3324964,0.25631005,0.13743043,0.07332764,inf,inf,inf,inf,1,1,1,1,2,2,2,2,3,1,1,1,0,0,0
90695620,90694788,39031707,33.6448666,-117.84206859999999,-1.4959065,0.068513855,-7.5093307,0.00027775922,0.0006502995,-0.5318836,0.018119399,0.08768053,-2.6650133,-2.6047885,0.03809273,0.04054226,0.00063033146,-6.3870583,-7.369944,-13.005794,-0.3943062,0.013883817,0.052753683,0.0026167333,0.00013586495,26.391214,9.735996,0.34036252,0.2595389,0.14159544,0.07411426,inf,inf,inf,inf,1,1,1,1,2,2,2,2,3,1,1,1,0,0,0
90801392,90800667,39031707,33.6448666,-117.84206859999999,-1.4899566,0.08396186,-7.7603707,0.00027775922,0.0006502995,-0.5318836,0.051627826,0.06708537,-2.2836466,-2.2217927,0.03809273,0.04054226,0.00063033146,1.8739603,-4.279962,2.4523191,-0.41105968,0.013813769,0.046587773,0.0026167333,0.00013603916,26.391214,9.987036,0.33248353,0.25660947,0.13623405,0.073406324,inf,inf,inf,inf,1,1,1,1,2,2,2,2,3,1,1,1,0,0,0
90896815,90896031,39031707,33.6448666,-117.84206859999999,-1.4841197,0.10323392,-7.963646,0.00027775922,0.0006502995,-0.5318836,0.053792257,0.05389233,-2.1389894,-2.0763402,0.03809273,0.04054226,0.00063033146,0.7533278,2.336691,-3.9287724,-0.42707282,0.013865985,0.024163777,0.0026167333,0.00013702086,26.391214,10.190311,0.34029832,0.25983846,0.13904922,0.07416821,inf,inf,inf,inf,1,1,1,1,2,2,2,2,3,1,1,1,0,0,0
91002747,91001990,39031707,33.6448666,-117.84206859999999,-1.4828951,0.11445546,-8.167313,0.00027775922,0.0006502995,-0.5318836,-0.019331573,0.008188456,-1.8022537,-1.7392765,0.03809273,0.04054226,0.00063033146,-5.7537336,-1.1790045,5.8617005,-0.43153864,0.013850043,0.018184844,0.0026167333,0.000137516,26.391214,10.393978,0.332439,0.25691274,0.13429897,0.07341678,inf,inf,inf,inf,1,1,1,1,2,2,2,2,3,1,1,1,0,0,0
91098142,91097352,39031707,33.6448666,-117.84206859999999,-1.4826525,0.13142787,-8.332898,0.00027775922,0.0006502995,-0.5318836,-0.027883422,0.033544052,-1.7124583,-1.6507525,0.03809273,0.04054226,0.00063033146,3.6181006,-0.78942186,6.5940685,-0.4296831,0.013917239,0.02700989,0.0026167333,0.00013857566,26.391214,10.559564,0.3402152,0.26014143,0.1390391,0.074230306,inf,inf,inf,inf,1,1,1,1,2,2,2,2,3,1,1,1,0,0,0
91193570,91192720,39031707,33.6448666,-117.84206859999999,-1.4878414,0.13402872,-8.492267,0.00027775922,0.0006502995,-0.5318836,-0.07942204,-0.039614674,-1.7533348,-1.6903245,0.03809273,0.04054226,0.00063033146,6.140368,2.5722768,-7.525278,-0.43413556,0.013905219,0.026947862,0.0026167333,0.00013894211,26.391214,10.718932,0.33154887,0.2567131,0.13436379,0.073336706,inf,inf,inf,inf,1,1,1,1,2,2,2,2,3,1,1,1,0,0,0
91299765,91298660,39031707,33.6448666,-117.84206859999999,-1.4923542,0.13219832,-8.66524,0.00027775922,0.0006502995,-0.5318836,-0.0846789,-0.13382943,-1.6845905,-1.6205477,0.03809273,0.04054226,0.00063033146,1.5387832,-3.2362294,0.95017856,-0.44939324,0.013947987,0.012396899,0.0026167333,0.00013996048,26.391214,10.891906,0.34015965,0.2604453,0.14067036,0.07424689,inf,inf,inf,inf,1,1,1,1,2,2,2,2,3,1,1,1,0,0,0
91395148,91393968,39031707,33.6448666,-117.84206859999999,-1.495427,0.12172813,-8.808169,0.00027775922,0.0006502995,-0.5318836,-0.049881563,-0.060588717,-1.496972,-1.4333793,0.03809273,0.04054226,0.00063033146,0.036802404,-5.242643,2.0547063,-0.43708363,0.013823916,0.028481897,0.0026167333,0.0001400345,26.391214,11.034835,0.33145782,0.2570144,0.13785149,0.073433496,inf,inf,inf,inf,1,1,1,1,2,2,2,2,3,1,1,1,0,0,0
91500758,91499973,39031707,33.6448666,-117.84206859999999,-1.4970685,0.10792213,-8.957858,0.00027775922,0.0006502995,-0.5318836,-0.10341546,-0.13741247,-1.4107533,-1.3493564,0.03809273,0.04054226,0.00063033146,-7.8636336,-3.6897838,-2.4476511,-0.43374515,0.013872668,0.028827991,0.0026167333,0.00014116132,26.391214,11.184524,0.34008816,0.26074094,0.13997422,0.07428627,inf,inf,inf,inf,1,1,1,1,2,2,2,2,3,1,1,1,0,0,0
91596442,91595292,39031707,33.6448666,-117.84206859999999,-1.5045809,0.10015715,-9.077187,0.00027775922,0.0006502995,-0.5318836,-0.08975297,0.014269452,-1.2106124,-1.1512377,0.03809273,0.04054226,0.00063033146,-0.97521305,6.7538037,-1.744574,-0.4213473,0.013784499,0.048137043,0.0026167333,0.00014138897,26.391214,11.303852,0.33128938,0.25728753,0.13634421,0.073455065,inf,inf,inf,inf,1,1,1,1,2,2,2,2,3,1,1,1,0,0,0
91702059,91701247,39031707,33.6448666,-117.84206859999999,-1.5255665,0.0936086,-9.197336,0.00027775922,0.0006502995,-0.5318836,-0.20718041,-0.086689666,-1.0568131,-0.9996562,0.03809273,0.04054226,0.00063033146,-0.58985263,-6.0099974,7.1949816,-0.4250024,0.013842794,0.04639602,0.0026167333,0.00014254812,26.391214,11.424002,0.33990765,0.26101634,0.13997835,0.07430723,inf,inf,inf,inf,1,1,1,1,2,2,2,2,3,1,1,1,0,0,0
91797413,91796584,39031707,33.6448666,-117.84206859999999,-1.5450846,0.09685817,-9.285459,0.00027775922,0.0006502995,-0.5318836,-0.18897384,0.044261843,-0.9520776,-0.89356387,0.03809273,0.04054226,0.00063033146,-1.9177481,1.4871725,-11.410488,-0.42888924,0.013706432,0.042774476,0.0026167333,0.00014287003,26.391214,11.512124,0.33107904,0.2575482,0.13911206,0.07352359,inf,inf,inf,inf,1,1,1,1,2,2,2,2,3,1,1,1,0,0,0
91892712,91891919,39031707,33.6448666,-117.84206859999999,-1.562797,0.0989233,-9.361228,0.00027775922,0.0006502995,-0.5318836,-0.13753231,-0.06744719,-0.71258837,-0.65363073,0.03809273,0.04054226,0.00063033146,7.6652904,-1.3342282,16.33422,-0.4390808,0.013748373,0.04570279,0.0026167333,0.0001439015,26.391214,11.5878935,0.33881077,0.2607543,0.14134017,0.07424491,inf,inf,inf,inf,1,1,1,1,2,2,2,2,3,1,1,1,0,0,0
91998787,91997873,39031707,33.6448666,-117.84206859999999,-1.5719627,0.10211793,-9.417987,0.00027775922,0.0006502995,-0.5318836,0.008318784,0.0506406,-0.5626862,-0.50097674,0.03809273,0.04054226,0.00063033146,9.318102,0.011166312,2.6907547,-0.43787196,0.01365827,0.04760619,0.0026167333,0.00014456315,26.391214,11.644652,0.33078054,0.25777617,0.1361395,0.073524505,inf,inf,inf,inf,1,1,1,1,2,2,2,2,3,1,1,1,0,0,0
92093894,92093156,39031707,33.6448666,-117.84206859999999,-1.5727412,0.10313707,-9.455994,0.00027775922,0.0006502995,-0.5318836,-0.05702795,-0.080317535,-0.39351657,-0.328961,0.03809273,0.04054226,0.00063033146,-6.2248626,-3.6670232,5.071231,-0.45032725,0.013700943,0.029080741,0.0026167333,0.0001456927,26.391214,11.682659,0.33847487,0.26097974,0.13777086,0.07427424,inf,inf,inf,inf,1,1,1,1,2,2,2,2,3,1,1,1,0,0,0
92200065,92199150,39031707,33.6448666,-117.84206859999999,-1.5723492,0.10790661,-9.472345,0.00027775922,0.0006502995,-0.5318836,-0.04187057,0.048081893,-0.11537017,-0.04979019,0.03809273,0.04054226,0.00063033146,-4.8895946,-4.760545,5.6353536,-0.44733918,0.013765233,0.034993578,0.0026167333,0.00014662788,26.391214,11.699011,0.3305734,0.25801122,0.1345841,0.07359889,inf,inf,inf,inf,1,1,1,1,2,2,2,2,3,1,1,1,0,0,0
92295229,92294459,39031707,33.6448666,-117.84206859999999,-1.5746251,0.11320302,-9.473618,0.00027775922,0.0006502995,-0.5318836,-0.09938275,-0.045865834,-0.037609346,0.027179204,0.03809273,0.04054226,0.00063033146,3.396566,5.6413555,9.873159,-0.44664097,0.013804206,0.03972538,0.0026167333,0.0001476543,26.391214,11.700283,0.33825797,0.26122,0.13830131,0.07433125,inf,inf,inf,inf,1,1,1,1,2,2,2,2,3,1,1,1,0,0,0
92401292,92400443,39031707,33.6448666,-117.84206859999999,-1.5857582,0.11842857,-9.466099,0.00027775922,0.0006502995,-0.5318836,-0.10326574,0.013307791,0.03959976,0.10615934,0.03809273,0.04054226,0.00063033146,-7.940814,2.3853734,0.8580698,-0.44958645,0.013842971,0.03803513,0.0026167333,0.00014847089,26.391214,11.692764,0.33035886,0.25825378,0.13520648,0.07360459,inf,inf,inf,inf,1,1,1,1,2,2,2,2,3,1,1,1,0,0,0
92496815,92495749,39031707,33.6448666,-117.84206859999999,-1.5989677,0.11943402,-9.453809,0.00027775922,0.0006502995,-0.5318836,-0.09655469,-0.14262274,0.1922617,0.25846022,0.03809273,0.04054226,0.00063033146,7.3533936,-5.586681,18.636639,-0.45901087,0.013886804,0.033651054,0.0026167333,0.0001495523,26.391214,11.680474,0.33807915,0.2614573,0.13920718,0.074362315,inf,inf,inf,inf,1,1,1,1,2,2,2,2,3,1,1,1,0,0,0
92602657,92601833,39031707,33.6448666,-117.84206859999999,-1.6096357,0.12088877,-9.419743,0.00027775922,0.0006502995,-0.5318836,-0.047418747,0.02097988,0.29807737,0.36520517,0.03809273,0.04054226,0.00063033146,-7.474956,-1.1087376,5.0054455,-0.45349908,0.013893427,0.040934436,0.0026167333,0.00015033841,26.391214,11.646408,0.3300968,0.25848517,0.13627821,0.07364212,inf,inf,inf,inf,1,1,1,1,2,2,2,2,3,1,1,1,0,0,0
92698149,92697054,39031707,33.6448666,-117.84206859999999,-1.6148994,0.12189961,-9.376985,0.00027775922,0.0006502995,-0.5318836,-0.07145821,-0.14693142,0.3662001,0.43477297,0.03809273,0.04054226,0.00063033146,-5.5274253,-5.8277693,-1.9149362,-0.46222812,0.013954048,0.026408548,0.0026167333,0.00015154023,26.391214,11.60365,0.33782604,0.26168677,0.13855693,0.074381955,inf,inf,inf,inf,1,1,1,1,2,2,2,2,3,1,1,1,0,0,0
92793241,92792395,39031707,33.6448666,-117.84206859999999,-1.6276174,0.11937693,-9.322683,0.00027775922,0.0006502995,-0.5318836,-0.04588829,-0.032999348,0.4911129,0.5611959,0.03809273,0.04054226,0.00063033146,-0.00060917507,-1.6171728,0.48275128,-0.46597672,0.014022191,0.025929987,0.0026167333,0.00015239371,26.391214,11.549349,0.32914084,0.2582389,0.13534893,0.073573045,inf,inf,inf,inf,1,1,1,1,2,2,2,2,3,1,1,1,0,0,0
92899294,92898391,39031707,33.6448666,-117.84206859999999,-1.6422926,0.1226902,-9.254535,0.00027775922,0.0006502995,-0.5318836,-0.100414,-0.09451414,0.58082205,0.65065765,0.03809273,0.04054226,0.00063033146,-2.1612132,6.301786,-1.9319171,-0.47260526,0.014101599,0.020877808,0.0026167333,0.00015369435,26.391214,11.4812,0.33771762,0.2619401,0.13910778,0.07441662,inf,inf,inf,inf,1,1,1,1,2,2,2,2,3,1,1,1,0,0,0
92994623,92993692,39031707,33.6448666,-117.84206859999999,-1.658511,0.12433442,-9.17732,0.00027775922,0.0006502995,-0.5318836,-0.05460083,-0.02350818,0.7860905,0.856622,0.03809273,0.04054226,0.00063033146,-1.3776762,2.9091456,3.3274307,-0.47337592,0.014112916,0.022320075,0.0026167333,0.00015423063,26.391214,11.403985,0.32902786,0.25849494,0.13592936,0.073603496,inf,inf,inf,inf,1,1,1,1,2,2,2,2,3,1,1,1,0,0,0
93100378,93099615,39031707,33.6448666,-117.84206859999999,-1.6751909,0.12630792,-9.078574,0.00027775922,0.0006502995,-0.5318836,-0.10616154,-0.12329918,0.9070434,0.9775235,0.03809273,0.04054226,0.00063033146,-0.4069958,3.2826018,11.251762,-0.4858703,0.014174571,0.01066588,0.0026167333,0.00015547533,26.391214,11.30524,0.3376351,0.2621975,0.1392831,0.07444834,inf,inf,inf,inf,1,1,1,1,2,2,2,2,3,1,1,1,0,0,0
93195837,93194972,39031707,33.6448666,-117.84206859999999,-1.6896387,0.1273228,-8.972539,0.00027775922,0.0006502995,-0.5318836,-0.03583266,-0.0013634184,1.0564538,1.1278431,0.03809273,0.04054226,0.00063033146,0.07316527,-2.0997183,-0.6719569,-0.46612018,0.014197613,0.03675869,0.0026167333,0.00015612144,26.391214,11.199204,0.32891673,0.25874105,0.13628033,0.0736327,inf,inf,inf,inf,1,1,1,1,2,2,2,2,3,1,1,1,0,0,0
93301755,93300939,39031707,33.6448666,-117.84206859999999,-1.7035422,0.13781741,-8.852126,0.00027775922,0.0006502995,-0.5318836,-0.10066094,-0.033969928,1.0804278,1.1514372,0.03809273,0.04054226,0.00063033146,0.19040403,3.7659628,6.314961,-0.46938276,0.01429094,0.03857213,0.0026167333,0.00015762195,26.391214,11.078792,0.33753458,0.2624408,0.13924515,0.07447341,inf,inf,inf,inf,1,1,1,1,2,2,2,2,3,1,1,1,0,0,0
93397146,93396274,39031707,33.6448666,-117.84206859999999,-1.7186924,0.14499953,-8.727024,0.00027775922,0.0006502995,-0.5318836,-0.009498999,0.09716107,1.2287121,1.3013324,0.03809273,0.04054226,0.00063033146,2.5416315,0.0014089142,-3.0172012,-0.46625835,0.014333698,0.04467659,0.0026167333,0.00015813403,26.391214,10.95369,0.32858485,0.25894126,0.13549617,0.07365224,inf,inf,inf,inf,1,1,1,1,2,2,2,2,3,1,1,1,0,0,0
93492447,93491630,39031707,33.6448666,-117.84206859999999,-1.7282728,0.15422858,-8.601683,0.00027775922,0.0006502995,-0.5318836,-0.04436002,-0.04789549,1.1406391,1.2144355,0.03809273,0.04054226,0.00063033146,-5.133074,-2.4110029,-10.385622,-0.473047,0.014390373,0.029004846,0.0026167333,0.00015926955,26.391214,10.828348,0.33631966,0.26285538,0.13911341,0.07450223,inf,inf,inf,inf,1,1,1,1,2,2,2,2,3,1,1,1,0,0,0
93598792,93597580,39031707,33.6448666,-117.84206859999999,-1.7392416,0.15589932,-8.460005,0.00027775922,0.0006502995,-0.5318836,0.0028403911,-0.0046519726,1.3254172,1.3996576,0.03809273,0.04054226,0.00063033146,3.5851853,-0.9931153,4.54835,-0.46229437,0.014478516,0.045228712,0.0026167333,0.00016018652,26.391214,10.68667,0.32805085,0.25908744,0.13560389,0.07368818,inf,inf,inf,inf,1,1,1,1,2,2,2,2,3,1,1,1,0,0,0
93693905,93692893,39031707,33.6448666,-117.84206859999999,-1.7493657,0.15629716,-8.332383,0.00027775922,0.0006502995,-0.5318836,-0.009962458,-0.06874113,1.257297,1.3312372,0.03809273,0.04054226,0.00063033146,-0.70654154,-1.5192285,12.136604,-0.46827415,0.014524887,0.047466703,0.0026167333,0.00016131214,26.391214,10.559049,0.33580324,0.26300076,0.13942412,0.07450631,inf,inf,inf,inf,1,1,1,1,2,2,2,2,3,1,1,1,0,0,0
93800241,93798837,39031707,33.6448666,-117.84206859999999,-1.7449771,0.15094219,-8.195566,0.00027775922,0.0006502995,-0.5318836,0.09866321,-0.07905556,1.0396065,1.1194842,0.03809273,0.04054226,0.00063033146,-4.092815,-0.9476909,-3.4735124,-0.486859,0.014567702,0.020652706,0.0026167333,0.00016179495,26.391214,10.422232,0.32738897,0.25990722,0.13622282,0.07379072,inf,inf,inf,inf,1,1,1,1,2,2,2,2,3,1,1,1,0,0,0
93895109,93894314,39031707,33.6448666,-117.84206859999999,-1.7356316,0.13798884,-8.091067,0.00027775922,0.0006502995,-0.5318836,0.10990377,-0.05865963,0.8752761,0.9599286,0.03809273,0.04054226,0.00063033146,-2.4986708,-0.4932232,-4.3058405,-0.4778123,0.014610333,0.03197967,0.0026167333,0.00016293468,26.391214,10.317733,0.33516866,0.2631095,0.14175616,0.07448626,inf,inf,inf,inf,1,1,1,1,2,2,2,2,3,1,1,1,0,0,0
94000942,94000154,39031707,33.6448666,-117.84206859999999,-1.7149438,0.11704196,-7.990026,0.00027775922,0.0006502995,-0.5318836,0.14163454,-0.21087064,0.87775147,0.96285546,0.03809273,0.04054226,0.00063033146,1.6407773,-6.36837,13.499252,-0.47368687,0.014579981,0.03677658,0.0026167333,0.00016314411,26.391214,10.216692,0.32663703,0.2599906,0.13808262,0.07376171,inf,inf,inf,inf,1,1,1,1,2,2,2,2,3,1,1,1,0,0,0
94096309,94095583,39031707,33.6448666,-117.84206859999999,-1.6885709,0.093155436,-7.8957705,0.00027775922,0.0006502995,-0.5318836,0.20847522,-0.10284671,1.0213829,1.102884,0.03809273,0.04054226,0.00063033146,-2.2253036,-3.9948997,6.435641,-0.44074196,0.0146297505,0.07645547,0.0026167333,0.0001642915,26.391214,10.122437,0.33446604,0.26318115,0.14434677,0.074585006,inf,inf,inf,inf,1,1,1,1,2,2,2,2,3,1,1,1,0,0,0
94202296,94201460,39031707,33.6448666,-117.84206859999999,-1.6553838,0.073381975,-7.7821383,0.00027775922,0.0006502995,-0.5318836,0.17122619,-0.1928983,1.0904399,1.1670618,0.03809273,0.04054226,0.00063033146,3.8249023,-10.653929,10.742093,-0.45366076,0.014588629,0.0644072,0.0026167333,0.00016481461,26.391214,10.008804,0.32599923,0.26007423,0.13913704,0.07377494,inf,inf,inf,inf,1,1,1,1,2,2,2,2,3,1,1,1,0,0,0
94297650,94296864,39031707,33.6448666,-117.84206859999999,-1.6253158,0.05881057,-7.6696963,0.00027775922,0.0006502995,-0.5318836,0.22728953,-0.01903568,1.1864669,1.257781,0.03809273,0.04054226,0.00063033146,2.7793217,1.7269187,2.8827302,-0.4558019,0.014642187,0.058437582,0.0026167333,0.00016595137,26.391214,9.896362,0.33383885,0.2632654,0.14330678,0.07461838,inf,inf,inf,inf,1,1,1,1,2,2,2,2,3,1,1,1,0,0,0
94392905,94392169,39031707,33.6448666,-117.84206859999999,-1.5919379,0.03757274,-7.5456815,0.00027775922,0.0006502995,-0.5318836,0.21328032,-0.18311548,1.336753,1.4055599,0.03809273,0.04054226,0.00063033146,-1.1538512,-3.1837344,16.972662,-0.45825192,0.014668149,0.055841114,0.0026167333,0.00016597194,26.391214,9.7723465,0.32451245,0.25963017,0.13805166,0.07366745,inf,inf,inf,inf,1,1,1,1,2,2,2,2,3,1,1,1,0,0,0
94498879,94498098,39031707,33.6448666,-117.84206859999999,-1.5507251,0.0067821397,-7.3892236,0.00027775922,0.0006502995,-0.5318836,0.30727816,-0.04967618,1.4933335,1.5602854,0.03809273,0.04054226,0.00063033146,-3.420838,4.8240557,6.654477,-0.4378686,0.0147595415,0.08882222,0.0026167333,0.00016746885,26.391214,9.615889,0.3332157,0.26333505,0.14294769,0.07461895,inf,inf,inf,inf,1,1,1,1,2,2,2,2,3,1,1,1,0,0,0
94594170,94593428,39031707,33.6448666,-117.84206859999999,-1.5108098,-0.014543934,-7.241561,0.00027775922,0.0006502995,-0.5318836,0.19593889,-0.13751303,1.4714085,1.5334978,0.03809273,0.04054226,0.00063033146,-2.5595927,-0.5052594,-0.072717085,-0.4449784,0.014794805,0.093662545,0.0026167333,0.00016813376,26.391214,9.468226,0.3238331,0.2596664,0.13825054,0.07367573,inf,inf,inf,inf,1,1,1,1,2,2,2,2,3,1,1,1,0,0,0
