timestamp,timestamp_sample,accel_device_id,gyro_device_id,delta_angle[0],delta_angle[1],delta_angle[2],delta_velocity[0],delta_velocity[1],delta_velocity[2],delta_angle_dt,delta_velocity_dt,delta_angle_clipping,delta_velocity_clipping,accel_calibration_count,gyro_calibration_count
80838327,80838020,2424842,2424842,-6.655927e-05,-8.970997e-05,8.664425e-06,-0.014963699,-0.005022038,-0.04886669,5291,5291,0,0,1,1
81342208,81341900,2424842,2424842,-7.517072e-05,-5.5762786e-05,-0.00020108643,0.007460125,0.008254929,-0.057544984,5240,5240,0,0,1,1
81840877,81840569,2424842,2424842,-9.0305104e-05,2.234313e-05,-0.00025394847,0.0059304396,0.01693707,-0.054917946,5276,5276,0,0,1,1
82339737,82339197,2424842,2424842,-5.0921895e-05,8.427278e-05,0.0003596761,0.0030797757,0.0016963461,-0.048326183,5240,5240,0,0,1,1
82843574,82843121,2424842,2424842,-4.9930363e-06,8.184821e-05,3.9587787e-05,-0.0051688743,-0.0030936666,-0.04897169,5288,5288,0,0,1,1
83342089,83341776,2424842,2424842,-9.1081274e-05,5.994404e-05,6.049244e-05,0.0026766472,0.0028986323,-0.052653275,5238,5238,0,0,1,1
83841354,83840418,2424842,2424842,8.2255436e-05,2.9172617e-05,9.2370814e-05,-0.002383247,-0.00083386136,-0.054341648,5240,5240,0,0,1,1
84339651,84339029,2424842,2424842,-6.5952495e-06,9.171621e-05,0.0001003729,0.004274328,0.0044879485,-0.05837535,5238,5238,0,0,1,1
84843250,84842912,2424842,2424842,0.00013376783,3.3538297e-05,1.3787842e-05,-0.001626768,-0.0057178116,-0.053171072,5237,5237,0,0,1,1
85341907,85341591,2424842,2424842,0.00076408335,-0.0030633644,-0.00068080885,-0.016925111,0.004522754,-0.03961163,5239,5239,0,0,1,1
85840529,85840217,2424842,2424842,-0.0077701905,-0.00019075719,-0.00080705574,-0.009107997,-0.031391885,-0.016144691,5239,5239,0,0,1,1
86339211,86338870,2424842,2424842,0.008961031,0.0046293475,0.0014426936,0.02031118,0.03442687,-0.076125495,5240,5240,0,0,1,1
86843126,86842786,2424842,2424842,0.0015412754,-0.0062108682,0.0012836381,-0.019386552,0.01704117,-0.13625875,5189,5189,0,0,1,1
87341742,87341409,2424842,2424842,-0.012232759,-0.0035068032,-0.0007460962,0.012122883,-0.016332457,-0.038456853,5239,5239,0,0,1,1
87840408,87840107,2424842,2424842,-0.0065642083,0.00041108593,-0.0014354344,-0.001028735,-0.021860769,-0.021879751,5240,5240,0,0,1,1
88339020,88338709,2424842,2424842,-0.00032225333,-0.0012929509,-0.00035929764,0.0003967292,0.08860781,-0.03808085,5236,5236,0,0,1,1
88842970,88842663,2424842,2424842,0.0020935826,-0.00012465398,-0.0001585476,-0.04439175,-0.008186253,-0.17606968,5238,5238,0,0,1,1
89341634,89341310,2424842,2424842,0.007933522,0.004726771,0.00036447312,0.03554073,-0.02246295,-0.036323234,5239,5239,0,0,1,1
89840242,89839938,2424842,2424842,-0.014237192,-0.0001967823,-0.00033970887,0.006310438,0.021851202,-0.02177552,5240,5240,0,0,1,1
90338979,90338603,2424842,2424842,0.01598117,-0.0032294856,-0.0012890996,-0.030838285,0.011201954,-0.051260162,5239,5239,0,0,1,1
90842793,90842492,2424842,2424842,-0.01615441,-0.00031961754,-0.00042507402,-0.0117370505,0.030314807,-0.0319175,5240,5240,0,0,1,1
91342041,91341144,2424842,2424842,0.009725862,0.0013287631,0.0011789169,0.018407198,0.011381219,-0.013968142,5170,5170,0,0,1,1
91840207,91839838,2424842,2424842,0.0030083128,-0.0056753545,-1.8359286e-05,0.016256759,-0.023477653,-0.11691046,5240,5240,0,0,1,1
92338845,92338540,2424842,2424842,0.0060569663,0.0015600702,0.00024010944,0.0570645,-0.03581248,-0.008378661,5357,5357,0,0,1,1
92842668,92842381,2424842,2424842,-0.009740213,-0.00020730706,0.00026569367,-0.0027347559,-0.00300284,-0.055157002,5238,5238,0,0,1,1
93341336,93341042,2424842,2424842,0.010725198,-0.0011024491,0.00022991771,0.011799691,0.0035420796,-0.055185433,5290,5290,0,0,1,1
93839953,93839607,2424842,2424842,0.009979227,0.00095311896,-0.00022803909,-0.017817145,0.003290482,-0.057686698,5239,5239,0,0,1,1
94338638,94338335,2424842,2424842,-0.008404391,-0.0039466503,0.00024375018,0.013739038,-0.011852107,-0.021394813,5240,5240,0,0,1,1
94842533,94842229,2424842,2424842,0.014401867,0.0006383231,-0.0002579185,-0.00920527,0.032197427,-0.048665874,5238,5238,0,0,1,1
95341243,95340938,2424842,2424842,0.011562033,0.0032278956,-0.0010114906,-0.014035834,-0.03655621,-0.058319926,5373,5373,0,0,1,1
95839790,95839509,2424842,2424842,-0.005649791,0.0010926629,-0.00021960365,-0.003035799,-0.060825504,-0.11272286,5262,5262,0,0,1,1
96338465,96338157,2424842,2424842,0.009249365,0.0038088283,-0.0001855125,0.0013390663,0.017732097,-0.044769272,5265,5265,0,0,1,1
96842530,96842068,2424842,2424842,-0.006508962,-0.0071833506,-4.328575e-05,-0.03621609,-0.05198066,-0.09357674,5294,5294,0,0,1,1
97341042,97340736,2424842,2424842,0.0010821267,0.009906264,-0.00069369155,0.010242771,0.009685887,-0.0065089744,5240,5240,0,0,1,1
97839804,97839346,2424842,2424842,-0.007246151,-0.0035474566,-0.0003407011,-0.0036100922,-0.026067453,-0.03721168,5246,5246,0,0,1,1
98338324,98337997,2424842,2424842,0.016241064,0.0060471203,0.00017576784,-0.01151299,-0.023074236,-0.03923458,5276,5276,0,0,1,1
98842684,98841938,2424842,2424842,-0.006661844,-0.007018231,0.000627238,-0.019891901,-0.01984265,-0.05335073,5150,5150,0,0,1,1
99340876,99340570,2424842,2424842,-0.010122611,-0.002346313,-0.00024635103,-0.016256709,0.014351929,-0.03329098,5279,5279,0,0,1,1
99839524,99839197,2424842,2424842,0.012750101,0.006468188,0.00044263853,0.00071585807,0.02882347,-0.031670846,5238,5238,0,0,1,1
100338190,100337864,2424842,2424842,-0.0005128562,-0.004435396,-0.00023596591,-0.008917844,0.01773507,-0.0758307,5238,5238,0,0,1,1
100842054,100841750,2424842,2424842,0.004492969,-0.00079723826,0.0008833824,0.017896103,-0.0508374,-0.0027158856,5237,5237,0,0,1,1
101340805,101340502,2424842,2424842,0.0035161555,-0.006646416,-0.0004615212,0.013613843,-0.015020003,-0.036652204,5287,5287,0,0,1,1
101839991,101839120,2424842,2424842,-0.011186749,-0.0012003316,-0.0001728033,-0.010336426,0.028122608,-0.098608434,5254,5254,0,0,1,1
102343979,102342938,2424842,2424842,0.016078431,0.0011327928,-0.000350712,-0.021221455,0.0100434,-0.027079808,5200,5200,0,0,1,1
102841902,102841598,2424842,2424842,-0.0018182588,0.0074917064,3.145937e-05,0.006595587,-0.019526802,-0.082070045,5238,5238,0,0,1,1
103340716,103340289,2424842,2424842,0.0016687327,0.009186664,0.0011624941,0.00735347,-0.0012428848,-0.028245945,5264,5264,0,0,1,1
103839255,103838931,2424842,2424842,0.0065217176,-0.0066851545,3.2498636e-05,-0.018416753,0.00715438,-0.08691242,5238,5238,0,0,1,1
104343262,104342865,2424842,2424842,-0.009094556,-0.00049004814,0.00053928996,-0.0032579242,0.027386576,-0.05811845,5238,5238,0,0,1,1
104841787,104841460,2424842,2424842,0.007862487,0.0024320183,0.001528636,-0.013338642,0.019330623,-0.06328821,5255,5255,0,0,1,1
105340510,105340127,2424842,2424842,0.014194198,0.006558745,0.0003831903,-0.029407766,-0.003097738,-0.03986346,5238,5238,0,0,1,1
105839068,105838761,2424842,2424842,-0.005199294,-0.007063926,-0.0017617226,-0.006358393,-0.031616595,-0.06787248,5184,5184,0,0,1,1
106343388,106342670,2424842,2424842,-0.015141371,0.0036820148,7.735735e-06,0.013659886,0.040030006,-0.037187837,5247,5247,0,0,1,1
106841656,106841348,2424842,2424842,-0.007307027,0.0068694735,-0.000110726025,0.0060407924,-0.024424717,-0.009199234,5238,5238,0,0,1,1
107340322,107340014,2424842,2424842,-0.015234422,0.0053523453,0.0020850734,0.21877587,0.21497557,0.0131190885,5243,5243,0,0,1,1
