timestamp,x,y,z,vx,vy,vz,acceleration[0],acceleration[1],acceleration[2],thrust[0],thrust[1],thrust[2],yaw,yawspeed
80398434,nan,nan,nan,nan,nan,nan,0.0,0.0,100.0,-0.0,-0.0,-0.001,-0.14066505,0.0
80408773,nan,nan,nan,nan,nan,nan,0.0,0.0,100.0,-0.0,-0.0,-0.001,-0.14064719,0.0
80600013,nan,nan,nan,nan,nan,nan,0.0,0.0,100.0,-0.0,-0.0,-0.001,-0.14010696,0.0
80694762,nan,nan,nan,nan,nan,nan,0.0,0.0,100.0,-0.0,-0.0,-0.001,-0.1409413,0.0
80800678,nan,nan,nan,nan,nan,nan,0.0,0.0,100.0,-0.0,-0.0,-0.001,-0.13970259,0.0
80896092,nan,nan,nan,nan,nan,nan,0.0,0.0,100.0,-0.0,-0.0,-0.001,-0.13978519,0.0
81001981,nan,nan,nan,nan,nan,nan,0.0,0.0,100.0,-0.0,-0.0,-0.001,-0.14039026,0.0
81097284,nan,nan,nan,nan,nan,nan,0.0,0.0,100.0,-0.0,-0.0,-0.001,-0.14020222,0.0
81192693,nan,nan,nan,nan,nan,nan,0.0,0.0,100.0,-0.0,-0.0,-0.001,-0.14015946,0.0
81298547,nan,nan,nan,nan,nan,nan,0.0,0.0,100.0,-0.0,-0.0,-0.001,-0.138847,0.0
81393885,nan,nan,nan,nan,nan,nan,0.0,0.0,100.0,-0.0,-0.0,-0.001,-0.14010474,0.0
81500254,nan,nan,nan,nan,nan,nan,0.0,0.0,100.0,-0.0,-0.0,-0.001,-0.13886248,0.0
81595234,nan,nan,nan,nan,nan,nan,0.0,0.0,100.0,-0.0,-0.0,-0.001,-0.13914889,0.0
81701469,nan,nan,nan,nan,nan,nan,0.0,0.0,100.0,-0.0,-0.0,-0.001,-0.14016926,0.0
81796534,nan,nan,nan,nan,nan,nan,0.0,0.0,100.0,-0.0,-0.0,-0.001,-0.139083,0.0
81902778,nan,nan,nan,nan,nan,nan,0.0,0.0,100.0,-0.0,-0.0,-0.001,-0.13922708,0.0
81997800,nan,nan,nan,nan,nan,nan,0.0,0.0,100.0,-0.0,-0.0,-0.001,-0.13837536,0.0
82093144,nan,nan,nan,nan,nan,nan,0.0,0.0,100.0,-0.0,-0.0,-0.001,-0.13844277,0.0
82199132,nan,nan,nan,nan,nan,nan,0.0,0.0,100.0,-0.0,-0.0,-0.001,-0.14000653,0.0
82294529,nan,nan,nan,nan,nan,nan,0.0,0.0,100.0,-0.0,-0.0,-0.001,-0.13946477,0.0
82400389,nan,nan,nan,nan,nan,nan,0.0,0.0,100.0,-0.0,-0.0,-0.001,-0.13960895,0.0
82495761,nan,nan,nan,nan,nan,nan,0.0,0.0,100.0,-0.0,-0.0,-0.001,-0.13914603,0.0
82601668,nan,nan,nan,nan,nan,nan,0.0,0.0,100.0,-0.0,-0.0,-0.001,-0.14002709,0.0
82697011,nan,nan,nan,nan,nan,nan,0.0,0.0,100.0,-0.0,-0.0,-0.001,-0.13987957,0.0
82792371,nan,nan,nan,nan,nan,nan,0.0,0.0,100.0,-0.0,-0.0,-0.001,-0.13989495,0.0
82898316,nan,nan,nan,nan,nan,nan,0.0,0.0,100.0,-0.0,-0.0,-0.001,-0.13965173,0.0
82993629,nan,nan,nan,nan,nan,nan,0.0,0.0,100.0,-0.0,-0.0,-0.001,-0.13989519,0.0
83099932,nan,nan,nan,nan,nan,nan,0.0,0.0,100.0,-0.0,-0.0,-0.001,-0.1389836,0.0
83194993,nan,nan,nan,nan,nan,nan,0.0,0.0,100.0,-0.0,-0.0,-0.001,-0.13929728,0.0
83300852,nan,nan,nan,nan,nan,nan,0.0,0.0,100.0,-0.0,-0.0,-0.001,-0.1392842,0.0
83396253,nan,nan,nan,nan,nan,nan,0.0,0.0,100.0,-0.0,-0.0,-0.001,-0.13992824,0.0
83502257,nan,nan,nan,nan,nan,nan,0.0,0.0,100.0,-0.0,-0.0,-0.001,-0.1401501,0.0
83597529,nan,nan,nan,nan,nan,nan,0.0,0.0,100.0,-0.0,-0.0,-0.001,-0.14037567,0.0
83693109,nan,nan,nan,nan,nan,nan,0.0,0.0,100.0,-0.0,-0.0,-0.001,-0.13716103,0.0
83798938,nan,nan,nan,nan,nan,nan,0.0,0.0,100.0,-0.0,-0.0,-0.001,-0.13981998,0.0
83894098,nan,nan,nan,nan,nan,nan,0.0,0.0,100.0,-0.0,-0.0,-0.001,-0.1390372,0.0
84000146,nan,nan,nan,nan,nan,nan,0.0,0.0,100.0,-0.0,-0.0,-0.001,-0.1390418,0.0
84095429,nan,nan,nan,nan,nan,nan,0.0,0.0,100.0,-0.0,-0.0,-0.001,-0.13787831,0.0
84201409,nan,nan,nan,nan,nan,nan,0.0,0.0,100.0,-0.0,-0.0,-0.001,-0.13853675,0.0
84296657,nan,nan,nan,nan,nan,nan,0.0,0.0,100.0,-0.0,-0.0,-0.001,-0.13924538,0.0
84402661,nan,nan,nan,nan,nan,nan,0.0,0.0,100.0,-0.0,-0.0,-0.001,-0.14092645,0.0
84498019,nan,nan,nan,nan,nan,nan,0.0,0.0,100.0,-0.0,-0.0,-0.001,-0.13783638,0.0
84593635,nan,nan,nan,nan,nan,nan,0.0,0.0,100.0,-0.0,-0.0,-0.001,-0.13806286,0.0
84699348,nan,nan,nan,nan,nan,nan,0.0,0.0,100.0,-0.0,-0.0,-0.001,-0.13873562,0.0
84795034,nan,nan,nan,nan,nan,nan,0.0,0.0,100.0,-0.0,-0.0,-0.001,-0.13942534,0.0
84900650,nan,nan,nan,nan,nan,nan,0.0,0.0,100.0,-0.0,-0.0,-0.001,-0.13931248,0.0
84996276,nan,nan,nan,nan,nan,nan,0.0,0.0,100.0,-0.0,-0.0,-0.001,-0.139005,0.0
85101979,nan,nan,nan,nan,nan,nan,0.0,0.0,100.0,-0.0,-0.0,-0.001,-0.13945234,0.0
85197320,nan,nan,nan,-0.022675004,-0.0071140574,2.3553772,0.2884714,0.07287733,9.475171,0.00029829884,7.536006e-05,-0.010140448,-0.1385027,0.0
85292610,nan,nan,nan,-0.0040519806,-0.0012712688,2.182007,0.09564993,0.06461399,9.29877,0.00015146952,0.00010232155,-0.0155368205,-0.1385027,0.0
85398601,-1.4206171,0.20259412,nan,-0.0001491487,0.0006997503,1.9895741,0.010936152,-0.08260788,8.655058,3.929822e-05,-0.000296845,-0.03522893,-0.1385027,0.0
85493911,-1.4206171,0.20259412,nan,0.0051896274,0.0016352563,1.8162749,0.12669538,0.23007938,8.738616,0.00042206224,0.00076646695,-0.032672763,-0.1385027,0.0
85599961,-1.4206171,0.20259412,nan,0.010960674,0.0006825365,1.6237622,0.03380116,-0.022689141,8.160914,0.00017379274,-0.00011665895,-0.050345514,-0.1385027,0.0
85695231,-1.4206171,0.20259412,nan,0.014760626,-0.0027305281,1.4505104,0.031711318,-0.1484722,7.784946,0.00019993316,-0.0009360859,-0.061846945,-0.1385027,0.0
85801152,-1.4206171,0.20259412,nan,0.023162216,-0.00565055,1.2580576,0.1868101,-0.1929472,7.312695,0.0014532511,-0.0015009935,-0.076293804,-0.1385027,0.0
85896698,-1.4206171,0.20259412,nan,0.03090549,-0.01047008,1.0847965,0.34966743,0.2598695,6.896414,0.0031743085,0.002359116,-0.08902846,-0.1385027,0.0
86002465,-1.4206171,0.20259412,nan,0.041058023,-0.015186724,0.8922204,0.17591487,-0.24430707,6.487854,0.0018211155,-0.0025291292,-0.101526916,-0.1385027,0.0
86098113,-1.4206171,0.20259412,nan,0.050579417,-0.017816573,0.7189772,0.20489581,0.35385746,6.4154725,0.0021675178,0.0037433289,-0.10374118,-0.1385027,0.0
86192995,-1.4206171,0.20259412,nan,0.061540995,-0.019011902,0.54577243,0.13079429,-0.21880794,5.376297,0.0018077054,-0.0030241408,-0.1355311,-0.1385027,0.0
86299044,-1.4206171,0.20259412,nan,0.076863565,-0.021850469,0.4780533,0.35631868,0.38434076,4.9778547,0.0053674034,0.0057895132,-0.14772004,-0.1385027,0.0
86394479,-1.4206171,0.20259412,nan,0.09550262,-0.025774824,0.60918444,0.3660689,-0.41734967,5.502574,0.0049150223,-0.0056035426,-0.13166809,-0.1385027,0.0
86500236,-1.4206171,0.20259412,nan,0.122818686,-0.028218182,0.69527674,0.50683385,0.5086952,6.51276,0.0052077807,0.0052269064,-0.100765,-0.1385027,0.0
86595672,-1.4206171,0.20259412,nan,0.14874475,-0.028461935,0.7,0.4751368,-0.033973753,6.3307467,0.005151946,-0.0003683801,-0.10633306,-0.1385027,0.0
86701625,-1.4206171,0.20259412,nan,0.17476423,-0.029055232,0.7,0.5650375,0.27957666,6.285861,0.006205846,0.0030706096,-0.10770618,-0.1385027,0.0
86797057,-1.4206171,0.20259412,nan,0.20058472,-0.03293246,0.7,0.6591027,0.052087624,6.4092145,0.0069851223,0.00055202085,-0.10393262,-0.1385027,0.0
86902794,-1.4206171,0.20259412,nan,0.2293436,-0.032965712,0.7,0.32480147,0.069583915,7.0289745,0.0028143413,0.0006029311,-0.08497324,-0.14699787,0.0
86998599,-1.4206171,0.20259412,nan,0.2521996,-0.03804287,0.7,0.7700318,-0.19940022,6.4637885,0.0080299,-0.0020793474,-0.102263115,-0.15113766,0.0
87093568,-1.4206171,0.20259412,nan,0.27652067,-0.04171655,0.7,0.7266482,-0.024671555,7.370441,0.0055222837,-0.00018749559,-0.07452727,-0.15222657,0.0
87200189,-1.4206171,0.20259412,nan,0.30447808,-0.052870963,0.7,0.89572275,-0.0146881975,7.2859917,0.0070430976,-0.00011549378,-0.0771107,-0.1526896,0.0
87294924,-1.4206171,0.20259412,nan,0.32582626,-0.060103998,0.7,0.9194281,-0.2755226,7.4649844,0.00671616,-0.002012614,-0.071635045,-0.1562284,0.0
87400885,-1.4206171,0.20259412,nan,0.34573564,-0.07015856,0.7,0.7452119,0.004569605,7.7841415,0.004701626,2.883015e-05,-0.061871555,-0.15258503,0.0
87496137,-1.4206171,0.20259412,nan,0.3584589,-0.07329848,0.7,0.9656066,-0.23931292,7.1574984,0.007979727,-0.0019776707,-0.0810415,-0.15820496,0.0
87602101,-1.4206171,0.20259412,nan,0.3718285,-0.07722513,0.7,0.41143596,-0.0899439,8.108701,0.0021791824,-0.00047639044,-0.051942807,-0.17084965,0.0
87697548,-1.4206171,0.20259412,nan,0.3774854,-0.07696527,0.7,0.8007655,-0.39225894,8.045539,0.0043991823,-0.0021549612,-0.05387502,-0.20043528,0.0
87792690,-1.4206171,0.20259412,nan,0.38015613,-0.07453311,0.7,0.47913292,-0.23683615,7.9037857,0.0028441087,-0.0014058474,-0.05821146,-0.21873444,0.0
87898830,-1.4206171,0.20259412,nan,0.37781075,-0.07342285,0.7,0.6868768,0.11766563,8.257756,0.0033187815,0.0005685249,-0.047382977,-0.22008476,0.0
87994069,-1.4206171,0.20259412,nan,0.38626015,-0.07286091,0.7,0.9920381,-0.45449,7.940859,0.005773926,-0.0026452532,-0.05707734,-0.22321439,0.0
88100132,-1.4206171,0.20259412,nan,0.39788887,-0.07468694,0.7,0.5769127,-0.1313636,9.035309,0.0013881387,-0.00031608055,-0.023596488,-0.22203484,0.0
88195302,nan,nan,nan,nan,nan,nan,0.0,0.0,100.0,-0.0,-0.0,-0.12,-0.22642125,0.0
88301650,nan,nan,nan,nan,nan,nan,0.0,0.0,100.0,-0.0,-0.0,-0.12,-0.21363617,0.0
88396673,-1.4206171,0.20259412,nan,0.39632684,-0.0646173,0.7,0.065642655,0.5232019,5.473889,0.0008872044,0.007071424,-0.13254562,-0.21863219,0.0
88502978,-1.4206171,0.20259412,nan,0.3704207,-0.039509654,0.7,-0.1294494,0.45876548,9.177429,-0.0015821594,0.0056071337,-0.11985848,-0.22364105,0.0
88597917,-1.4206171,0.20259412,nan,0.35302478,0.0010289081,0.7,0.1056501,0.72253025,12.595856,0.0012892184,0.008816834,-0.119668715,-0.23344237,0.0
88693285,-1.4206171,0.20259412,nan,0.3395432,0.052103575,0.7,-0.06896808,0.803187,15.930317,-0.000841091,0.009795159,-0.1195966,-0.2510389,0.0
88799233,-1.4206171,0.20259412,nan,0.33578855,0.11166348,0.7,0.1797558,0.81395376,19.536057,0.0021917066,0.009924285,-0.119568825,-0.25182566,-0.080888174
88894653,-1.4206171,0.20259412,nan,0.339446,0.15980472,0.7,0.15632354,0.690679,22.242695,0.0019078879,0.008429556,-0.119688354,-0.27503332,-0.031656876
89000529,-1.4206171,0.20259412,nan,0.3397093,0.20090233,0.7,0.022458512,0.90665954,25.14407,0.00027364798,0.011047285,-0.119490094,-0.2739444,-0.008635068
89096009,-1.4206171,0.20259412,nan,0.33326933,0.2318685,0.7,0.05332958,0.80998266,26.188042,0.0006503466,0.009877624,-0.119591005,-0.28896466,-0.0029745838
89201790,-1.4206171,0.20259412,nan,0.31984514,0.2599153,0.7,0.122875154,0.90367514,27.569035,0.0014970985,0.011010287,-0.11948444,-0.2973097,-0.00092034484
89297242,-1.4206171,0.20259412,nan,0.30413163,0.27987155,0.7,0.020705204,0.71938854,27.70134,0.00025268394,0.008779336,-0.11967815,-0.3143565,-0.01901861
89392591,-1.4206171,0.20259412,nan,0.2781125,0.30263087,0.7,0.16126737,0.7936169,26.569859,0.0019666643,0.009678201,-0.11959291,-0.31248805,-0.01395624
89498508,-1.4206171,0.20259412,nan,0.24577723,0.31968302,0.7,0.23074266,0.64991426,25.04074,0.002816536,0.007933109,-0.11970435,-0.31863505,-0.0038092246
89593974,-1.4206171,0.20259412,nan,0.22445159,0.32862765,0.7161269,0.026843421,0.6480953,24.003082,0.00032775855,0.007913253,-0.11973835,-0.33825278,-0.001485969
89700114,-1.4206171,0.20259412,nan,0.19638287,0.32535318,0.80720115,-0.1021835,0.49089727,24.25516,-0.001248783,0.005999248,-0.11984344,-0.36218274,-0.00040485564
89795146,-1.4206171,0.20259412,nan,0.17227139,0.32011455,0.8843485,-0.13697413,0.036461294,23.38994,-0.0016758153,0.0004460871,-0.119987465,-0.35905442,-0.00014012243
89901093,-1.4206171,0.20259412,nan,0.15006725,0.3058503,0.9658476,0.31078723,0.69130266,22.884657,0.0037917,0.008434104,-0.119643174,-0.37014756,-4.3281223e-05
89996434,-1.4206171,0.20259412,nan,0.1361406,0.29163036,1.035774,0.0064039864,-0.25788057,21.674809,7.834035e-05,-0.0031546685,-0.1199585,-0.3630537,-1.4934935e-05
90102446,-1.4206171,0.20259412,nan,0.12313828,0.26422027,1.1073995,0.56165344,0.27186203,21.011826,0.00685885,0.0033199494,-0.11975781,-0.38816005,-4.611248e-06
90197722,-1.4206171,0.20259412,nan,0.11718501,0.2402331,1.1683754,0.3657725,-0.12956637,19.85426,0.004472327,-0.0015842174,-0.119906165,-0.37938344,-1.5909499e-06
90293427,-1.4206171,0.20259412,nan,0.1123793,0.20826514,1.2184325,0.36452705,0.2627305,19.248388,0.004456023,0.0032116496,-0.11987422,-0.38841763,-6.2102697e-07
90398980,-1.4206171,0.20259412,nan,0.10980878,0.18622679,1.2830358,0.025472134,0.17883195,18.141422,0.00031161465,0.0021877496,-0.11997965,-0.39529476,-1.6965596e-07
90494284,-1.4206171,0.20259412,nan,0.10045896,0.16482171,1.3258327,-0.048347555,0.13079083,17.8432,-0.00059176725,0.0016008614,-0.11998786,-0.40289623,-6.6086564e-08
90600301,-1.4206171,0.20259412,nan,0.086632065,0.14750399,1.3816578,-0.11802128,-0.3391088,17.050415,-0.0014431934,-0.0041467063,-0.11991964,-0.41246217,-1.8074642e-08
90695693,-1.4206171,0.20259412,nan,0.071524896,0.12737624,1.4235578,0.2899594,0.44327596,16.681547,0.0035429704,0.0054163225,-0.11982533,-0.41777182,-6.232403e-09
90801469,-1.4206171,0.20259412,nan,0.065872535,0.11270064,1.466835,-0.08295713,0.08199271,15.199349,-0.0010147997,0.001003002,-0.11999151,-0.42835933,-1.9283648e-09
90896946,-1.4206171,0.20259412,nan,0.060327422,0.09439219,1.4986261,0.03599089,0.30988166,14.553558,0.00044019314,0.003790064,-0.11993932,-0.4219485,-6.645051e-10
91002852,-1.4206171,0.20259412,nan,0.05916413,0.08373172,1.5,0.17414981,0.02511143,18.47258,0.0021303534,0.00030718508,-0.11998069,-0.42043537,-2.0539505e-10
91098215,-1.4206171,0.20259412,nan,0.058933668,0.06760793,1.5,0.2365683,0.23379412,17.906574,0.0028931191,0.002859192,-0.11993104,-0.42740488,-7.08057e-11
91193613,-1.4206171,0.20259412,nan,0.06386305,0.065137126,1.5,0.27609593,0.12127055,18.213543,0.0033765868,0.0014831097,-0.11994331,-0.4313777,-2.757771e-11
91299839,-1.4206171,0.20259412,nan,0.0681502,0.06687601,1.5,0.22955646,0.63284427,18.184246,0.0028023997,0.0077256914,-0.11971825,-0.43250203,-7.5205155e-12
91395244,-1.4206171,0.20259412,nan,0.07106941,0.07682268,1.5,0.13266584,0.12965572,17.362358,0.0016228898,0.0015860674,-0.11997854,-0.43627745,-2.591835e-12
91500832,-1.4206171,0.20259412,nan,0.07262885,0.08993839,1.5,0.47434914,0.550285,16.841839,0.0057885353,0.006715189,-0.119672045,-0.43328506,-8.034024e-13
91596515,-1.4206171,0.20259412,nan,0.079765566,0.09731512,1.5,0.3815796,-0.09263572,16.015257,0.004665528,-0.0011326459,-0.119903915,-0.44019622,-2.773997e-13
91702132,-1.4206171,0.20259412,nan,0.09970189,0.10353623,1.5,0.67448395,0.4477181,15.383395,0.008225407,0.0054599727,-0.11959319,-0.4421103,-8.5963165e-14
91797491,-1.4206171,0.20259412,nan,0.11824412,0.100449145,1.5,0.65555346,0.0017718896,15.049115,0.008003906,2.1633688e-05,-0.11973277,-0.4423756,-2.9665964e-14
91892756,-1.4206171,0.20259412,nan,0.13507085,0.09848727,1.5,0.34519058,0.43458998,14.091543,0.0042171637,0.005309348,-0.11980829,-0.45137507,-1.1586467e-14
91998895,-1.4206171,0.20259412,nan,0.14377832,0.095452376,1.5,-0.03998196,-0.08812811,13.46462,-0.0004895703,-0.0010791094,-0.11999415,-0.45619005,-3.1588933e-15
92093937,-1.4206171,0.20259412,nan,0.14451784,0.094484195,1.5,0.5698186,0.5454959,12.787769,0.006950158,0.00665349,-0.119613655,-0.45007533,-1.2322234e-15
92200137,-1.4206171,0.20259412,nan,0.14414547,0.08995313,1.5,0.4146884,-0.03361021,11.639572,0.0050697764,-0.0004109019,-0.11989215,-0.45304465,-3.3672373e-16
92295301,-1.4206171,0.20259412,nan,0.14630763,0.08492154,1.5,0.5656692,0.3680135,11.352245,0.0069054654,0.004492563,-0.119716875,-0.45707822,-1.1645223e-16
92401368,-1.4206171,0.20259412,nan,0.15688404,0.07995726,1.5,0.5958687,0.033060066,11.033018,0.007277832,0.00040378966,-0.11977842,-0.4583335,-3.5927253e-17
92496923,nan,nan,nan,nan,nan,nan,0.0,0.0,100.0,-0.0,-0.0,-0.12,-0.45901087,0.0
92602731,-1.4206171,0.20259412,nan,0.17956768,0.07762008,1.5,0.338886,-0.10080951,4.444155,0.004144071,-0.0012327502,-0.11992209,-0.4651454,-3.8268605e-18
92698225,-1.4206171,0.20259412,nan,0.18456818,0.076659776,1.5,0.59572154,0.81134975,4.233451,0.007251533,0.009876309,-0.11937283,-0.45934856,-1.3185314e-18
92793287,-1.4206171,0.20259412,nan,0.19665024,0.07905633,1.5,0.3403359,-0.053300172,3.7897274,0.0041618743,-0.00065179315,-0.119926035,-0.46250504,-5.167188e-19
92899404,-1.4206171,0.20259412,nan,0.21059173,0.07590872,1.5,0.71456766,0.38877755,3.4631333,0.008714068,0.0047410964,-0.11958924,-0.46419495,-1.406264e-19
92994669,-1.4206171,0.20259412,nan,0.22599924,0.07434671,1.5,0.4286571,0.060816437,2.6344802,0.0052401405,0.00074345357,-0.119883224,-0.46678758,-5.506958e-20
93100477,-1.4206171,0.20259412,nan,0.24184513,0.07247189,1.5,0.8053812,0.505018,2.1223986,0.009809091,0.0061508366,-0.119440146,-0.46724808,-1.5022227e-20
93195924,-1.4206171,0.20259412,nan,0.25557053,0.07150776,1.5,0.47323784,-0.14149515,1.5386078,0.005926324,-0.001771934,-0.12280995,-0.4735908,-5.1782787e-21
93301886,-1.4206171,0.20259412,nan,0.26877886,0.06153787,1.5,0.84506637,0.30877388,1.4872624,0.010615238,0.0038786398,-0.12318581,-0.47866678,-1.6000108e-21
93397221,-1.4206171,0.20259412,nan,0.28317153,0.05471485,1.5,0.39965934,-0.38901204,0.9341792,0.0053578643,-0.005215126,-0.13146596,-0.48164684,-5.515536e-22
93492493,-1.4206171,0.20259412,nan,0.2922729,0.045947257,1.5,0.8665009,0.5212085,1.3665805,0.011110684,0.0066831824,-0.12574524,-0.47546768,-2.1550203e-22
93598869,-1.4206171,0.20259412,nan,0.30269328,0.04436006,1.4779721,0.570084,0.035490975,0.09556723,0.008519092,0.00053036195,-0.14654358,-0.48192483,-5.854869e-23
93693951,-1.4206171,0.20259412,nan,0.31231114,0.043982107,1.3994716,0.58311033,0.27694148,-0.46297282,0.00934208,0.004436913,-0.15711099,-0.48789108,-2.2972698e-23
93800346,-1.4206171,0.20259412,nan,0.308142,0.049069326,1.2133912,0.4518068,0.4582315,-0.48061413,0.0072871926,0.0073908167,-0.15817311,-0.486859,-6.229022e-24
93895187,-1.4206171,0.20259412,nan,0.29926375,0.061375014,1.1109698,0.4461962,0.090650454,0.53548366,0.0064901058,0.001318548,-0.14264418,-0.4778123,-2.159997e-24
94001017,-1.4206171,0.20259412,nan,0.27961034,0.08127455,1.0816286,0.2774888,0.88226426,1.2973589,0.0037095307,0.0117943,-0.1310971,-0.4778123,-6.6793193e-25
94096385,-1.4206171,0.20259412,nan,0.25455606,0.10396674,1.1319386,0.124999925,0.25299683,1.7544358,0.0015879776,0.0032140282,-0.124579705,-0.48454624,-2.3036863e-25
94202372,-1.4206171,0.20259412,nan,0.22302838,0.122751534,1.2732146,0.20321976,0.9121022,2.8999887,0.0024755225,0.011110778,-0.11945887,-0.48541677,-7.112625e-26
94297725,-1.4206171,0.20259412,nan,0.19446374,0.13659436,1.4122252,-0.09568673,0.07808706,2.398252,-0.0011706307,0.0009553164,-0.11999048,-0.45600078,-2.45411e-26
94392971,-1.4206171,0.20259412,nan,0.16275476,0.1567703,1.4749016,0.007561803,1.0101411,1.3387027,9.983977e-05,0.0133370655,-0.12947921,-0.45600078,-9.5931865e-27
94498952,-1.4206171,0.20259412,nan,0.1236026,0.18602137,1.4673336,-0.37272772,0.19557527,-0.14942455,-0.005847038,0.0030680199,-0.1538389,-0.46585158,-2.6182097e-27
94594235,-1.4206171,0.20259412,nan,0.08568304,0.20628114,1.4170319,0.18117675,0.9634472,-0.06276199,0.0028442214,0.015124773,-0.15395014,-0.47853437,-1.0226104e-27
94700164,-1.4206171,0.20259412,nan,0.052979045,0.23767607,1.3807584,0.026944458,0.28634912,-0.09609541,0.00042441115,0.0045103803,-0.15445586,-0.4666176,-2.7921408e-28
94795630,-1.4206171,0.20259412,nan,0.028181743,0.26497552,1.357681,0.28432325,1.3324775,-0.21885374,0.0045291637,0.021225872,-0.15621665,-0.47569266,-9.622642e-29
94901840,-1.4206171,0.20259412,nan,0.006018722,0.3027592,1.3316425,-0.07430094,0.6434717,-0.34952843,-0.0011893989,0.010300605,-0.15698536,-0.47539595,-2.965503e-29
94996924,-1.4206171,0.20259412,nan,-0.016402733,0.3317485,1.3089685,0.25806397,1.2019174,0.11522992,0.003929611,0.018301925,-0.14932825,-0.47418407,-1.0258217e-29
95103118,-1.4206171,0.20259412,nan,-0.035236467,0.35891843,1.2854971,0.26021117,0.24756908,-0.23688777,0.004105129,0.0039056854,-0.1547176,-0.45712987,-3.1618334e-30
95198169,-1.4206171,0.20259412,nan,-0.04395855,0.3703989,1.2650425,0.19987077,0.9524288,1.0908977,0.0027303377,0.0130106695,-0.13396336,-0.46512875,-1.0940077e-30
95293451,-1.4206171,0.20259412,nan,-0.055937104,0.37905553,1.2522746,-0.29807377,1.1699165,2.8827026,-0.0036200625,0.014208466,-0.119100854,-0.46064636,-4.27585e-31
95399704,-1.4206171,0.20259412,nan,-0.06739143,0.39097208,1.2412742,0.008217513,0.5284029,3.3361747,0.00010040775,0.006456425,-0.11982614,-0.46202597,-1.1624276e-31
95494937,-1.4206171,0.20259412,nan,-0.07484241,0.39399612,1.232419,-0.07550307,1.0868198,2.7997668,-0.0009182528,0.013217678,-0.119266294,-0.47561142,-4.0145442e-32
95600816,-1.4206171,0.20259412,nan,-0.075099714,0.39657298,1.2205019,-0.3797871,0.5825716,2.2115922,-0.0046355636,0.0071106884,-0.11969941,-0.48580196,-1.2408214e-32
95696068,-1.4206171,0.20259412,nan,-0.07082672,0.38999543,1.20677,-0.040337697,0.9148972,1.703606,-0.000507556,0.011511852,-0.12339278,-0.48344526,-4.2850244e-33
95802066,-1.4206171,0.20259412,nan,-0.054611865,0.37671712,1.1906624,0.071025215,0.08356711,1.3164495,0.0009399811,0.0011059665,-0.12978989,-0.48768458,-1.3228931e-33
95897411,-1.4206171,0.20259412,nan,-0.031060528,0.35739967,1.174541,0.732586,0.6884037,1.0560137,0.010030798,0.00942584,-0.13427562,-0.48550943,-4.5640533e-34
95992623,-1.4206171,0.20259412,nan,-0.0011762023,0.3291547,1.1598822,0.48250255,0.016978025,0.32867587,0.0071851886,0.00025282832,-0.14603703,-0.48550943,-1.7833817e-34
96098700,-1.4206171,0.20259412,nan,0.038572434,0.2908299,1.1362926,0.8727006,0.7388209,0.080518425,0.0133725125,0.011321056,-0.15026838,-0.5055757,-4.86435e-35
96193930,-1.4206171,0.20259412,nan,0.07399916,0.2578796,1.118632,0.08488992,-0.19028184,-0.48794705,0.0013813715,-0.0030963619,-0.15958981,-0.5177513,-1.8984202e-35
96299945,-1.4206171,0.20259412,nan,0.10022419,0.21701258,1.0914185,0.37250143,0.39785182,-0.44617012,0.006057329,0.0064695575,-0.15947184,-0.48159194,-5.1890876e-36
96395284,-1.4206171,0.20259412,nan,0.11230705,0.18097624,1.0699786,0.1303517,-0.18954574,-1.2297963,0.002285433,-0.003323271,-0.17193912,-0.49193645,-1.79063e-36
96501304,-1.4206171,0.20259412,nan,0.117752954,0.13830909,1.0446601,0.5044833,0.29670197,-0.9833228,0.008660176,0.0050933133,-0.168344,-0.49219316,-5.527035e-37
96596611,-1.4206171,0.20259412,nan,0.13042833,0.103362486,1.0233246,0.6270155,-0.51115817,-0.88932395,0.010660276,-0.008690514,-0.16672897,-0.4966985,-1.908007e-37
96702493,-1.4206171,0.20259412,nan,0.15257119,0.06729096,1.00167,0.70647955,0.065424815,-0.7327168,0.011874297,0.0010996406,-0.1648266,-0.5006576,-5.8969184e-38
96797964,-1.4206171,0.20259412,nan,0.1768146,0.030822493,0.9829019,0.6054764,-0.73961866,-0.79286337,0.010219052,-0.012483067,-0.1655138,-0.5009197,-2.0324544e-38
96893591,-1.4206171,0.20259412,nan,0.2017085,-0.0049323686,0.9655982,0.8817563,-0.037117794,-0.8824614,0.014935972,-0.00062873424,-0.1661155,-0.50158477,-7.944037e-39
96999164,-1.4206171,0.20259412,nan,0.2310507,-0.03447304,0.9430205,0.4497719,-0.13565776,-0.83990234,0.0076390347,-0.002304044,-0.16656123,-0.4991935,-2.167617e-39
97094600,-1.4206171,0.20259412,nan,0.25051162,-0.049488477,0.9270238,0.517014,0.28822568,-0.41345364,0.008451596,0.0047116075,-0.16030857,-0.4891535,-8.46562e-40
97200445,-1.4206171,0.20259412,nan,0.26835963,-0.060396887,0.9081604,0.7817414,-0.028711077,0.9851257,0.010985415,-0.0004034622,-0.13780834,-0.4891408,-2.31116e-40
97295796,-1.4206171,0.20259412,nan,0.28260395,-0.065205544,0.89854527,0.2539278,0.19061927,2.2003942,0.0031054358,0.002331198,-0.11993715,-0.51115423,-7.9728e-41
97401799,-1.4206171,0.20259412,nan,0.2798169,-0.050209448,0.89209545,0.47990376,0.21996462,1.7951791,0.0060502025,0.0027731198,-0.12363264,-0.51115423,-2.4612e-41
97497176,-1.4206171,0.20259412,nan,0.2717487,-0.037725676,0.8843455,0.4817606,0.038569525,1.6307405,0.006194439,0.00049592386,-0.12609439,-0.51341414,-8.49e-42
97592372,-1.4206171,0.20259412,nan,0.2644686,-0.023244703,0.8772929,0.56876636,0.61211205,1.052109,0.00783505,0.008432159,-0.13509043,-0.5163466,-3.31e-42
97698460,-1.4206171,0.20259412,nan,0.25089586,-0.0051987437,0.86439085,0.4337503,0.07395144,0.5359127,0.0063397074,0.0010808764,-0.14333135,-0.52015305,-9.05e-43
97793953,-1.4206171,0.20259412,nan,0.2403507,0.016568912,0.8541174,0.55717057,0.5462727,0.67915094,0.008018135,0.007861307,-0.14112465,-0.52402794,-3.53e-43
97899952,-1.4206171,0.20259412,nan,0.21954112,0.041368876,0.8404612,0.014960706,0.6395949,1.1086125,0.00020448674,0.008742146,-0.13404118,-0.53043234,-9.7e-44
97995386,-1.4206171,0.20259412,nan,0.19249888,0.07548272,0.8310277,0.036907032,0.62179965,0.9501085,0.00051091297,0.008607723,-0.13575493,-0.53043234,-3.5e-44
98101060,-1.4206171,0.20259412,nan,0.16061153,0.10765378,0.8203217,0.36108103,0.6538578,1.364231,0.0047722915,0.008641828,-0.12961106,-0.53613526,-1.1e-44
98196745,-1.4206171,0.20259412,nan,0.13255231,0.13363022,0.8111136,-0.41098607,0.43701982,1.1052027,-0.005577988,0.005931323,-0.13309921,-0.5416842,-4e-45
98302282,-1.4206171,0.20259412,nan,0.09468451,0.15697703,0.80082667,0.04472509,1.1770365,1.014104,0.0006138927,0.0161559,-0.13460496,-0.5584396,-3e-45
98397690,-1.4206171,0.20259412,nan,0.068652116,0.17669435,0.7904967,-0.09994843,0.4628077,-0.26118088,-0.0015746412,0.007291321,-0.15450074,-0.5584396,-3e-45
98492878,-1.4206171,0.20259412,nan,0.050387572,0.17814086,0.77896875,0.8790488,0.36894023,-0.27274466,0.013815118,0.0057982593,-0.15412095,-0.57756656,-3e-45
98598862,-1.4206171,0.20259412,nan,0.054258306,0.1786974,0.76295394,0.2882005,-0.011253864,-0.29545626,0.00455638,-0.00017792085,-0.15504436,-0.56820804,-3e-45
98694236,-1.4206171,0.20259412,nan,0.060803067,0.17818658,0.75075996,0.27909133,0.6738294,-0.05601523,0.0042917593,0.010361889,-0.15080371,-0.5653188,-3e-45
98800197,-1.4206171,0.20259412,nan,0.07358489,0.17868312,0.7352684,0.37659895,0.23804887,-0.7673818,0.0062097604,0.0039252,-0.16169856,-0.56866986,-3e-45
98895529,-1.4206171,0.20259412,nan,0.094221324,0.17308573,0.72066087,1.0326169,0.68780184,-0.5134488,0.016515119,0.011000332,-0.1568423,-0.5758254,-3e-45
99001413,-1.4206171,0.20259412,nan,0.11475197,0.16209921,0.7058962,0.033612996,0.54601187,0.29003966,0.00049333484,0.008013766,-0.14393002,-0.58484817,-3e-45
99097129,-1.4206171,0.20259412,nan,0.12131021,0.15526,0.7,0.47191545,0.5579784,0.21124469,0.0069758534,0.008248036,-0.14496139,-0.58484817,-3e-45
99202749,-1.4206171,0.20259412,nan,0.12274236,0.14276722,0.7,0.5619517,0.23872194,0.09033859,0.00843293,0.003582382,-0.14716557,-0.5882483,-3e-45
99298400,-1.4206171,0.20259412,nan,0.12651514,0.13744426,0.7,0.56542355,0.4457373,0.029291913,0.008565642,0.006752507,-0.14856163,-0.5979601,-3e-45
99393443,-1.4206171,0.20259412,nan,0.12029245,0.13213561,0.7,-0.1753023,0.59091926,0.24947734,-0.0025898865,0.0087301405,-0.14488381,-0.60770845,-3e-45
99500101,-1.4206171,0.20259412,nan,0.10775829,0.13461618,0.7,0.05598492,0.27235752,-0.16259825,0.0008602908,0.0041851746,-0.15067878,-0.60770845,-3e-45
99594763,-1.4206171,0.20259412,nan,0.091170736,0.1315252,0.7,0.75963753,0.21902552,0.21250786,0.011239876,0.0032407823,-0.14510298,-0.62469447,-3e-45
99700741,-1.4206171,0.20259412,nan,0.08005231,0.13798402,0.7,0.29883957,0.31408203,-0.09751056,0.00456746,0.0048004254,-0.1498868,-0.62686044,-3e-45
99796067,-1.4206171,0.20259412,nan,0.05957398,0.1474437,0.7,-0.100367576,0.651855,0.57899046,-0.001424744,0.009253253,-0.13921039,-0.63412845,-3e-45
99902009,-1.4206171,0.20259412,nan,0.033859927,0.16726214,0.7,-0.0947879,0.25670204,0.4094255,-0.0013658345,0.003698916,-0.14129438,-0.63412845,-3e-45
99997375,-1.4206171,0.20259412,nan,0.01716218,0.17297858,0.7,0.4125871,0.5676302,0.6775722,0.0057648593,0.007931193,-0.1370229,-0.6441625,-3e-45
100092709,-1.4206171,0.20259412,nan,0.010011422,0.17516299,0.7,-0.1736327,-0.038919,0.79773206,-0.002398819,-0.0005376846,-0.13546324,-0.6307447,-3e-45
100199066,-1.4206171,0.20259412,nan,-0.0095202625,0.18117556,0.7,-0.05304763,0.6966586,0.8526165,-0.00072628143,0.009538036,-0.13426396,-0.6307447,-3e-45
100293960,-1.4206171,0.20259412,nan,-0.031515334,0.19128925,0.7,-0.10703129,0.2609092,0.057803914,-0.0015937965,0.003885183,-0.14602777,-0.6348371,-3e-45
100400333,-1.4206171,0.20259412,nan,-0.04621662,0.19464667,0.7,0.48775578,0.6632515,0.095615745,0.0072465767,0.0098539125,-0.14569612,-0.6377356,-3e-45
100495267,-1.4206171,0.20259412,nan,-0.05699315,0.18882298,0.7,-0.13300507,0.08093099,-0.10873523,-0.0020245784,0.0012319166,-0.14923923,-0.63596284,-3e-45
100601550,-1.4206171,0.20259412,nan,-0.074130304,0.19067968,0.7,-0.0908736,0.70279443,-0.28849643,-0.00140867,0.0108943125,-0.15201777,-0.64007396,-3e-45
100696544,-1.4206171,0.20259412,nan,-0.09441067,0.193984,0.7,-0.080569245,0.20441294,-1.0240203,-0.0013476185,0.003419055,-0.16401581,-0.6513487,-3e-45
100802567,-1.4206171,0.20259412,nan,-0.09713759,0.19265716,0.7,0.5610599,0.6844164,-0.8993192,0.009298804,0.011343271,-0.16253376,-0.6491054,-3e-45
100897889,-1.4206171,0.20259412,nan,-0.08757237,0.1841546,0.7,0.3527343,-0.12207407,-0.76652884,0.005772087,-0.0019976003,-0.16047126,-0.60576296,-3e-45
100993180,-1.4206171,0.20259412,nan,-0.073936194,0.17273785,0.7,0.51351726,0.38901275,-0.8395302,0.008472505,0.0064183096,-0.16179949,-0.61098063,-3e-45
101099077,-1.4206171,0.20259412,nan,-0.06566472,0.15732478,0.7,0.0704817,0.0662545,-1.1066265,0.0011936526,0.0011220621,-0.16619878,-0.58845055,-3e-45
101194509,-1.4206171,0.20259412,nan,-0.05801307,0.14516962,0.7,0.5323769,0.6095856,-1.4371848,0.009322091,0.01067404,-0.17171589,-0.58845055,-3e-45
101300406,-1.4206171,0.20259412,nan,-0.04662941,0.124582596,0.7,0.23334047,-0.056729928,-1.645998,0.0041740434,-0.0010147969,-0.17543648,-0.58845055,-3e-45
101395846,-1.4206171,0.20259412,nan,-0.039223615,0.106329784,0.7,0.48384368,0.21279907,-1.4018272,0.008506569,0.0037412706,-0.1724133,-0.5935432,-3e-45
101502012,nan,nan,nan,-0.0427264,0.08715224,0.7,0.11132425,0.39423043,-1.2402881,0.0019360927,0.0068562482,-0.17054868,-0.5829866,-3e-45
101597087,nan,nan,nan,-0.019032689,0.049640246,0.7,0.13794476,-0.037067115,-1.7978941,0.002522042,-0.0006776975,-0.1792634,-0.6045324,-3e-45
101692398,nan,nan,nan,0.0061629503,0.010908511,0.7,0.0769674,-0.52971,-1.5646629,0.0013773117,-0.009479023,-0.17549151,-0.6020866,-3e-45
101798317,nan,nan,nan,0.008925226,-0.0046928893,0.7,0.29831645,0.15125546,-0.811661,0.004957202,0.0025134513,-0.16296472,-0.60034037,-3e-45
101893666,nan,nan,nan,0.015922382,-0.010490863,0.7,0.43622655,0.48818377,-0.19945812,0.00683343,0.0076473337,-0.15361834,-0.600579,-3e-45
101999954,nan,nan,nan,0.03288216,-0.022501063,0.7,0.30209544,-0.1111217,-0.39675206,0.004834428,-0.0017782786,-0.15692882,-0.60419333,-3e-45
102095058,nan,nan,nan,0.062490795,-0.04323353,0.7,0.89434934,0.106705114,0.0036720932,0.013739691,0.001639287,-0.15065812,-0.6080665,-3e-45
102200900,nan,nan,nan,0.097140305,-0.067362376,0.7,0.4500247,-0.47878006,-0.53147674,0.0073221135,-0.007789977,-0.1595587,-0.60615766,-3e-45
102296384,nan,nan,nan,0.08729386,-0.060420662,0.7,0.06932306,1.0214151,-0.65996957,0.0011451973,0.016873488,-0.16200316,-0.5901649,-3e-45
102402198,nan,nan,nan,0.05711765,-0.039534125,0.7,-0.40972373,0.38791168,-1.0582316,-0.0070412313,0.006666384,-0.16852951,-0.6152577,-3e-45
102501557,nan,nan,nan,0.03247243,-0.022475876,0.7,-0.10530654,0.7174922,-0.97214204,-0.0018001011,0.012264752,-0.16763371,-0.6087122,-3e-45
102592856,nan,nan,nan,0.016727071,-0.011577684,0.7,0.23911257,-0.31895164,-1.2486733,0.0041995905,-0.005601823,-0.17224011,-0.6124018,-3e-45
102698918,nan,nan,nan,0.002420686,-0.001675484,0.7,1.1652185,-0.30538076,0.05164224,0.018040312,-0.0047280104,-0.15183026,-0.6407298,-3e-45
102794128,-1.3677031,0.25129855,nan,0.017664324,-0.016106615,0.7,0.3707909,0.07119325,2.2639022,0.004533911,0.00087052793,-0.11991116,-0.64106566,-3e-45
102900190,-1.3677031,0.25129855,nan,0.03974071,-0.034612805,0.7,0.45327035,0.19922991,2.5649407,0.005539496,0.0024348232,-0.11984734,-0.63650763,-3e-45
102995425,-1.3677031,0.25129855,nan,0.056255333,-0.053751543,0.7,0.7878014,-0.2625905,2.0876036,0.009605587,-0.0032017408,-0.11957207,-0.6401307,-3e-45
103101386,-1.3677031,0.25129855,nan,0.07998923,-0.077969745,0.7,0.8617735,-0.17275818,1.39574,0.011435525,-0.002292459,-0.13013104,-0.6487742,-3e-45
103196808,-1.3677031,0.25129855,nan,0.098974034,-0.1018302,0.7,0.6254773,-0.31497693,0.87174827,0.008823261,-0.004443204,-0.13833822,-0.64821,-3e-45
103302682,-1.3677031,0.25129855,nan,0.11869043,-0.12119411,0.7,0.4982317,0.25911582,0.43734425,0.0073474078,0.0038211728,-0.14461748,-0.6649929,-3e-45
103397988,-1.3677031,0.25129855,nan,0.12894511,-0.1393663,0.7,0.47996092,-0.3558932,-0.33829755,0.007667584,-0.005685548,-0.15666139,-0.6732761,-3e-45
103493737,-1.3677031,0.25129855,nan,0.14216985,-0.15930662,0.7,0.97307676,0.038300745,-0.16179042,0.015261355,0.0006006939,-0.15380277,-0.6780639,-3e-45
103599408,-1.3677031,0.25129855,nan,0.16076067,-0.17579855,0.7,0.42527008,-0.086611636,-0.20918593,0.006707492,-0.0013660656,-0.1546762,-0.67423767,-3e-45
103694847,-1.3677031,0.25129855,nan,0.17213696,-0.18098235,0.7,0.78111506,0.41542423,-0.35164812,0.0124738915,0.0066340505,-0.15660551,-0.672526,-3e-45
103800623,-1.3677031,0.25129855,nan,0.17821945,-0.18385355,0.7,0.62528336,-0.18865547,-0.18976462,0.009843997,-0.002970052,-0.15439051,-0.6772626,-3e-45
103896061,-1.3677031,0.25129855,nan,0.18342674,-0.1815112,0.7,0.68902165,0.082145326,0.043371275,0.010569406,0.0012600871,-0.15043029,-0.6866296,-3e-45
104001952,-1.3677031,0.25129855,nan,0.17804493,-0.17509814,0.7,0.45021567,0.40761364,-0.32334864,0.007165258,0.0064872387,-0.15607604,-0.6724564,-3e-45
104097323,-1.3677031,0.25129855,nan,0.17499243,-0.15692686,0.7,0.7107942,0.1862846,-0.73452234,0.011772239,0.0030852624,-0.1624184,-0.6782159,-3e-45
104192637,-1.3677031,0.25129855,nan,0.1624158,-0.14466266,0.7,0.17519195,0.037271455,-1.207972,0.003046475,0.0006481265,-0.17055105,-0.67963874,-3e-45
104298661,-1.3677031,0.25129855,nan,0.15105762,-0.12888047,0.7,0.5107664,0.13564563,-1.2090765,0.008910184,0.0023663016,-0.17107746,-0.6780866,-3e-45
104393869,-1.3677031,0.25129855,nan,0.1444842,-0.12425675,0.7,0.3977288,0.14777671,-0.4734456,0.0065012826,0.002415561,-0.1602999,-0.67499375,-3e-45
104499929,-1.3677031,0.25129855,nan,0.14118527,-0.1184594,0.7,0.14970659,-0.01973629,-0.7483802,0.0025193905,-0.00033213914,-0.1650575,-0.67197627,-3e-45
104595533,-1.3677031,0.25129855,nan,0.13043988,-0.116943054,0.7,0.50825226,0.26395953,-0.74073577,0.008539212,0.0044348184,-0.16476248,-0.6713842,-3e-45
104701200,-1.3677031,0.25129855,nan,0.12272356,-0.11175937,0.7,0.12886092,-0.14431599,-0.8946146,0.0022095533,-0.0024745583,-0.16813035,-0.6698541,-3e-45
104796746,-1.3677031,0.25129855,nan,0.115820475,-0.114332445,0.7,0.41677293,0.40706474,-0.39294773,0.0068019107,0.0066434685,-0.16004778,-0.6711851,-3e-45
104902492,-1.3677031,0.25129855,nan,0.10847176,-0.1135177,0.7,0.09909112,-0.027276583,-0.43501645,0.0016258939,-0.000447556,-0.16084738,-0.6785972,-3e-45
104997742,-1.3677031,0.25129855,nan,0.09739671,-0.11481452,0.7,0.58507806,0.09850854,0.33533072,0.008870729,0.0014935485,-0.14868578,-0.6790325,-3e-45
105093136,-1.3677031,0.25129855,nan,0.083515234,-0.11781774,0.7,0.45090857,0.057464413,0.60586214,0.006634472,0.00084550626,-0.14429404,-0.68148243,-3e-45
105199068,-1.3677031,0.25129855,nan,0.06981858,-0.11312238,0.7,-0.23734348,0.32700697,0.16154853,-0.0036655008,0.005050252,-0.15145245,-0.6984045,-3e-45
105294549,-1.3677031,0.25129855,nan,0.047821693,-0.1105802,0.7,0.15008684,0.71644694,0.08778042,0.0023372676,0.011157064,-0.1527192,-0.6868083,-3e-45
105400319,-1.3677031,0.25129855,nan,0.03730156,-0.10510793,0.7,0.041536264,-0.10065973,-0.217253,0.0006683268,-0.0016196353,-0.15773037,-0.6868083,-3e-45
105495788,-1.3677031,0.25129855,nan,0.038358282,-0.11448785,0.7,0.8418952,-0.084781185,-0.5077852,0.013919356,-0.0014017179,-0.1621362,-0.7075682,-3e-45
105601653,-1.3677031,0.25129855,nan,0.066795625,-0.12876748,0.7,0.64796877,-0.26302347,-0.5391599,0.010777152,-0.004374661,-0.16310756,-0.67739266,-3e-45
105697344,-1.3677031,0.25129855,nan,0.09655142,-0.15179487,0.7,1.0024557,0.045777082,0.03222338,0.015753834,0.000719398,-0.15411423,-0.67739266,-3e-45
105802916,-1.3677031,0.25129855,nan,0.13228719,-0.17408465,0.7,0.8655714,-0.37130976,-0.5434914,0.014366731,-0.00616299,-0.16277061,-0.67739266,-3e-45
105898672,-1.3677031,0.25129855,nan,0.16295521,-0.19725731,0.7,0.77333534,-0.12604582,0.23519064,0.011848649,-0.0019312097,-0.15025301,-0.67998344,-3e-45
105993616,-1.3677031,0.25129855,nan,0.17667145,-0.21200797,0.7,0.31523225,0.13206941,1.0098393,0.004438111,0.0018593868,-0.1380731,-0.7161995,-3e-45
106100196,-1.3677031,0.25129855,nan,0.17732795,-0.21238373,0.7,0.5371442,-0.107926145,1.0757854,0.007501724,-0.0015072902,-0.13696124,-0.7161995,-3e-45
106195001,-1.3677031,0.25129855,nan,0.16873644,-0.21351175,0.7,0.3665648,0.29145348,1.1726011,0.005055135,0.0040193074,-0.13524425,-0.7161995,-3e-45
106300895,-1.3677031,0.25129855,nan,0.1518233,-0.2027742,0.7,-0.12684499,0.114374004,1.3140213,-0.001720767,0.0015515869,-0.13300763,-0.7161995,-3e-45
106396227,-1.3677031,0.25129855,nan,0.12656213,-0.18311206,0.7,0.45333406,0.8020234,1.3303115,0.0061419574,0.010866146,-0.13286395,-0.7161995,-3e-45
106502208,-1.3677031,0.25129855,nan,0.10242314,-0.14813922,0.7,-0.11170362,0.05626774,0.9206818,-0.0015903043,0.00080107356,-0.13968638,-0.7161995,-3e-45
106597551,-1.3677031,0.25129855,nan,0.08183337,-0.1256443,0.7,0.43095207,0.3833026,1.4583392,0.0057616793,0.0051246225,-0.13111155,-0.7161995,-3e-45
106692828,-1.3677031,0.25129855,nan,0.06316793,-0.1052726,0.7,-0.112966076,0.41055217,1.1222919,-0.0015685364,0.005700526,-0.13616167,-0.7161995,-3e-45
106799165,-1.3677031,0.25129855,nan,0.03879078,-0.06680355,0.7,0.067342445,0.6363234,0.9248068,0.00095644733,0.009037537,-0.13928445,-0.7161995,-3e-45
106894166,nan,nan,nan,nan,nan,nan,0.0,0.0,100.0,-0.0,-0.0,-0.001,-0.7457451,0.0
107000541,nan,nan,nan,nan,nan,nan,0.0,0.0,100.0,-0.0,-0.0,-0.001,-0.7614832,0.0
107095490,nan,nan,nan,nan,nan,nan,0.0,0.0,100.0,-0.0,-0.0,-0.001,-0.8019862,0.0
107201441,nan,nan,nan,nan,nan,nan,0.0,0.0,100.0,-0.0,-0.0,-0.001,-0.87510586,0.0
107296858,nan,nan,nan,nan,nan,nan,0.0,0.0,100.0,-0.0,-0.0,-0.001,-0.9639831,0.0
107402657,nan,nan,nan,nan,nan,nan,0.0,0.0,100.0,-0.0,-0.0,-0.001,-0.87719625,0.0
107498147,nan,nan,nan,nan,nan,nan,0.0,0.0,100.0,-0.0,-0.0,-0.001,-0.74662143,0.0
107593389,nan,nan,nan,nan,nan,nan,0.0,0.0,100.0,-0.0,-0.0,-0.001,-0.8047434,0.0
107699424,nan,nan,nan,nan,nan,nan,0.0,0.0,100.0,-0.0,-0.0,-0.001,-0.88261336,0.0
107797395,nan,nan,nan,nan,nan,nan,0.0,0.0,100.0,-0.0,-0.0,-0.001,-0.91206753,0.0
