timestamp,roll,pitch,yaw,thrust_body[0],thrust_body[1],thrust_body[2],reset_integral
80397721,-0.072769865,-0.013806529,0.00056386465,0.0,0.0,-0.001,0
80403110,-0.07217678,-0.014445209,-0.00021140094,0.0,0.0,-0.001,0
80418981,-0.0718461,-0.014656934,0.00041740877,0.0,0.0,-0.001,0
80440129,-0.072029494,-0.015370878,2.0385218e-05,0.0,0.0,-0.001,0
80519716,-0.07199625,-0.014179975,0.00036791933,0.0,0.0,-0.001,0
80540778,-0.07195113,-0.012934209,-0.00061997527,0.0,0.0,-0.001,0
80561985,-0.07227731,-0.010806752,0.00027361757,0.0,0.0,-0.001,0
80577871,-0.07176988,-0.014480499,0.00060556346,0.0,0.0,-0.001,0
80599045,-0.070985265,-0.0137261115,0.0002626443,0.0,0.0,-0.001,0
80620295,-0.07193768,-0.013549698,-5.2191182e-05,0.0,0.0,-0.001,0
80641555,-0.071781136,-0.013455402,-0.0005381376,0.0,0.0,-0.001,0
80657403,-0.07154258,-0.013592223,9.596318e-05,0.0,0.0,-0.001,0
80678629,-0.07242115,-0.013893133,0.00045795616,0.0,0.0,-0.001,0
80699742,-0.07129981,-0.013648748,-0.0006267693,0.0,0.0,-0.001,0
80720961,-0.07036874,-0.011911302,-0.0005921972,0.0,0.0,-0.001,0
80742096,-0.07087612,-0.009755259,0.00029703748,0.0,0.0,-0.001,0
80757917,-0.070532314,-0.011760856,0.0015333976,0.0,0.0,-0.001,0
80779186,-0.0702247,-0.010087497,-0.00084807473,0.0,0.0,-0.001,0
80800337,-0.07160035,-0.009997045,-0.00089716737,0.0,0.0,-0.001,0
80821536,-0.07152295,-0.010609507,0.0005175004,0.0,0.0,-0.001,0
80837410,-0.06998819,-0.009730344,-0.00014613787,0.0,0.0,-0.001,0
80858630,-0.070159815,-0.009719636,-0.0014849709,0.0,0.0,-0.001,0
80879854,-0.07217327,-0.009795353,0.00043449516,0.0,0.0,-0.001,0
80900968,-0.07219738,-0.011212365,6.140448e-05,0.0,0.0,-0.001,0
80922251,-0.07024667,-0.012640753,-0.00013787912,0.0,0.0,-0.001,0
80938130,-0.0723709,-0.009967347,-0.0001493833,0.0,0.0,-0.001,0
80959273,-0.0730509,-0.012302557,0.0013726102,0.0,0.0,-0.001,0
80980494,-0.07192907,-0.013277328,0.00038044347,0.0,0.0,-0.001,0
81001641,-0.07287238,-0.013918944,-0.0003341123,0.0,0.0,-0.001,0
81017555,-0.0730463,-0.010630398,-6.425044e-05,0.0,0.0,-0.001,0
81038682,-0.072613165,-0.013318053,0.0008228499,0.0,0.0,-0.001,0
81059910,-0.0722381,-0.013545048,-0.00054315146,0.0,0.0,-0.001,0
81081148,-0.0725754,-0.012536516,-0.00014921995,0.0,0.0,-0.001,0
81102380,-0.072210185,-0.009963341,0.000518538,0.0,0.0,-0.001,0
81118215,-0.071954064,-0.012735949,-0.00047708367,0.0,0.0,-0.001,0
81139367,-0.07087551,-0.01264291,0.00073795964,0.0,0.0,-0.001,0
81160542,-0.068941504,-0.009117128,0.0010498088,0.0,0.0,-0.001,0
81181734,-0.068419166,-0.0066528735,-0.0012644294,0.0,0.0,-0.001,0
81197661,-0.06664569,-0.012014399,0.00035710668,0.0,0.0,-0.001,0
81218815,-0.065530255,-0.006721777,-0.0003619529,0.0,0.0,-0.001,0
81240036,-0.06629256,-0.0057391236,-0.00072773104,0.0,0.0,-0.001,0
81261187,-0.06386218,-0.0053963345,0.0001611648,0.0,0.0,-0.001,0
81282364,-0.06230511,-0.0033474742,-0.000490819,0.0,0.0,-0.001,0
81298271,-0.06360027,-0.002920062,-0.000878206,0.0,0.0,-0.001,0
81319745,-0.063008636,-0.00254267,0.00015949988,0.0,0.0,-0.001,0
81340714,-0.062458146,-0.0050513917,0.000116552284,0.0,0.0,-0.001,0
81361924,-0.065194964,-0.0053445455,-0.00046262835,0.0,0.0,-0.001,0
81377719,-0.06520489,-0.006200823,0.00059676217,0.0,0.0,-0.001,0
81398922,-0.061114553,-0.0057112575,0.00042420416,0.0,0.0,-0.001,0
81420215,-0.06203908,-0.0077163987,-0.0015820704,0.0,0.0,-0.001,0
81441290,-0.06666176,-0.008334765,0.0009409134,0.0,0.0,-0.001,0
81462436,-0.06548954,-0.0077992193,-0.0010769352,0.0,0.0,-0.001,0
81478458,-0.063093066,-0.010548787,-0.00017185253,0.0,0.0,-0.001,0
81499699,-0.06421536,-0.010432746,0.0010744866,0.0,0.0,-0.001,0
81520839,-0.06608521,-0.008083954,-0.0007477137,0.0,0.0,-0.001,0
81541960,-0.065285906,-0.009063707,0.000719137,0.0,0.0,-0.001,0
81557798,-0.063854,-0.0114926305,0.0005973737,0.0,0.0,-0.001,0
81579018,-0.06634784,-0.010690526,-1.7281287e-05,0.0,0.0,-0.001,0
81600180,-0.06701958,-0.01083608,-0.00012255568,0.0,0.0,-0.001,0
81621378,-0.06551912,-0.008338086,0.00027716698,0.0,0.0,-0.001,0
81642548,-0.06614436,-0.0072268285,-0.00032660604,0.0,0.0,-0.001,0
81658588,-0.06534522,-0.009813726,-0.0010935373,0.0,0.0,-0.001,0
81679740,-0.0658994,-0.0067896354,-0.00028926186,0.0,0.0,-0.001,0
81700896,-0.06556567,-0.00512249,0.00015222085,0.0,0.0,-0.001,0
81722094,-0.06466133,-0.0061116396,-0.0007049513,0.0,0.0,-0.001,0
81737867,-0.06391105,-0.004095511,-1.4105781e-05,0.0,0.0,-0.001,0
81759134,-0.062265348,-0.0044113244,-0.0002767044,0.0,0.0,-0.001,0
81780307,-0.06318916,-0.0050061373,9.838698e-05,0.0,0.0,-0.001,0
81801524,-0.063873425,-0.0053674653,-0.00013912763,0.0,0.0,-0.001,0
81817412,-0.0634993,-0.0034606638,-0.00072332774,0.0,0.0,-0.001,0
81838589,-0.06161961,-0.003890316,0.0011322951,0.0,0.0,-0.001,0
81859882,-0.06105131,-0.0043215104,-0.0020094556,0.0,0.0,-0.001,0
81880958,-0.06289926,-0.004577718,0.0015335932,0.0,0.0,-0.001,0
81902177,-0.061434265,-0.003124326,0.00051827915,0.0,0.0,-0.001,0
81917981,-0.060805153,-0.0042026015,-0.0009936714,0.0,0.0,-0.001,0
81939285,-0.06282329,-0.005074382,0.0010837114,0.0,0.0,-0.001,0
81960433,-0.06351374,-0.0058019375,-0.0015062728,0.0,0.0,-0.001,0
81981556,-0.06451884,-0.0061267195,0.0010732781,0.0,0.0,-0.001,0
81997492,-0.06471716,-0.007270746,0.0021083364,0.0,0.0,-0.001,0
82018636,-0.063352756,-0.0073726573,-0.0020732125,0.0,0.0,-0.001,0
82040217,-0.062570155,-0.007523305,0.0022162523,0.0,0.0,-0.001,0
82061191,-0.064398974,-0.0092869,-0.00034962207,0.0,0.0,-0.001,0
82082364,-0.061933786,-0.01144437,-0.00041455583,0.0,0.0,-0.001,0
82098183,-0.06310829,-0.010549936,0.0006541166,0.0,0.0,-0.001,0
82119381,-0.06289735,-0.0109223,-0.0009379773,0.0,0.0,-0.001,0
82140459,-0.06160882,-0.013260503,0.0011594199,0.0,0.0,-0.001,0
82161724,-0.063263096,-0.013985499,0.00042524099,0.0,0.0,-0.001,0
82182902,-0.065447934,-0.012016389,6.0943297e-05,0.0,0.0,-0.001,0
82198796,-0.06497226,-0.015302118,0.0014436576,0.0,0.0,-0.001,0
82219968,-0.06760607,-0.014416723,-0.00043046757,0.0,0.0,-0.001,0
82241154,-0.06608855,-0.013045058,0.00025813593,0.0,0.0,-0.001,0
82262320,-0.067501575,-0.011932984,0.00084050954,0.0,0.0,-0.001,0
82278289,-0.068806395,-0.01503541,-0.00040985714,0.0,0.0,-0.001,0
82299675,-0.06802297,-0.014827084,0.00029214245,0.0,0.0,-0.001,0
82320619,-0.06716953,-0.0120770205,0.00027898664,0.0,0.0,-0.001,0
82341788,-0.06828157,-0.011141975,-0.0007908273,0.0,0.0,-0.001,0
82357704,-0.06810821,-0.014925205,-0.001042231,0.0,0.0,-0.001,0
82378911,-0.06911953,-0.012872314,0.00045562504,0.0,0.0,-0.001,0
82400077,-0.069809444,-0.012120523,-0.00024030887,0.0,0.0,-0.001,0
82421251,-0.06850045,-0.013788226,-0.00043027388,0.0,0.0,-0.001,0
82442438,-0.06921838,-0.01405956,0.0010349263,0.0,0.0,-0.001,0
82458397,-0.06969778,-0.011627799,-0.00020445287,0.0,0.0,-0.001,0
82479568,-0.06893556,-0.012875938,-0.000113643364,0.0,0.0,-0.001,0
82500791,-0.06804742,-0.014581656,0.00037439953,0.0,0.0,-0.001,0
82521963,-0.06883884,-0.01535286,0.0006535937,0.0,0.0,-0.001,0
82537834,-0.06898306,-0.011900972,0.00058896845,0.0,0.0,-0.001,0
82558978,-0.06860497,-0.013574551,-0.0002571992,0.0,0.0,-0.001,0
82580134,-0.06830877,-0.0147957215,0.00017116834,0.0,0.0,-0.001,0
82601329,-0.06866283,-0.015987314,0.0005061289,0.0,0.0,-0.001,0
82622499,-0.06881378,-0.01538301,-0.00018543504,0.0,0.0,-0.001,0
82638541,-0.06952888,-0.013736206,-0.00031884393,0.0,0.0,-0.001,0
82659728,-0.06787523,-0.014806245,-0.000118152384,0.0,0.0,-0.001,0
82680831,-0.06891422,-0.013636261,0.0003623982,0.0,0.0,-0.001,0
82702060,-0.06871738,-0.012911372,-0.00011202856,0.0,0.0,-0.001,0
82717978,-0.066508904,-0.0138659105,5.9720904e-05,0.0,0.0,-0.001,0
82739075,-0.06393896,-0.016078891,0.00010619803,0.0,0.0,-0.001,0
82760253,-0.06520325,-0.013559752,0.000256105,0.0,0.0,-0.001,0
82781472,-0.066780716,-0.011273257,-0.00022851968,0.0,0.0,-0.001,0
82797423,-0.06554878,-0.0138944145,0.00051763316,0.0,0.0,-0.001,0
82818621,-0.06670018,-0.013605778,0.0003040133,0.0,0.0,-0.001,0
82839802,-0.06687538,-0.011737295,-0.00037453722,0.0,0.0,-0.001,0
82860966,-0.0670307,-0.0099067455,-0.00022808154,0.0,0.0,-0.001,0
82882092,-0.066464536,-0.009314192,3.4847435e-05,0.0,0.0,-0.001,0
82897979,-0.066180095,-0.012332623,-6.6276996e-05,0.0,0.0,-0.001,0
82919254,-0.065958135,-0.010350031,-0.0008520089,0.0,0.0,-0.001,0
82940486,-0.06662067,-0.009958694,0.0008651737,0.0,0.0,-0.001,0
82961593,-0.06622925,-0.009535327,-0.00020494158,0.0,0.0,-0.001,0
82977433,-0.064812146,-0.010847803,-0.00016761346,0.0,0.0,-0.001,0
82998661,-0.06469666,-0.008223789,-0.00011058098,0.0,0.0,-0.001,0
83019834,-0.06513704,-0.0082681775,-0.00028212974,0.0,0.0,-0.001,0
83041124,-0.06621384,-0.0108498875,-0.0003408357,0.0,0.0,-0.001,0
83062167,-0.06612591,-0.011228306,0.0009895277,0.0,0.0,-0.001,0
83078147,-0.06356088,-0.007810188,-8.746632e-05,0.0,0.0,-0.001,0
83099370,-0.06535011,-0.008969918,-0.001292412,0.0,0.0,-0.001,0
83120492,-0.06578308,-0.010636976,0.0012322982,0.0,0.0,-0.001,0
83141720,-0.06626685,-0.0121387495,-0.0006346358,0.0,0.0,-0.001,0
83157587,-0.067193575,-0.008756683,-0.00081037695,0.0,0.0,-0.001,0
83178688,-0.06805892,-0.011151975,0.00085497013,0.0,0.0,-0.001,0
83199873,-0.06622844,-0.011794871,-7.089416e-05,0.0,0.0,-0.001,0
83221139,-0.0663504,-0.0127883,0.0004898562,0.0,0.0,-0.001,0
83242409,-0.06721619,-0.01228984,0.00010813757,0.0,0.0,-0.001,0
83258236,-0.066798255,-0.0116567435,0.00056605437,0.0,0.0,-0.001,0
83279944,-0.06750153,-0.012988858,-0.00035427068,0.0,0.0,-0.001,0
83300542,-0.06845331,-0.0135126375,-7.895973e-05,0.0,0.0,-0.001,0
83321734,-0.06838501,-0.01348977,0.00063639623,0.0,0.0,-0.001,0
83337617,-0.068019144,-0.013566669,0.00018591799,0.0,0.0,-0.001,0
83358917,-0.0680952,-0.014786891,-0.0002975219,0.0,0.0,-0.001,0
83380037,-0.06685444,-0.013701021,0.00035254724,0.0,0.0,-0.001,0
83401214,-0.06723375,-0.013022829,-0.0002192125,0.0,0.0,-0.001,0
83422379,-0.06808673,-0.011538863,-7.153523e-05,0.0,0.0,-0.001,0
83438354,-0.06686311,-0.015136278,-0.00014750983,0.0,0.0,-0.001,0
83459535,-0.065346986,-0.013599411,0.00064281776,0.0,0.0,-0.001,0
83480691,-0.06617792,-0.01126914,0.00047567982,0.0,0.0,-0.001,0
83501955,-0.06570834,-0.01110921,-0.0005855158,0.0,0.0,-0.001,0
83517730,-0.06559755,-0.013401046,0.00028889053,0.0,0.0,-0.001,0
83538951,-0.06519668,-0.011929898,-7.171751e-05,0.0,0.0,-0.001,0
83560215,-0.06540668,-0.009602262,-0.0006931347,0.0,0.0,-0.001,0
83581287,-0.064430036,-0.008787941,0.00061634026,0.0,0.0,-0.001,0
83602477,-0.06225148,-0.008493788,-0.0012293822,0.0,0.0,-0.001,0
83618428,-0.064774066,-0.007205135,-0.0025618607,0.0,0.0,-0.001,0
83639680,-0.06559385,-0.008643274,0.00059904676,0.0,0.0,-0.001,0
83660777,-0.063809745,-0.0073851934,-0.00024547777,0.0,0.0,-0.001,0
83682021,-0.06380295,-0.009646354,-0.002053943,0.0,0.0,-0.001,0
83697868,-0.06496492,-0.008268623,0.0003038592,0.0,0.0,-0.001,0
83718974,-0.06515102,-0.007669388,0.00074071955,0.0,0.0,-0.001,0
83740219,-0.06234759,-0.008387536,-0.00050986296,0.0,0.0,-0.001,0
83761414,-0.06349438,-0.010952299,0.0010286998,0.0,0.0,-0.001,0
83777383,-0.06439652,-0.008247291,0.001798933,0.0,0.0,-0.001,0
83798625,-0.06313524,-0.007416518,0.0008467964,0.0,0.0,-0.001,0
83819760,-0.06493614,-0.01009196,-0.00012351618,0.0,0.0,-0.001,0
83840964,-0.06522702,-0.011060071,-0.0005877724,0.0,0.0,-0.001,0
83862076,-0.06340218,-0.009823328,-0.0006588264,0.0,0.0,-0.001,0
83878043,-0.06491774,-0.008795408,9.966551e-05,0.0,0.0,-0.001,0
83899104,-0.06414126,-0.009049774,5.9722777e-05,0.0,0.0,-0.001,0
83920327,-0.06475816,-0.008813367,0.0002298547,0.0,0.0,-0.001,0
83941553,-0.06263976,-0.008276655,-5.58424e-05,0.0,0.0,-0.001,0
83957416,-0.058830608,-0.009496836,5.061372e-06,0.0,0.0,-0.001,0
83978637,-0.058100153,-0.010452542,-0.00019288201,0.0,0.0,-0.001,0
83999875,-0.05756831,-0.010117814,-0.0007538412,0.0,0.0,-0.001,0
84020948,-0.058832303,-0.009424172,0.00284795,0.0,0.0,-0.001,0
84042180,-0.061273925,-0.008326987,-0.0020626679,0.0,0.0,-0.001,0
84058006,-0.063459784,-0.009096581,-0.0005881422,0.0,0.0,-0.001,0
84079177,-0.06269149,-0.009596661,0.00011180021,0.0,0.0,-0.001,0
84100521,-0.060677767,-0.007880013,-0.0005455101,0.0,0.0,-0.001,0
84121648,-0.057874266,-0.008519439,0.0015804785,0.0,0.0,-0.001,0
84137504,-0.060338747,-0.0083723795,-0.0014800578,0.0,0.0,-0.001,0
84158693,-0.06152564,-0.0102743395,-0.0015329439,0.0,0.0,-0.001,0
84179910,-0.06344725,-0.010252221,0.0023064865,0.0,0.0,-0.001,0
84201076,-0.06389207,-0.0086883735,-0.0017751168,0.0,0.0,-0.001,0
84222355,-0.06383766,-0.010376543,0.001585141,0.0,0.0,-0.001,0
84238195,-0.06427488,-0.010488579,0.00024769903,0.0,0.0,-0.001,0
84259628,-0.06224445,-0.010618241,-5.9208724e-06,0.0,0.0,-0.001,0
84280599,-0.06379602,-0.011164816,-0.00032114092,0.0,0.0,-0.001,0
84301730,-0.06338688,-0.009952133,0.000876224,0.0,0.0,-0.001,0
84317605,-0.06359296,-0.009898605,0.0006935524,0.0,0.0,-0.001,0
84338770,-0.061897136,-0.010770218,-0.0008157134,0.0,0.0,-0.001,0
84359980,-0.06250675,-0.010154014,0.00024071144,0.0,0.0,-0.001,0
84381149,-0.06368175,-0.007919967,0.00045388995,0.0,0.0,-0.001,0
84402387,-0.06408375,-0.006345092,0.0011286413,0.0,0.0,-0.001,0
84418312,-0.06292019,-0.009615674,-0.0004192497,0.0,0.0,-0.001,0
84439556,-0.0632201,-0.0075466316,-0.00079024985,0.0,0.0,-0.001,0
84460693,-0.061165057,-0.0044154087,-4.298736e-05,0.0,0.0,-0.001,0
84481833,-0.057545997,-0.0020494945,-0.0012322911,0.0,0.0,-0.001,0
84497696,-0.062048696,-0.002846809,-0.00385687,0.0,0.0,-0.001,0
84518951,-0.06377478,-0.0026331958,0.00096624426,0.0,0.0,-0.001,0
84540136,-0.05852162,0.00019423108,0.00058817584,0.0,0.0,-0.001,0
84561271,-0.058606602,-0.001289338,-0.0015017312,0.0,0.0,-0.001,0
84582469,-0.060861632,-0.0031700805,0.0011680436,0.0,0.0,-0.001,0
84598407,-0.059667174,-0.00017154179,-0.00026917373,0.0,0.0,-0.001,0
84619582,-0.059849225,-0.002856124,-0.00060456776,0.0,0.0,-0.001,0
84640771,-0.06269726,-0.005265557,0.0017381895,0.0,0.0,-0.001,0
84661989,-0.06314753,-0.0065705557,-0.00025516842,0.0,0.0,-0.001,0
84677820,-0.061477013,-0.004004393,-0.00042665907,0.0,0.0,-0.001,0
84699008,-0.061846353,-0.005149804,0.00041510104,0.0,0.0,-0.001,0
84720198,-0.06397202,-0.0073966114,0.00019733544,0.0,0.0,-0.001,0
84741348,-0.06269865,-0.0076466505,-0.0007424997,0.0,0.0,-0.001,0
84757395,-0.06138994,-0.0053649778,0.00014159121,0.0,0.0,-0.001,0
84778655,-0.06381971,-0.006586013,0.0005098113,0.0,0.0,-0.001,0
84799719,-0.063950084,-0.0070290295,7.381543e-05,0.0,0.0,-0.001,0
84820890,-0.06289036,-0.008277392,-0.0002950714,0.0,0.0,-0.001,0
84842118,-0.06334089,-0.0070995726,-0.0002301476,0.0,0.0,-0.001,0
84857965,-0.0645987,-0.006661744,-0.00010078872,0.0,0.0,-0.001,0
84879149,-0.0633082,-0.0074499385,0.00048310132,0.0,0.0,-0.001,0
84900272,-0.06351834,-0.0074361437,-0.00018786592,0.0,0.0,-0.001,0
84921422,-0.06336601,-0.0054224315,-0.00021350966,0.0,0.0,-0.001,0
84937391,-0.063065134,-0.006745562,8.58274e-05,0.0,0.0,-0.001,0
84958607,-0.062852815,-0.007315696,0.00026878758,0.0,0.0,-0.001,0
84979976,-0.06304981,-0.0070129638,-4.925724e-05,0.0,0.0,-0.001,0
85000984,-0.06428276,-0.0062779584,0.00048827266,0.0,0.0,-0.001,0
85022152,-0.06343974,-0.0049103354,-0.000103784885,0.0,0.0,-0.001,0
85038035,-0.062075138,-0.007879531,-0.0005547048,0.0,0.0,-0.001,0
85059246,-0.061797626,-0.0072507327,0.00049441913,0.0,0.0,-0.001,0
85080361,-0.061691448,-0.0053595416,0.0006069779,0.0,0.0,-0.001,0
85101627,-0.063110575,-0.003945687,-0.0004447101,0.0,0.0,-0.001,0
85117499,-0.06261071,-0.0068892464,-0.00049945526,0.0,0.0,-0.001,0
85138643,-0.061803274,-0.005926592,0.0005387242,0.0,0.0,-0.001,0
85159886,0.035387542,-0.26392087,0.0005159146,0.0,0.0,-0.006844246,0
85181072,0.035293743,-0.19544968,0.0013071913,0.0,0.0,-0.008261866,0
85202199,0.011224202,-0.1855018,0.0014116559,0.0,0.0,-0.010145115,0
85218179,0.068405256,-0.16073054,0.0011771499,0.0,0.0,-0.010642556,0
85239379,0.022352066,-0.1558076,-0.0014261982,0.0,0.0,-0.012327114,0
85260598,-0.074097306,-0.19461739,0.00079558854,0.0,0.0,-0.014504723,0
85281742,-0.040782377,-0.1993649,0.0009909604,0.0,0.0,-0.017329274,0
85297596,-0.013160129,-0.026461946,-0.0020969608,0.0,0.0,-0.015537895,0
85318786,-0.07248966,0.18781331,-0.001953793,0.0,0.0,-0.012628232,0
85340178,-0.10815195,0.26848477,-0.0014864443,0.0,0.0,-0.015056217,0
85361114,0.05538361,0.3364053,-0.0010665044,0.0,0.0,-0.021331346,0
85382391,-0.11740586,0.2692905,-0.0099445935,0.0,0.0,-0.024664324,0
85398302,0.02546214,0.18443422,-0.013281397,0.0,0.0,-0.031785846,0
85419511,-0.002966536,-0.06743592,-0.0069722314,0.0,0.0,-0.03676767,0
85440604,0.004488523,-0.25320172,-0.0039633205,0.0,0.0,-0.042353157,0
85461768,0.11330435,-0.2089897,-0.005293949,0.0,0.0,-0.036324058,0
85477656,0.3258878,-0.060803816,-0.0120090535,0.0,0.0,-0.031390723,0
85498853,0.22362106,-0.060597774,0.0033834102,0.0,0.0,-0.03268448,0
85520060,-0.022217466,-0.107650265,0.007748677,0.0,0.0,-0.03992826,0
85541222,0.006796948,-0.014818861,-0.017163867,0.0,0.0,-0.05022733,0
85562421,-0.12075975,0.021570228,-0.02628829,0.0,0.0,-0.051168423,0
85578369,-0.16513003,-0.032501444,-0.020340838,0.0,0.0,-0.048367806,0
85599685,0.06964993,-0.0074219685,-0.012280728,0.0,0.0,-0.050094046,0
85620707,0.045227233,-0.05396075,-0.015649052,0.0,0.0,-0.05277521,0
85641944,-0.10335693,0.033781476,-0.01934171,0.0,0.0,-0.04995877,0
85657835,-0.20516719,-0.15678993,-0.02051641,0.0,0.0,-0.049194474,0
85678984,-0.1928526,-0.26058885,-0.023675468,0.0,0.0,-0.05320521,0
85700122,-0.060792405,-0.15386958,-0.019879911,0.0,0.0,-0.06185435,0
85721329,0.22598179,-0.2057342,-0.021396935,0.0,0.0,-0.069498695,0
85742532,0.3360313,-0.3763874,-0.023760376,0.0,0.0,-0.07520334,0
85758497,0.24942032,-0.22448774,-0.028497776,0.0,0.0,-0.074439295,0
85779677,-0.16979451,-0.15029907,-0.03078192,0.0,0.0,-0.076237805,0
85800817,-0.41198364,-0.10781586,-0.038541768,0.0,0.0,-0.07543364,0
85822070,-0.4116537,-0.21491557,-0.04440062,0.0,0.0,-0.07700519,0
85837937,-0.18820702,-0.11394651,-0.04552597,0.0,0.0,-0.082449585,0
85859104,-0.11575943,-0.15132685,-0.036081277,0.0,0.0,-0.09151082,0
85880249,0.2929693,-0.10371442,-0.032907084,0.0,0.0,-0.09105654,0
85901413,0.46189994,-0.24527217,-0.027366228,0.0,0.0,-0.08911627,0
85917401,0.25830242,-0.21547294,-0.028071646,0.0,0.0,-0.088589504,0
85938596,-0.20058209,-0.15333603,-0.024994064,0.0,0.0,-0.091199435,0
85959836,-0.36883795,-0.11286601,-0.020273179,0.0,0.0,-0.09674532,0
85981004,-0.6563074,-0.11586146,-0.022274897,0.0,0.0,-0.1040076,0
86002158,-0.26534906,-0.18756415,-0.020905709,0.0,0.0,-0.09807712,0
86018009,0.0948386,-0.049823392,-0.021284942,0.0,0.0,-0.108310744,0
86039106,0.35256973,-0.19917507,-0.026713196,0.0,0.0,-0.11544538,0
86060410,0.5632994,-0.44358975,-0.034394037,0.0,0.0,-0.118305564,0
86081530,0.8625307,-0.2495072,-0.035614036,0.0,0.0,-0.11370059,0
86097417,0.7561985,-0.43111503,-0.037373982,0.0,0.0,-0.10982493,0
86118664,0.40760273,-0.4226817,-0.045297094,0.0,0.0,-0.10777821,0
86139925,-0.29543188,-0.33563343,-0.06914696,0.0,0.0,-0.12715898,0
86161070,-0.33527604,-0.57755446,-0.08363846,0.0,0.0,-0.13945161,0
86182190,-0.6406051,-0.6648423,-0.09514837,0.0,0.0,-0.13529052,0
86198102,-0.4174521,-0.5349794,-0.09339902,0.0,0.0,-0.13557689,0
86219346,0.04461637,-0.6050235,-0.086422876,0.0,0.0,-0.13717605,0
86240471,0.19266236,-0.35669464,-0.082702085,0.0,0.0,-0.15052493,0
86261787,0.5084408,-0.4064563,-0.08098423,0.0,0.0,-0.15268597,0
86277534,0.47705054,-0.2973703,-0.08239884,0.0,0.0,-0.14642848,0
86298737,0.19138105,-0.21430647,-0.08090038,0.0,0.0,-0.14609355,0
86319898,-0.21140753,-0.2467393,-0.08462084,0.0,0.0,-0.14952567,0
86341156,-0.6018052,-0.35092658,-0.09906896,0.0,0.0,-0.14969672,0
86362391,-0.8454766,-0.39478886,-0.12281978,0.0,0.0,-0.14379553,0
86378215,-0.91814435,-0.6669511,-0.13079877,0.0,0.0,-0.13922428,0
86399813,-0.5885301,-0.66929513,-0.12779163,0.0,0.0,-0.1318789,0
86420590,0.1328854,-0.69940096,-0.11962253,0.0,0.0,-0.11685249,0
86441763,0.45436555,-0.77098167,-0.12722138,0.0,0.0,-0.10739362,0
86457613,0.7147637,-0.5789332,-0.13542186,0.0,0.0,-0.11122468,0
86478793,0.73896426,-0.54391414,-0.1363816,0.0,0.0,-0.09737035,0
86499973,0.40575138,-0.5118323,-0.1357279,0.0,0.0,-0.092949174,0
86521215,-0.14817034,-0.36028412,-0.14052933,0.0,0.0,-0.10095236,0
86542405,-0.3342078,-0.45939273,-0.14610001,0.0,0.0,-0.10245419,0
86558303,-0.46425003,-0.42864752,-0.15435746,0.0,0.0,-0.10563936,0
86579532,-0.38970995,-0.46904522,-0.15247738,0.0,0.0,-0.10133242,0
86600705,-0.032038618,-0.18434115,-0.145156,0.0,0.0,-0.10645843,0
86621883,0.23507889,-0.1707713,-0.13327675,0.0,0.0,-0.10614781,0
86637694,0.5539875,-0.21940698,-0.13046399,0.0,0.0,-0.09649445,0
86658925,0.42551464,-0.11724649,-0.13593416,0.0,0.0,-0.09753086,0
86680147,0.2768187,-0.23023097,-0.14492121,0.0,0.0,-0.09334017,0
86701349,-0.25613862,-0.34669697,-0.15964143,0.0,0.0,-0.106561944,0
86722500,-0.43523553,-0.42077214,-0.18459032,0.0,0.0,-0.11184308,0
86738421,-0.6955184,-0.5169002,-0.19977957,0.0,0.0,-0.113829926,0
86759643,-0.79422385,-0.78473914,-0.20755479,0.0,0.0,-0.11405486,0
86780763,-0.22536005,-0.7965969,-0.19634315,0.0,0.0,-0.111505516,0
86801953,0.089419745,-0.6338648,-0.20015025,0.0,0.0,-0.10416855,0
86817802,0.29352477,-0.5718112,-0.21528417,0.0,0.0,-0.09720962,0
86839048,0.53800106,-0.41213724,-0.23658875,0.0,0.0,-0.09147196,0
86860213,0.49227136,-0.11093682,-0.24602664,0.0,0.0,-0.08496531,0
86881411,0.24675158,-0.08235515,-0.24363357,0.0,0.0,-0.07443411,0
86902532,-0.17148393,-0.017311975,-0.2514947,0.0,0.0,-0.07853972,0
86918586,-0.48137727,-0.29813173,-0.26143116,0.0,0.0,-0.08552972,0
86939720,-0.74315625,-0.41234282,-0.27739474,0.0,0.0,-0.09441847,0
86960863,-0.76877165,-0.4618567,-0.28401202,0.0,0.0,-0.0933612,0
86982130,-0.42736796,-0.5932995,-0.26896784,0.0,0.0,-0.09798665,0
86997987,-0.19324288,-0.45667782,-0.2618327,0.0,0.0,-0.10243394,0
87019134,0.176345,-0.5235348,-0.2526008,0.0,0.0,-0.10279351,0
87040282,0.27535853,-0.5210989,-0.26261553,0.0,0.0,-0.09703875,0
87061475,0.36921787,-0.529671,-0.2624597,0.0,0.0,-0.083949395,0
87077394,0.30689788,-0.6557094,-0.25276476,0.0,0.0,-0.06804342,0
87098696,-0.30404162,-0.61750907,-0.25066245,0.0,0.0,-0.07473182,0
87119828,-0.4814978,-0.589269,-0.24112695,0.0,0.0,-0.074189,0
87140957,-0.6153039,-0.73823416,-0.23236552,0.0,0.0,-0.081412576,0
87162164,-0.32269505,-0.6216671,-0.21582523,0.0,0.0,-0.08311645,0
87178105,-0.2287928,-0.4824521,-0.19821373,0.0,0.0,-0.081710786,0
87199248,0.07815786,-0.45424128,-0.18465737,0.0,0.0,-0.07944703,0
87220508,0.25320396,-0.24027304,-0.18050724,0.0,0.0,-0.0774556,0
87241628,0.29392165,-0.23686613,-0.18038972,0.0,0.0,-0.059351988,0
87257521,-0.03065539,-0.367478,-0.17920251,0.0,0.0,-0.0661893,0
87278660,-0.3610254,-0.3492024,-0.17850924,0.0,0.0,-0.068623625,0
87299922,-0.65880346,-0.54934,-0.18267457,0.0,0.0,-0.07197734,0
87321138,-0.60592145,-0.43019056,-0.17442818,0.0,0.0,-0.07723021,0
87342342,-0.377106,-0.31966218,-0.16168945,0.0,0.0,-0.081305295,0
87358183,-0.00935536,-0.21739544,-0.15924163,0.0,0.0,-0.0800574,0
87379353,0.30956054,-0.16619103,-0.15990327,0.0,0.0,-0.08100894,0
87400584,0.4430318,-0.16422136,-0.16002043,0.0,0.0,-0.06855971,0
87421775,0.3331933,0.034558263,-0.15822095,0.0,0.0,-0.065948315,0
87437605,0.043960087,-0.08502199,-0.15866658,0.0,0.0,-0.060395233,0
87458759,-0.41021737,-0.14523914,-0.16767004,0.0,0.0,-0.067239985,0
87479914,-0.3882152,-0.1973762,-0.17123796,0.0,0.0,-0.075630136,0
87501122,-0.43855593,-0.48564884,-0.1599308,0.0,0.0,-0.08145742,0
87522360,-0.34177542,-0.35233745,-0.1468726,0.0,0.0,-0.07700479,0
87538292,-0.10202989,-0.27220392,-0.13879,0.0,0.0,-0.075082764,0
87559611,0.21779722,-0.2625443,-0.12648824,0.0,0.0,-0.067800365,0
87580642,0.29429933,-0.06430991,-0.11623095,0.0,0.0,-0.060981896,0
87601838,0.34987,-0.013609053,-0.11191996,0.0,0.0,-0.048921544,0
87617689,0.2505997,0.06622549,-0.11541484,0.0,0.0,-0.048283216,0
87638848,-0.3057446,0.10249005,-0.10857517,0.0,0.0,-0.052657284,0
87660087,-0.38682845,-0.0053449958,-0.1130873,0.0,0.0,-0.053966895,0
87681203,-0.42624277,-0.16674191,-0.10487858,0.0,0.0,-0.05566676,0
87702454,-0.20389126,-0.23946084,-0.08681761,0.0,0.0,-0.054097272,0
87718451,-0.044276744,-0.09312623,-0.06987085,0.0,0.0,-0.050505582,0
87739626,0.14754966,-0.06004855,-0.067041,0.0,0.0,-0.048180062,0
87760763,0.15200868,0.20709282,-0.054168805,0.0,0.0,-0.04649591,0
87781943,-0.05339123,0.39381066,-0.06371906,0.0,0.0,-0.05503734,0
87797783,-0.42262396,0.28883973,-0.070705205,0.0,0.0,-0.058297854,0
87819047,-0.4785264,0.15718503,-0.083458036,0.0,0.0,-0.058864504,0
87840215,-0.4565344,0.17783993,-0.076711096,0.0,0.0,-0.057131287,0
87861373,-0.2225884,0.21330395,-0.049229894,0.0,0.0,-0.049533375,0
87882548,0.0137192905,0.29459032,-0.009368276,0.0,0.0,-0.05492958,0
87898564,0.26335946,0.20796509,0.00864286,0.0,0.0,-0.052719634,0
87919657,0.39808413,0.113905095,0.013877644,0.0,0.0,-0.044100776,0
87940882,0.21090378,-0.07705371,0.0017472168,0.0,0.0,-0.051332034,0
87962036,-0.068650745,-0.3923738,-0.022400199,0.0,0.0,-0.047583986,0
87977847,-0.29166383,-0.2632876,-0.03283579,0.0,0.0,-0.052649036,0
87999133,-0.10017266,-0.15096259,-0.029016167,0.0,0.0,-0.057429597,0
88020300,0.026119856,0.11725025,-0.0122897485,0.0,0.0,-0.053856928,0
88041455,0.19896182,0.17819424,-0.009796232,0.0,0.0,-0.038568,0
88057419,0.3936746,0.30823344,-0.0114395805,0.0,0.0,-0.03548296,0
88078600,0.11121885,0.4723307,0.005804041,0.0,0.0,-0.033582564,0
88099837,0.17514247,0.4843794,0.012971829,0.0,0.0,-0.020139806,0
88121012,0.04191806,0.4745634,0.022602927,0.0,0.0,-0.02620998,0
88142162,0.06060562,0.39175683,0.02353226,0.0,0.0,-0.03692008,0
88158025,0.07787011,0.5167726,0.027545743,0.0,0.0,-0.04288463,0
88179212,0.12742715,0.85136455,0.0007227031,0.0,0.0,-0.12,0
88200361,0.07603839,0.82368743,0.004761465,0.0,0.0,-0.12,0
88221566,-0.02983468,0.74174714,0.0046162307,0.0,0.0,-0.12,0
88237488,-0.10261986,0.6614856,-0.0061450778,0.0,0.0,-0.12,0
88258630,-0.11689765,0.60544044,-0.009698367,0.0,0.0,-0.12,0
88279891,-0.048722204,0.6420853,-0.007850147,0.0,0.0,-0.12,0
88301108,0.061852593,0.79057854,-0.006921647,0.0,0.0,-0.12,0
88322353,0.12749738,0.9370867,0.0016274684,0.0,0.0,-0.12,0
88338223,0.13126464,1.0041424,0.0049438057,0.0,0.0,-0.12,0
88359357,0.1374523,0.9689826,0.006504868,0.0,0.0,-0.12,0
88380513,0.58003205,0.86583793,-0.028705917,0.0,0.0,-0.15811557,0
88401617,0.5392092,0.76611555,-0.016867531,0.0,0.0,-0.13273709,0
88417558,0.52138746,0.75197047,-0.011773747,0.0,0.0,-0.12,0
88438845,0.48510194,0.71567106,-0.023198452,0.0,0.0,-0.12,0
88459963,0.357177,0.69038343,-0.029996324,0.0,0.0,-0.12,0
88481123,0.19015326,0.70368654,-0.025772072,0.0,0.0,-0.12,0
88502382,0.28694195,0.6776886,-0.029861663,0.0,0.0,-0.12,0
88518186,0.28242815,0.6313968,-0.033435013,0.0,0.0,-0.12,0
88539769,0.3194801,0.5932219,-0.04091123,0.0,0.0,-0.12,0
88560603,0.26350543,0.40864736,-0.033387534,0.0,0.0,-0.12,0
88581857,0.31399307,0.4007218,-0.025428688,0.0,0.0,-0.12,0
88597653,0.1607823,0.41182852,-0.018747022,0.0,0.0,-0.12,0
88618878,0.14165613,0.35394147,-0.021402331,0.0,0.0,-0.12,0
88640207,0.34608087,0.4512497,-0.024644963,0.0,0.0,-0.12,0
88661197,0.26828218,0.46845612,-0.020196166,0.0,0.0,-0.12,0
88682396,0.25890803,0.51805824,-0.026923817,0.0,0.0,-0.12,0
88698371,0.2897418,0.4523155,-0.029694043,0.0,0.0,-0.12,0
88719613,0.26204136,0.49300143,-0.038969528,0.0,0.0,-0.12,0
88740774,0.16693802,0.45940456,-0.05245461,0.0,0.0,-0.12,0
88761905,0.13482106,0.30843556,-0.07341253,0.0,0.0,-0.12,0
88777758,0.121451914,0.24348515,-0.07104387,0.0,0.0,-0.12,0
88798927,0.015167894,0.15229528,-0.08255032,0.0,0.0,-0.12,0
88820109,0.083156995,0.060722,-0.07297447,0.0,0.0,-0.12,0
88841369,0.07312216,-0.041694336,-0.052631907,0.0,0.0,-0.12,0
88862529,-0.113423884,-0.013944225,-0.042721175,0.0,0.0,-0.12,0
88878510,-0.18621254,0.0136521775,-0.034939084,0.0,0.0,-0.12,0
88899678,-0.049012933,0.06632724,-0.03455109,0.0,0.0,-0.12,0
88920771,0.029042365,0.10543227,-0.02466805,0.0,0.0,-0.12,0
88942056,0.02210729,0.2421828,-0.025609538,0.0,0.0,-0.12,0
88957893,0.12611206,0.13159105,-0.020524092,0.0,0.0,-0.12,0
88979103,0.07910196,0.22948483,-0.0234733,0.0,0.0,-0.12,0
89000210,0.0054724654,0.30983192,-0.014719983,0.0,0.0,-0.12,0
89021444,-0.07047867,0.25549287,-0.0062961495,0.0,0.0,-0.12,0
89037408,0.10616006,0.2630892,-0.012794933,0.0,0.0,-0.12,0
89058615,0.2906109,0.09533628,-0.0067463964,0.0,0.0,-0.12,0
89079813,0.21006963,0.041987244,-0.004273722,0.0,0.0,-0.12,0
89100954,0.100442156,0.11381376,-6.31648e-06,0.0,0.0,-0.12,0
89122122,-0.003372891,-0.053196836,0.0032707,0.0,0.0,-0.12,0
89138017,-0.01892193,0.017109176,0.0032423919,0.0,0.0,-0.12,0
89159232,0.16219085,-0.06261954,0.00064691703,0.0,0.0,-0.12,0
89180401,0.3762056,0.039764717,-0.002952092,0.0,0.0,-0.12,0
89201485,0.26968485,0.043648425,-0.0034267558,0.0,0.0,-0.12,0
89217365,-0.05973943,-0.064634025,0.0064268196,0.0,0.0,-0.12,0
89238638,-0.34322467,0.15941294,-0.001580674,0.0,0.0,-0.12,0
89260177,-0.36839876,0.14440006,0.0022690035,0.0,0.0,-0.12,0
89281072,-0.17315426,0.21996173,-0.007673718,0.0,0.0,-0.12,0
89302226,0.20440142,0.25069848,-0.023864219,0.0,0.0,-0.12,0
89318136,0.3324165,0.11238374,-0.016954914,0.0,0.0,-0.12,0
89339254,0.2569159,0.0633933,-0.029702812,0.0,0.0,-0.12,0
89360475,0.00962913,-0.048134774,-0.022577038,0.0,0.0,-0.12,0
89381683,-0.43809548,-0.23143204,-0.011342768,0.0,0.0,-0.12,0
89397508,-0.51018983,-0.3576275,-0.0009039923,0.0,0.0,-0.12,0
89418662,-0.6267244,-0.55755806,0.013834245,0.0,0.0,-0.12,0
89439934,-0.74466187,-0.6995868,0.02072385,0.0,0.0,-0.12,0
89461104,-0.4068136,-0.8330161,0.026944999,0.0,0.0,-0.12,0
89482412,-0.023334727,-0.81828326,0.016229173,0.0,0.0,-0.12,0
89498194,0.10209838,-0.7465736,0.0142696025,0.0,0.0,-0.12,0
89519352,0.3282901,-0.4173697,0.0067198575,0.0,0.0,-0.12,0
89540506,0.2570204,-0.38511965,0.018529136,0.0,0.0,-0.12,0
89561719,-0.09351833,-0.105509095,0.013177183,0.0,0.0,-0.12,0
89577636,-0.48407826,-0.019892093,0.010736928,0.0,0.0,-0.12,0
89598813,-0.68986094,0.23296031,-0.014897252,0.0,0.0,-0.12,0
89620027,-0.8771857,0.21145596,-0.011655288,0.0,0.0,-0.12,0
89641170,-0.90073526,0.29759145,-0.002475559,0.0,0.0,-0.12,0
89662365,-0.43476677,0.3506214,-0.0024903489,0.0,0.0,-0.12,0
89678291,-0.27828,0.39262876,0.004803392,0.0,0.0,-0.12,0
89699777,0.19762367,0.28137156,-0.0041520568,0.0,0.0,-0.12,0
89720712,0.07943262,0.16844562,-0.0019636876,0.0,0.0,-0.12,0
89741892,-0.20075232,0.0874498,-0.006941599,0.0,0.0,-0.12,0
89757722,-0.5089306,-0.062113736,0.0069474657,0.0,0.0,-0.12,0
89778922,-0.60162944,-0.12349359,0.002247382,0.0,0.0,-0.12,0
89800074,-0.7153836,-0.25323606,0.012814515,0.0,0.0,-0.12,0
89821274,-0.29297987,-0.25452992,0.006991405,0.0,0.0,-0.12,0
89842475,0.105157435,-0.51284766,0.0054574185,0.0,0.0,-0.12,0
89858436,0.39495477,-0.48695484,0.0005136927,0.0,0.0,-0.12,0
89879684,0.7055544,-0.4298389,0.0034038213,0.0,0.0,-0.12,0
89900783,0.5991312,-0.34864756,0.0049922313,0.0,0.0,-0.12,0
89921980,0.15255146,-0.31211525,0.011059337,0.0,0.0,-0.12,0
89937821,-0.051475916,-0.32540518,0.015050878,0.0,0.0,-0.12,0
89959014,-0.7182615,-0.31130743,0.009360125,0.0,0.0,-0.12,0
89980186,-0.8269226,-0.36428759,0.012544909,0.0,0.0,-0.12,0
90001388,-1.0734986,-0.5319481,0.015398012,0.0,0.0,-0.12,0
90022538,-0.62317723,-0.5719,0.018363684,0.0,0.0,-0.12,0
90038611,-0.38738626,-0.60128856,0.017010672,0.0,0.0,-0.12,0
90059717,0.017507166,-0.5825049,0.010141501,0.0,0.0,-0.12,0
90080863,0.45547247,-0.8539354,-7.10658e-05,0.0,0.0,-0.12,0
90102104,0.41586703,-0.7876023,-0.0017183102,0.0,0.0,-0.12,0
90117901,0.41867933,-0.8857326,0.009529782,0.0,0.0,-0.12,0
90139164,-0.02943919,-0.98770475,0.018533725,0.0,0.0,-0.12,0
90160269,-0.33197343,-0.80123776,0.020020248,0.0,0.0,-0.12,0
90181553,-0.69356257,-0.7492855,0.022385783,0.0,0.0,-0.12,0
90197425,-0.77449995,-0.7655112,0.019974671,0.0,0.0,-0.12,0
90218573,-0.4811642,-0.61481273,0.012649259,0.0,0.0,-0.12,0
90240096,-0.09796839,-0.42422736,0.0046672886,0.0,0.0,-0.12,0
90260935,0.45526418,-0.16149175,0.0004980542,0.0,0.0,-0.12,0
90282234,0.70325017,0.09175723,-0.00012314762,0.0,0.0,-0.12,0
90298058,0.8607493,0.17958121,0.0053434465,0.0,0.0,-0.12,0
90319256,0.73646337,0.36743554,0.004504092,0.0,0.0,-0.12,0
90340408,0.42053482,0.49237773,-0.0032929652,0.0,0.0,-0.12,0
90361600,-0.17741965,0.54903847,-0.014561096,0.0,0.0,-0.12,0
90377456,-0.38421923,0.50891715,-0.017827261,0.0,0.0,-0.12,0
90398657,-0.7460979,0.56407064,-0.01321637,0.0,0.0,-0.12,0
90419865,-0.70025444,0.47933117,-0.0019133101,0.0,0.0,-0.12,0
90441152,-0.45896137,0.5093191,0.012913561,0.0,0.0,-0.12,0
90462366,-0.097231604,0.47469023,0.02659315,0.0,0.0,-0.12,0
90478177,-0.0435828,0.4447499,0.041361336,0.0,0.0,-0.12,0
90499388,0.0150639275,0.3539874,0.044992667,0.0,0.0,-0.12,0
90520542,-0.15466581,0.24425778,0.03413846,0.0,0.0,-0.12,0
90541686,-0.5164649,0.14705361,0.016814217,0.0,0.0,-0.12,0
90557580,-0.70518875,0.16951947,0.003756335,0.0,0.0,-0.12,0
90578744,-1.00965,0.060137395,-0.013209457,0.0,0.0,-0.12,0
90600030,-1.0272049,-0.04916295,-0.01675774,0.0,0.0,-0.12,0
90621131,-0.5596675,-0.09514186,-0.020938938,0.0,0.0,-0.12,0
90642355,-0.09206325,-0.11073995,-0.030910539,0.0,0.0,-0.12,0
90658332,0.30298376,0.03907091,-0.04369626,0.0,0.0,-0.12,0
90679472,0.67220443,0.02639249,-0.060971968,0.0,0.0,-0.12,0
90700614,0.9831292,0.12194565,-0.06359694,0.0,0.0,-0.12,0
90721816,0.7100046,0.19385418,-0.058855455,0.0,0.0,-0.12,0
90737689,0.31972283,0.28026998,-0.04654813,0.0,0.0,-0.12,0
90758883,0.06047005,0.22805373,-0.04253399,0.0,0.0,-0.12,0
90780121,-0.42595044,0.37067047,-0.048860107,0.0,0.0,-0.12,0
90801198,-0.65081424,0.3046187,-0.051806655,0.0,0.0,-0.12,0
90822388,-0.5859022,0.2016452,-0.052271888,0.0,0.0,-0.12,0
90838337,-0.1311024,0.36163026,-0.042216465,0.0,0.0,-0.12,0
90859595,0.09761138,0.2019597,-0.01396172,0.0,0.0,-0.12,0
90880794,0.72071445,0.10865883,0.0059316093,0.0,0.0,-0.12,0
90902018,0.9593207,0.14588328,0.017995583,0.0,0.0,-0.12,0
90917794,1.0672708,0.072070606,0.020564416,0.0,0.0,-0.12,0
90938926,0.7275525,0.026702076,0.021509431,0.0,0.0,-0.12,0
90960110,0.2807272,-0.16487525,0.029494075,0.0,0.0,-0.12,0
90981341,-0.1454741,-0.2742416,0.034774154,0.0,0.0,-0.12,0
91002523,-0.4619059,-0.3153597,0.038705014,0.0,0.0,-0.12,0
91018614,-0.6365549,-0.2471032,0.033622164,0.0,0.0,-0.12,0
91039755,-0.505991,-0.3124537,0.029190622,0.0,0.0,-0.12,0
91060872,0.020517904,-0.31887037,0.020095646,0.0,0.0,-0.12,0
91082033,0.32100824,-0.24082622,0.008326771,0.0,0.0,-0.12,0
91097885,0.734294,-0.16141728,0.0062638326,0.0,0.0,-0.12,0
91119029,0.95959514,-0.20333205,0.0027011384,0.0,0.0,-0.12,0
91140265,0.8271965,-0.05127687,0.009854429,0.0,0.0,-0.12,0
91161467,0.45664227,0.109024696,0.013659403,0.0,0.0,-0.12,0
91177411,0.20312794,0.04767876,0.014368657,0.0,0.0,-0.12,0
91198603,-0.10814292,0.034251504,0.010272518,0.0,0.0,-0.12,0
91219897,-0.046214238,0.07245873,0.018031305,0.0,0.0,-0.12,0
91240971,0.29597464,0.066248715,0.033273347,0.0,0.0,-0.12,0
91262145,0.4739043,0.116193935,0.051470663,0.0,0.0,-0.12,0
91277988,0.6126536,0.12577504,0.052441712,0.0,0.0,-0.12,0
91299220,0.5489003,0.16451915,0.04920922,0.0,0.0,-0.12,0
91320412,0.057930574,0.32498673,0.035728887,0.0,0.0,-0.12,0
91341620,-0.27526468,0.21204129,0.013995561,0.0,0.0,-0.12,0
91357487,-0.59769404,0.16746677,-0.0019176631,0.0,0.0,-0.12,0
91378680,-0.70901984,0.12720758,-0.008431125,0.0,0.0,-0.12,0
91399870,-0.30581343,0.071559414,0.004375571,0.0,0.0,-0.12,0
91420998,0.07854948,0.01633337,0.017185122,0.0,0.0,-0.12,0
91442305,0.34982878,-0.015797937,0.028403612,0.0,0.0,-0.12,0
91458164,0.4112046,0.06499007,0.024754444,0.0,0.0,-0.12,0
91479294,0.24755053,-0.02646277,0.018462755,0.0,0.0,-0.12,0
91500523,-0.22763562,-0.16527164,0.004798246,0.0,0.0,-0.12,0
91521664,-0.5192374,-0.15815713,-0.017370183,0.0,0.0,-0.12,0
91537570,-0.7275315,-0.47620115,-0.020999951,0.0,0.0,-0.12,0
91558765,-0.6358763,-0.52989227,-0.030112188,0.0,0.0,-0.12,0
91579899,-0.37819958,-0.78317547,-0.036196917,0.0,0.0,-0.12,0
91601183,-0.04959369,-0.82657254,-0.047996484,0.0,0.0,-0.12,0
91622364,0.38235134,-0.8627929,-0.056717694,0.0,0.0,-0.12,0
91638247,0.5629512,-0.78771114,-0.06262942,0.0,0.0,-0.12,0
91659920,0.46423095,-0.5966643,-0.061998084,0.0,0.0,-0.12,0
91680557,0.2749513,-0.53244156,-0.047635805,0.0,0.0,-0.12,0
91701799,-0.042929485,-0.48771423,-0.033531293,0.0,0.0,-0.12,0
91717618,-0.5524906,-0.28420955,-0.035752773,0.0,0.0,-0.12,0
91738872,-0.7035192,-0.41928107,-0.034863178,0.0,0.0,-0.12,0
91760058,-0.6674528,-0.3491255,-0.04079522,0.0,0.0,-0.12,0
91781205,-0.4769752,-0.23778664,-0.038380045,0.0,0.0,-0.12,0
91802401,0.12692524,-0.16743135,-0.033102013,0.0,0.0,-0.12,0
91818374,0.2850833,-0.06965978,-0.036783107,0.0,0.0,-0.12,0
91839786,0.5361787,0.26047587,-0.030710291,0.0,0.0,-0.12,0
91860693,0.579208,0.52108884,-0.034029745,0.0,0.0,-0.12,0
91881938,0.1475694,0.5147493,-0.03580193,0.0,0.0,-0.12,0
91897771,-0.3143047,0.6884979,-0.060287144,0.0,0.0,-0.12,0
91918934,-0.6322259,0.6015212,-0.09246026,0.0,0.0,-0.12,0
91940221,-0.96785235,0.5753014,-0.12460343,0.0,0.0,-0.12,0
91961317,-1.0290042,0.58675027,-0.12966162,0.0,0.0,-0.12,0
91982499,-0.826458,0.5261956,-0.09639607,0.0,0.0,-0.12,0
91998500,-0.43909755,0.6245528,-0.07522076,0.0,0.0,-0.12,0
92019681,0.048214927,0.48510468,-0.023525951,0.0,0.0,-0.12,0
92040880,0.45319536,0.20207565,0.0044387593,0.0,0.0,-0.12,0
92062047,0.52307385,0.09962834,0.012644336,0.0,0.0,-0.12,0
92077914,0.3836954,-0.06314361,0.008023627,0.0,0.0,-0.12,0
92099071,0.18286586,-0.23391698,0.0042995643,0.0,0.0,-0.12,0
92120175,-0.23344265,-0.2811009,-0.0014204573,0.0,0.0,-0.12,0
92141420,-0.62715185,-0.435133,-0.003692604,0.0,0.0,-0.12,0
92157414,-0.7594648,-0.3797258,-0.013006039,0.0,0.0,-0.12,0
92178620,-0.5890395,-0.49723226,-0.010511274,0.0,0.0,-0.12,0
92199865,-0.2225661,-0.5348328,-0.006001026,0.0,0.0,-0.12,0
92220957,0.24461095,-0.2866046,-0.012703374,0.0,0.0,-0.12,0
92242098,0.6102792,-0.42013186,-0.0203273,0.0,0.0,-0.120000005,0
92257981,0.84393483,-0.27759278,-0.02476323,0.0,0.0,-0.12,0
92279157,0.6948496,-0.15475908,-0.024917018,0.0,0.0,-0.12,0
92300395,0.36911553,-0.1517802,-0.025342003,0.0,0.0,-0.12,0
92321547,0.14946494,-0.10279465,-0.037125334,0.0,0.0,-0.12,0
92337414,-0.1952545,-0.18593241,-0.04153863,0.0,0.0,-0.12,0
92358676,-0.31467265,-0.14671391,-0.048973285,0.0,0.0,-0.12,0
92379947,-0.23147872,-0.13405482,-0.04318555,0.0,0.0,-0.12,0
92401097,0.14331286,-0.152561,-0.026464067,0.0,0.0,-0.12,0
92422172,0.6105539,-0.09376913,-0.009021993,0.0,0.0,-0.12,0
92438134,0.80129486,0.20139436,-0.004190885,0.0,0.0,-0.12,0
92459208,0.7826152,0.08535261,-0.0009228178,0.0,0.0,-0.12,0
92480515,-0.010020638,0.28721043,-0.00032958091,0.0,0.0,-0.12,0
92501686,-0.44138867,0.31124482,-0.009356023,0.0,0.0,-0.12,0
92517482,-0.7547687,0.32229835,-0.00955974,0.0,0.0,-0.12,0
92538662,-1.0508755,0.32320753,-0.017276201,0.0,0.0,-0.12,0
92560410,-0.87613064,0.17749487,-0.06232141,0.0,0.0,-0.12,0
92581115,-0.91430706,0.042094734,-0.056643642,0.0,0.0,-0.12,0
92602438,-0.41666728,0.18756808,-0.04347471,0.0,0.0,-0.12,0
92618229,-0.05688745,0.1382727,-0.024867173,0.0,0.0,-0.12,0
92639368,0.61232513,0.10751624,-0.005168831,0.0,0.0,-0.12,0
92660542,0.92860675,0.298507,0.008784256,0.0,0.0,-0.12,0
92681734,1.0634531,0.11951177,0.008604978,0.0,0.0,-0.12,0
92697591,0.91959983,0.02543519,0.011108337,0.0,0.0,-0.12,0
92718779,0.45565084,0.010270158,0.018525653,0.0,0.0,-0.12,0
92739944,0.066884354,-0.13687912,0.01947603,0.0,0.0,-0.12,0
92761186,-0.40119824,-0.25393167,0.022162411,0.0,0.0,-0.12,0
92782393,-0.57434565,-0.1483227,0.012887781,0.0,0.0,-0.12,0
92798341,-0.48427302,-0.20142348,0.015723357,0.0,0.0,-0.12,0
92819734,-0.088013075,-0.25707537,0.016752983,0.0,0.0,-0.12,0
92840695,0.29332754,-0.1481574,0.025549538,0.0,0.0,-0.12,0
92861797,0.60418093,-0.07425666,0.02332639,0.0,0.0,-0.12,0
92877699,0.697056,-0.14879441,0.02836315,0.0,0.0,-0.12,0
92898960,0.47222966,-0.15213838,0.029367862,0.0,0.0,-0.12,0
92920117,0.08586791,-0.23933558,0.03183902,0.0,0.0,-0.12,0
92941316,-0.35470423,-0.05862139,0.016698964,0.0,0.0,-0.12,0
92962474,-0.59654343,-0.12074738,0.012039492,0.0,0.0,-0.12,0
92978442,-0.5064701,-0.1600648,0.01238035,0.0,0.0,-0.12,0
92999640,-0.15752211,-0.07717315,0.018580979,0.0,0.0,-0.12,0
93020835,0.16005495,-0.044226393,0.044719238,0.0,0.0,-0.12,0
93041983,0.7242776,0.024983779,0.060821522,0.0,0.0,-0.12,0
93057789,0.8382114,-0.038135637,0.06932245,0.0,0.0,-0.12,0
93079028,0.7209029,0.0010045555,0.06773719,0.0,0.0,-0.12,0
93100148,0.48733285,0.030668084,0.05846008,0.0,0.0,-0.12,0
93121364,0.015599075,-0.058917053,0.04975863,0.0,0.0,-0.12,0
93142567,-0.6074837,-0.023585238,0.024937551,0.0,0.0,-0.12264637,0
93158521,-0.85448056,-0.13377121,0.014785725,0.0,0.0,-0.123324856,0
93179753,-1.09823,-0.2837311,-0.0046379887,0.0,0.0,-0.12250675,0
93200933,-0.7841135,-0.4392799,-0.0042662565,0.0,0.0,-0.12296563,0
93222066,-0.30307344,-0.46308774,-0.008670932,0.0,0.0,-0.12408573,0
93237926,-0.10839704,-0.54618526,-0.015887687,0.0,0.0,-0.124194205,0
93259137,0.36084116,-0.43013197,-0.02327829,0.0,0.0,-0.122422256,0
93280274,0.2656822,-0.26332217,-0.025423853,0.0,0.0,-0.12287703,0
93301474,0.121131524,-0.22698496,-0.016910885,0.0,0.0,-0.12233991,0
93317396,-0.06823555,-0.12764814,-0.01508741,0.0,0.0,-0.12611839,0
93338646,-0.66957486,-0.06514043,-0.024601704,0.0,0.0,-0.13198562,0
93360046,-0.9120626,-0.03311719,-0.042361658,0.0,0.0,-0.1351248,0
93380949,-1.0839195,0.069920905,-0.050285324,0.0,0.0,-0.13203529,0
93402193,-0.78275573,0.009136668,-0.039469555,0.0,0.0,-0.1316784,0
93418114,-0.35734436,0.08289975,-0.031201772,0.0,0.0,-0.1320581,0
93439161,0.17332041,0.13621497,-0.012233892,0.0,0.0,-0.13503374,0
93460388,0.71009094,0.049816854,0.004829245,0.0,0.0,-0.1312206,0
93481622,0.8384587,0.17878725,-0.005362919,0.0,0.0,-0.13032204,0
93497469,0.73397493,-0.013827454,-0.008213826,0.0,0.0,-0.12641193,0
93518645,0.35150748,0.036899827,-0.031042468,0.0,0.0,-0.13104166,0
93539937,-0.08851712,-0.059522167,-0.04841414,0.0,0.0,-0.13239874,0
93561091,-0.28691247,-0.30304906,-0.058584042,0.0,0.0,-0.13639833,0
93582324,-0.23388596,-0.33222815,-0.05735962,0.0,0.0,-0.142666,0
93598214,-0.04735068,-0.33297163,-0.05036702,0.0,0.0,-0.14396945,0
93619294,0.19567746,-0.2574893,-0.038745984,0.0,0.0,-0.14621465,0
93640564,0.39096016,-0.15373781,-0.03611309,0.0,0.0,-0.14916146,0
93661748,0.33319238,0.19377436,-0.044135924,0.0,0.0,-0.14992899,0
93677588,0.17560948,0.27368554,-0.052723985,0.0,0.0,-0.15166605,0
93698717,-0.2797296,0.4187727,-0.07202031,0.0,0.0,-0.15745102,0
93720017,-0.48967946,0.59603333,-0.09857006,0.0,0.0,-0.16086014,0
93741135,-0.38871288,0.4094363,-0.08152076,0.0,0.0,-0.16442996,0
93762399,-0.2255151,0.34974745,-0.043523464,0.0,0.0,-0.16459997,0
93778294,0.21555407,0.33873504,-0.022174932,0.0,0.0,-0.16304044,0
93799738,0.21314889,0.34728852,0.009191436,0.0,0.0,-0.16228068,0
93820641,0.49482954,0.18470855,0.0022790423,0.0,0.0,-0.15597303,0
93841847,0.20762996,0.21087694,-0.0035031994,0.0,0.0,-0.15498948,0
93857672,0.08221967,0.033034496,-0.015698146,0.0,0.0,-0.15025948,0
93878849,-0.29249075,0.064218834,-0.029330846,0.0,0.0,-0.1489465,0
93900051,-0.12965809,-0.002056011,0.0007402259,0.0,0.0,-0.14279784,0
93921214,0.2293171,0.22544761,-0.0013627559,0.0,0.0,-0.14279628,0
93942444,0.59897435,0.2734634,0.00029779936,0.0,0.0,-0.13708705,0
93958387,0.78744835,0.35394973,-0.0030451536,0.0,0.0,-0.13821559,0
93979557,0.7842021,0.46293318,-0.014671447,0.0,0.0,-0.13288656,0
94000745,0.38488257,0.4675021,-0.025082413,0.0,0.0,-0.13009225,0
94021880,0.028348573,0.56910765,-0.05524335,0.0,0.0,-0.13371225,0
94037759,-0.5962739,0.39848512,-0.08102763,0.0,0.0,-0.1297331,0
94058969,-0.8365947,0.24525362,-0.11218478,0.0,0.0,-0.12815204,0
94080114,-0.7321887,0.023442153,-0.123857036,0.0,0.0,-0.1243078,0
94101365,-0.4503288,-0.16681944,-0.11520014,0.0,0.0,-0.12463128,0
94122495,0.0015063776,-0.15380313,-0.11093585,0.0,0.0,-0.12290737,0
94138453,0.15118168,-0.13266054,-0.103750266,0.0,0.0,-0.12285047,0
94159733,0.4961703,-0.20423496,-0.11069151,0.0,0.0,-0.12,0
94180801,0.5219825,-0.048918802,-0.10915057,0.0,0.0,-0.12,0
94202064,0.2050547,-0.066207685,-0.089238234,0.0,0.0,-0.12,0
94217909,-0.17798953,0.044203147,-0.08544168,0.0,0.0,-0.12,0
94239056,-0.6163183,0.12266282,-0.07926334,0.0,0.0,-0.12,0
94260212,-0.82088584,0.0023762402,-0.080459215,0.0,0.0,-0.12,0
94281452,-0.61625296,0.14339906,-0.0058347434,0.0,0.0,-0.12,0
94297423,-0.33718407,0.32755086,-0.00563648,0.0,0.0,-0.12,0
94318599,0.071526796,0.3047684,0.0022300356,0.0,0.0,-0.12,0
94340181,0.55336535,0.51077104,0.0019602652,0.0,0.0,-0.12,0
94360946,0.57999843,0.6775616,0.0011502118,0.0,0.0,-0.12411414,0
94382144,0.64959925,0.7761552,-0.011635684,0.0,0.0,-0.122050956,0
94397964,0.38424248,0.7945453,-0.014674685,0.0,0.0,-0.13016434,0
94419169,-0.16454075,0.6701387,-0.018494308,0.0,0.0,-0.13476247,0
94440373,-0.7071344,0.63569796,-0.05679307,0.0,0.0,-0.14131427,0
94461495,-0.8572014,0.47254932,-0.0818666,0.0,0.0,-0.14577295,0
94477420,-0.96657217,0.2650108,-0.08128532,0.0,0.0,-0.1464621,0
94498661,-0.7275941,0.06902407,-0.07626343,0.0,0.0,-0.15025784,0
94519912,-0.2526672,-0.113755785,-0.06601989,0.0,0.0,-0.15447013,0
94541017,0.33972862,-0.242227,-0.07281868,0.0,0.0,-0.1613973,0
94562201,0.81079304,-0.1942134,-0.08414796,0.0,0.0,-0.16299817,0
94578121,1.1048304,-0.19618526,-0.09541822,0.0,0.0,-0.16042395,0
94599349,1.0914493,-0.2752279,-0.08867265,0.0,0.0,-0.15471746,0
94620399,0.73266184,-0.199724,-0.065369755,0.0,0.0,-0.15632632,0
94641791,0.27968562,-0.4349842,-0.032004192,0.0,0.0,-0.15493894,0
94657551,-0.086295016,-0.3461174,-0.032679696,0.0,0.0,-0.15869555,0
94678717,-0.3804046,-0.3452201,-0.020196091,0.0,0.0,-0.15655936,0
94699895,-0.30721092,-0.42980066,-0.020993698,0.0,0.0,-0.15331507,0
94721123,0.052988973,-0.18684565,-0.037707694,0.0,0.0,-0.15581611,0
94742348,0.4246832,-0.23175515,-0.056553148,0.0,0.0,-0.15674053,0
94758208,0.89102715,-0.058545716,-0.07931374,0.0,0.0,-0.15955208,0
94779743,1.1353115,-0.02817886,-0.090730205,0.0,0.0,-0.15490814,0
94800658,1.0582142,0.16472465,-0.0931609,0.0,0.0,-0.15771712,0
94821721,0.5917414,0.17250971,-0.08351934,0.0,0.0,-0.15655887,0
94837610,0.08523669,0.16808426,-0.083249256,0.0,0.0,-0.15612301,0
94858828,-0.30976927,0.21059984,-0.091938436,0.0,0.0,-0.16031861,0
94879976,-0.5646044,0.22209847,-0.09369326,0.0,0.0,-0.15831125,0
94901167,-0.5136126,0.06663698,-0.07799851,0.0,0.0,-0.15727288,0
94922416,-0.051740922,0.17689133,-0.061843313,0.0,0.0,-0.15694411,0
94938300,0.28808373,0.06913209,-0.052896097,0.0,0.0,-0.15675355,0
94959573,0.5121917,0.040739186,-0.049421348,0.0,0.0,-0.15695809,0
94980699,0.6027664,-0.08006944,-0.052638296,0.0,0.0,-0.15470637,0
95001834,0.3783675,-0.215804,-0.048111383,0.0,0.0,-0.15049693,0
95017743,-0.1397892,-0.24883336,-0.056252107,0.0,0.0,-0.15453835,0
95038907,-0.3840368,-0.43583408,0.002313273,0.0,0.0,-0.1541089,0
95060140,-0.5831958,-0.6509958,-0.010617864,0.0,0.0,-0.15695235,0
95081342,-0.47238728,-0.7036581,-0.025978807,0.0,0.0,-0.1577783,0
95102510,-0.20893994,-0.9552719,-0.03410298,0.0,0.0,-0.155717,0
95118473,0.18388538,-0.86270165,-0.05243688,0.0,0.0,-0.15483682,0
95139657,0.4171177,-0.75725716,-0.061723128,0.0,0.0,-0.15051128,0
95160814,0.4565507,-0.31490874,-0.054504793,0.0,0.0,-0.14867175,0
95181972,0.45970863,0.029562013,-0.046439804,0.0,0.0,-0.1373528,0
95197820,0.36827537,0.23190269,-0.039461315,0.0,0.0,-0.13355082,0
95219131,0.02759901,0.5587132,-0.03619282,0.0,0.0,-0.12931025,0
95240305,0.07810417,0.9115758,-0.027188838,0.0,0.0,-0.12,0
95261394,0.17747167,0.9246679,-0.006242996,0.0,0.0,-0.12,0
95277366,0.47715583,0.9600344,0.008031188,0.0,0.0,-0.12,0
95298590,0.6692282,0.85310936,0.024500296,0.0,0.0,-0.12,0
95319770,0.7150454,0.46409315,0.037151873,0.0,0.0,-0.12,0
95340969,0.516624,0.33800265,0.04496893,0.0,0.0,-0.12,0
95362209,0.10046638,0.2070127,0.050169278,0.0,0.0,-0.12,0
95377934,-0.11101519,0.36309773,0.044068217,0.0,0.0,-0.12,0
95399128,-0.28414848,0.23134595,0.04872401,0.0,0.0,-0.12,0
95420405,-0.08634259,0.40321916,0.037829533,0.0,0.0,-0.12,0
95441465,0.18596059,0.45436153,0.03166216,0.0,0.0,-0.12,0
95457379,0.61537147,0.6747026,-0.024003379,0.0,0.0,-0.12,0
95478642,0.6968305,0.6833711,-0.020942014,0.0,0.0,-0.12,0
95499873,0.56285703,0.8378172,-0.021145929,0.0,0.0,-0.12,0
95521166,0.3308075,0.97153854,-0.030538773,0.0,0.0,-0.12,0
95542188,-0.22639212,0.76735985,-0.027165506,0.0,0.0,-0.12,0
95558035,-0.41811097,0.8221377,-0.041242596,0.0,0.0,-0.12,0
95579226,-0.5867026,0.5452225,-0.046085596,0.0,0.0,-0.12,0
95600459,-0.56587684,0.46714145,-0.03886483,0.0,0.0,-0.12,0
95621713,-0.088699825,0.40943483,-0.029376894,0.0,0.0,-0.12,0
95637527,0.18931444,0.14905758,-0.012672842,0.0,0.0,-0.12,0
95658657,0.38162705,-0.0019914422,-0.010787196,0.0,0.0,-0.12,0
95679961,0.4202159,-0.07882196,-0.009000724,0.0,0.0,-0.12,0
95701137,0.038183987,-0.16644906,0.0008971193,0.0,0.0,-0.12392965,0
95722377,-0.28638154,-0.3336389,0.012326882,0.0,0.0,-0.12457144,0
95738182,-0.57690275,-0.37116677,0.010055998,0.0,0.0,-0.1265611,0
95759348,-0.7601022,-0.5622871,0.01434071,0.0,0.0,-0.13077377,0
95780542,-0.89369106,-0.66291976,0.009685688,0.0,0.0,-0.1303041,0
95801762,-0.41907763,-0.6567434,0.0155703,0.0,0.0,-0.1295444,0
95817611,-0.008042117,-0.7055609,0.0062921545,0.0,0.0,-0.13122065,0
95838758,0.38388824,-0.84032476,-0.0054897945,0.0,0.0,-0.12992033,0
95860172,0.45472667,-0.75501704,-0.014446863,0.0,0.0,-0.13370878,0
95881165,0.4874511,-0.8482911,0.0037853457,0.0,0.0,-0.13150257,0
95902328,0.102765314,-0.9346584,0.03223316,0.0,0.0,-0.13497928,0
95918308,-0.20079173,-0.9068839,0.02686246,0.0,0.0,-0.13794985,0
95939856,-0.60868263,-1.0213671,0.017005662,0.0,0.0,-0.13937366,0
95960651,-0.62910753,-0.96416616,0.006201341,0.0,0.0,-0.14234486,0
95981802,-0.6077789,-1.1875958,-0.00056265155,0.0,0.0,-0.1434152,0
95997725,-0.20031856,-0.9859776,-0.0077826967,0.0,0.0,-0.1462139,0
96018904,0.21045971,-1.0193394,-0.04090875,0.0,0.0,-0.14913094,0
96040054,0.7015926,-0.62208647,-0.07328492,0.0,0.0,-0.15225834,0
96061337,0.78539956,-0.43507978,-0.07776744,0.0,0.0,-0.14503987,0
96082430,0.5976498,-0.1442283,-0.074371785,0.0,0.0,-0.1477613,0
96098425,0.36595032,0.10357313,-0.06674863,0.0,0.0,-0.15063986,0
96119609,-0.25771096,0.24389227,-0.071710356,0.0,0.0,-0.15310682,0
96140757,-0.71517,0.32945904,-0.09483848,0.0,0.0,-0.1572428,0
96161949,-0.94217783,0.39125332,-0.12765367,0.0,0.0,-0.1600774,0
96177792,-1.2140362,0.44825774,-0.13982134,0.0,0.0,-0.16023774,0
96198990,-0.99820215,0.57103235,-0.13626263,0.0,0.0,-0.15962583,0
96220193,-0.53063536,0.4815675,-0.09657827,0.0,0.0,-0.15883368,0
96241398,0.050177384,0.6240391,-0.07250076,0.0,0.0,-0.16004078,0
96262555,0.2810509,0.68401384,0.001195238,0.0,0.0,-0.15852669,0
96278529,0.3741487,0.74600655,-0.0016984902,0.0,0.0,-0.15695359,0
96299663,0.1570891,0.6448453,0.00014956278,0.0,0.0,-0.15776871,0
96320829,-0.08184099,0.59546816,-0.015964532,0.0,0.0,-0.1609068,0
96342136,-0.5979012,0.51016587,-0.031966798,0.0,0.0,-0.16822116,0
96358007,-0.81890905,0.4421995,-0.045729477,0.0,0.0,-0.16930969,0
96379153,-0.8743249,0.2478235,-0.044058148,0.0,0.0,-0.16819805,0
96400308,-0.48907962,0.14146972,-0.023736736,0.0,0.0,-0.17198642,0
96421475,0.020860428,0.10596865,0.006145983,0.0,0.0,-0.17127424,0
96437388,0.29130113,-0.06542123,0.015095311,0.0,0.0,-0.1689998,0
96458587,0.50075465,-0.18185551,0.027207226,0.0,0.0,-0.17178398,0
96480181,0.51855016,-0.25066516,0.03085434,0.0,0.0,-0.16944472,0
96501004,0.2388795,-0.44585752,0.034212552,0.0,0.0,-0.16633832,0
96522179,-0.19981201,-0.571567,0.0334017,0.0,0.0,-0.16770154,0
96538145,-0.5858638,-0.7307864,0.02763367,0.0,0.0,-0.16751856,0
96559185,-0.8449901,-0.79984665,0.018401258,0.0,0.0,-0.16689391,0
96580464,-0.6073794,-0.9135503,0.004464849,0.0,0.0,-0.1674228,0
96601523,-0.16059867,-0.908711,-0.015057052,0.0,0.0,-0.16729529,0
96617440,0.20901619,-0.799009,-0.016675,0.0,0.0,-0.16716167,0
96638641,0.517892,-0.73203874,-0.035069145,0.0,0.0,-0.16767149,0
96659994,0.7156975,-0.56321853,-0.0358571,0.0,0.0,-0.16393231,0
96681121,0.42737246,-0.5224661,-0.035587445,0.0,0.0,-0.16288252,0
96702220,0.02745587,-0.43566108,-0.028735999,0.0,0.0,-0.16188614,0
96718160,-0.35799772,-0.46221924,-0.032286312,0.0,0.0,-0.164788,0
96739659,-0.84486187,-0.630826,-0.039798435,0.0,0.0,-0.16457868,0
96760475,-0.9632359,-0.56899214,-0.05402255,0.0,0.0,-0.16780941,0
96781798,-0.7632642,-0.5629456,-0.061932776,0.0,0.0,-0.16468176,0
96797602,-0.52733344,-0.6166427,-0.065645576,0.0,0.0,-0.16568762,0
96818738,0.0014067094,-0.5256809,-0.07329451,0.0,0.0,-0.16767406,0
96839974,0.64339876,-0.35356742,-0.07632368,0.0,0.0,-0.16672984,0
96861115,0.64724493,-0.24092373,-0.07410871,0.0,0.0,-0.16837348,0
96882376,0.65885097,0.016410757,-0.067943886,0.0,0.0,-0.16437256,0
96898271,0.27211857,0.06350061,-0.06799438,0.0,0.0,-0.1667868,0
96919705,-0.006469758,0.08443093,-0.07756014,0.0,0.0,-0.16746987,0
96940650,-0.40353522,0.3812406,-0.10014324,0.0,0.0,-0.17248158,0
96961862,-0.49679893,0.34405681,-0.097934216,0.0,0.0,-0.16708721,0
96977679,-0.15155074,0.41013017,-0.09458083,0.0,0.0,-0.16559851,0
96998854,0.14333609,0.48484796,-0.06409919,0.0,0.0,-0.16528556,0
97020013,0.52072024,0.49219382,-0.037217945,0.0,0.0,-0.16287105,0
97041199,0.76767087,0.6048042,-0.0024440903,0.0,0.0,-0.1621749,0
97062412,0.5901273,0.527324,-0.014926894,0.0,0.0,-0.15748553,0
97078330,0.30514306,0.46453354,-0.029488124,0.0,0.0,-0.15873227,0
97099621,-0.04545382,0.31350663,-0.057345565,0.0,0.0,-0.16060033,0
97120775,-0.27832362,0.040276308,-0.07047284,0.0,0.0,-0.15950279,0
97141939,-0.14689606,-0.20987232,-0.06636003,0.0,0.0,-0.15803197,0
97157775,-0.017423866,-0.37102866,-0.054810375,0.0,0.0,-0.157766,0
97178948,0.21959555,-0.35322794,-0.036038004,0.0,0.0,-0.15034105,0
97200108,0.21482556,-0.2806426,-0.008386957,0.0,0.0,-0.14652668,0
97221298,0.31453192,-0.052518748,0.015942428,0.0,0.0,-0.13401416,0
97242550,0.0057325824,0.22589137,0.02843228,0.0,0.0,-0.12787288,0
97258493,-0.2096179,0.55132985,0.030345516,0.0,0.0,-0.12734754,0
97279659,-0.08895353,0.8754146,0.038664706,0.0,0.0,-0.12,0
97300841,0.16981336,1.0794728,0.000475507,0.0,0.0,-0.12,0
97321999,0.4049099,1.0635252,0.014467249,0.0,0.0,-0.12,0
97337833,0.34100124,0.9385794,0.022633318,0.0,0.0,-0.12,0
97359019,0.5009056,0.5950729,0.023419468,0.0,0.0,-0.12,0
97380308,0.048891738,0.3285904,0.030274065,0.0,0.0,-0.12,0
97401457,-0.3027961,0.015805807,0.031306844,0.0,0.0,-0.12185659,0
97417409,-0.5717821,-0.16082375,0.033050794,0.0,0.0,-0.12416744,0
97438593,-0.8377225,-0.3025741,0.03759222,0.0,0.0,-0.12510528,0
97459743,-0.6382162,-0.3835763,0.03254537,0.0,0.0,-0.12310748,0
97480954,-0.27794352,-0.47368973,0.023964304,0.0,0.0,-0.12431826,0
97502114,0.330856,-0.45943773,0.0014453194,0.0,0.0,-0.12624742,0
97518081,0.6934723,-0.29550806,-0.01144698,0.0,0.0,-0.1266261,0
97539211,0.94385064,-0.3194928,-0.026622739,0.0,0.0,-0.12912494,0
97560386,1.1066521,-0.13672708,-0.027926615,0.0,0.0,-0.12431467,0
97581521,0.68338805,-0.062736906,-0.024101758,0.0,0.0,-0.12833805,0
97597492,0.30721813,0.10588498,-0.038625497,0.0,0.0,-0.13557991,0
97618638,-0.1396153,0.04657908,-0.05156801,0.0,0.0,-0.13411243,0
97640201,-0.4598363,-0.09330994,-0.064336985,0.0,0.0,-0.13999133,0
97661109,-0.43045244,-0.16120143,-0.07168277,0.0,0.0,-0.14083588,0
97682251,-0.26916707,-0.32447365,-0.06894332,0.0,0.0,-0.14124717,0
97698185,0.12366522,-0.34662822,-0.05883807,0.0,0.0,-0.14217693,0
97719280,0.381759,-0.28960896,-0.053528823,0.0,0.0,-0.14300074,0
97740487,0.49693036,-0.1960439,-0.045667958,0.0,0.0,-0.14211248,0
97761683,0.35818353,0.05529308,-0.039202172,0.0,0.0,-0.14056934,0
97777518,0.19124496,0.26182055,-0.03764964,0.0,0.0,-0.14180203,0
97798745,-0.1968064,0.33360386,-0.034132086,0.0,0.0,-0.14157067,0
97819894,-0.6711492,0.45573163,-0.041872397,0.0,0.0,-0.14424239,0
97841131,-0.62977964,0.70991,-0.032923393,0.0,0.0,-0.14204645,0
97862361,-0.34102207,0.787951,0.00059503247,0.0,0.0,-0.13911097,0
97878206,-0.018369442,0.8403956,0.010041603,0.0,0.0,-0.13695014,0
97899622,0.25089696,0.850178,0.006494711,0.0,0.0,-0.13867217,0
97920518,0.48784652,0.7713844,0.008371384,0.0,0.0,-0.1352849,0
97941708,0.48717687,0.71486366,0.00073799083,0.0,0.0,-0.13464077,0
97957640,0.067705475,0.48351127,0.0075584482,0.0,0.0,-0.13275932,0
97978925,-0.3095347,0.4037064,0.0050951676,0.0,0.0,-0.13625002,0
97999997,-0.44888315,0.1645911,-0.00063002965,0.0,0.0,-0.13602851,0
98021168,-0.56760746,-0.075533554,-0.009687285,0.0,0.0,-0.13498434,0
98042364,-0.21572118,-0.15117377,-0.023218593,0.0,0.0,-0.13370505,0
98058274,0.054268904,-0.12411913,-0.030894276,0.0,0.0,-0.13236085,0
98079539,0.19374888,0.04664728,-0.041693415,0.0,0.0,-0.13480014,0
98100782,0.49091208,0.29206994,-0.04387891,0.0,0.0,-0.13479315,0
98121939,0.4079545,0.43560287,-0.03080007,0.0,0.0,-0.13146415,0
98137767,0.060882613,0.5045006,-0.016933465,0.0,0.0,-0.13230285,0
98158945,-0.32558444,0.7511555,-0.013988122,0.0,0.0,-0.13654706,0
98180120,-0.50108576,0.67241716,-0.011158761,0.0,0.0,-0.13258459,0
98201307,-0.46330917,0.7869252,0.0067116865,0.0,0.0,-0.13334802,0
98222492,0.017475052,0.66744506,0.03593293,0.0,0.0,-0.13295183,0
98238504,0.22074232,0.53706306,0.05447444,0.0,0.0,-0.13514262,0
98259643,0.6947272,0.58628374,0.0174804,0.0,0.0,-0.13691992,0
98280815,0.9258108,0.4441485,0.02342169,0.0,0.0,-0.13585337,0
98302004,0.6477929,0.13563532,0.026921598,0.0,0.0,-0.13453072,0
98317856,0.32551494,0.09647314,0.022445379,0.0,0.0,-0.13935503,0
98339059,-0.111759506,-0.115553185,0.021144787,0.0,0.0,-0.14302054,0
98360201,-0.59400904,-0.33588275,0.01770093,0.0,0.0,-0.15155251,0
98381447,-0.7920219,-0.67694396,0.013607666,0.0,0.0,-0.15044673,0
98402577,-0.85036075,-0.8687018,-0.00073224714,0.0,0.0,-0.1546807,0
98418623,-0.7709889,-1.0314707,-0.006067855,0.0,0.0,-0.15485716,0
98439751,-0.4139015,-1.3392149,-0.010256256,0.0,0.0,-0.15462217,0
98460906,0.02202972,-1.3181825,-0.0330187,0.0,0.0,-0.15738665,0
98482104,0.49870744,-1.18467,-0.07507131,0.0,0.0,-0.15607594,0
98497964,0.70794284,-1.2338037,-0.087178245,0.0,0.0,-0.15484749,0
98519147,0.4807549,-0.76354086,-0.08859601,0.0,0.0,-0.15675724,0
98540431,0.29264194,-0.5666405,-0.056883447,0.0,0.0,-0.15602466,0
98561476,-0.12085599,-0.3061897,-0.042737026,0.0,0.0,-0.1575945,0
98577444,-0.3270656,-0.18804651,-0.036752954,0.0,0.0,-0.1575911,0
98598591,-0.4838694,0.09984006,-0.03622961,0.0,0.0,-0.15598705,0
98619874,-0.07456232,0.3736331,-0.026948223,0.0,0.0,-0.15361369,0
98641019,0.24290454,0.4667448,-0.0056917737,0.0,0.0,-0.1533723,0
98662187,0.61102706,0.3651999,0.009327243,0.0,0.0,-0.1517732,0
98678042,0.75424457,0.5596131,0.0067951973,0.0,0.0,-0.1533742,0
98699224,0.462129,0.25351265,0.0030595814,0.0,0.0,-0.1512202,0
98720395,0.20036131,0.082720324,-0.012802557,0.0,0.0,-0.15232809,0
98741675,-0.1917699,-0.058575854,-0.03300589,0.0,0.0,-0.15185949,0
98757457,-0.28985852,-0.31124923,-0.039228726,0.0,0.0,-0.15411988,0
98778635,-0.19416091,-0.47657585,-0.04514908,0.0,0.0,-0.15754376,0
98799867,-0.025246762,-0.8172933,-0.04019452,0.0,0.0,-0.16039966,0
98821157,0.274522,-0.8141599,-0.056507885,0.0,0.0,-0.16294208,0
98842329,0.59789896,-0.76697165,-0.07429734,0.0,0.0,-0.16385481,0
98858162,0.765488,-0.6331707,-0.08057021,0.0,0.0,-0.16177273,0
98879352,0.71444845,-0.39325154,-0.07462122,0.0,0.0,-0.16003342,0
98900485,0.4801895,-0.15227999,-0.05995854,0.0,0.0,-0.15809259,0
98921761,-0.10211909,0.23606686,-0.062284138,0.0,0.0,-0.15802287,0
98937592,-0.13340122,0.47131634,-0.059791323,0.0,0.0,-0.1578425,0
98958801,-0.509179,0.59574807,-0.044469938,0.0,0.0,-0.15261918,0
98979997,-0.3456072,0.9122166,-0.026577944,0.0,0.0,-0.1480846,0
99001138,-0.00054986693,0.8757864,0.009718835,0.0,0.0,-0.14686298,0
99022382,0.18820773,0.8653787,0.005037679,0.0,0.0,-0.14421405,0
99038299,0.38243833,0.6432655,0.013739304,0.0,0.0,-0.14396092,0
99059507,0.20914203,0.2752749,0.02337489,0.0,0.0,-0.14371835,0
99080685,0.050851285,0.11359745,0.023301687,0.0,0.0,-0.1431321,0
99101796,-0.39090997,-0.15264773,0.026974889,0.0,0.0,-0.14536333,0
99117740,-0.5620792,-0.2737608,0.030729253,0.0,0.0,-0.14641628,0
