timestamp,timestamp_sample,gyro_device_id,gyro_bias[0],gyro_bias[1],gyro_bias[2],gyro_bias_limit,gyro_bias_variance[0],gyro_bias_variance[1],gyro_bias_variance[2],accel_device_id,accel_bias[0],accel_bias[1],accel_bias[2],accel_bias_limit,accel_bias_variance[0],accel_bias_variance[1],accel_bias_variance[2],mag_device_id,mag_bias[0],mag_bias[1],mag_bias[2],mag_bias_limit,mag_bias_variance[0],mag_bias_variance[1],mag_bias_variance[2],gyro_bias_valid,gyro_bias_stable,accel_bias_valid,accel_bias_stable,mag_bias_valid,mag_bias_stable
79979577,79879193,2490402,-0.00025664005,-0.0024408295,0.0013805318,0.15,1.8898898e-07,1.8912328e-07,9.0588935e-07,2490402,0.0015643385,-0.00074286654,0.05271447,0.4,0.0059507997,0.005945096,2.1318712e-05,8944899,-0.04404114,-0.013468172,0.020368211,0.5,0.0011992115,0.00082519697,0.0012514561,1,1,1,0,1,0
80993343,80889094,2490402,-0.0002511038,-0.0024339291,0.0013798457,0.15,1.8946297e-07,1.8960144e-07,9.0870253e-07,2490402,0.0015768282,-0.0007435071,0.05279391,0.4,0.0059508807,0.005945176,2.1083186e-05,8944899,-0.044054255,-0.013515016,0.020371122,0.5,0.0011991691,0.0008249521,0.0012514355,1,1,1,0,1,0
81999632,81899266,2490402,-0.0002501912,-0.0024478936,0.0013797963,0.15,1.902087e-07,1.9034587e-07,9.188025e-07,2490402,0.0015573605,-0.0007411496,0.052788932,0.4,0.0059509594,0.0059452527,2.0855645e-05,8944899,-0.04410749,-0.013508572,0.020393288,0.5,0.0011991141,0.00082476303,0.0012513979,1,1,1,0,1,0
83009566,82909194,2490402,-0.00024325975,-0.0024519712,0.0013794663,0.15,1.9089246e-07,1.9103898e-07,9.288921e-07,2490402,0.001558865,-0.00075359235,0.052760873,0.4,0.0059510395,0.005945335,2.0635855e-05,8944899,-0.04406284,-0.0134347975,0.020415345,0.5,0.0011990548,0.0008244614,0.0012513748,1,1,1,0,1,0
84023344,83919107,2490402,-0.0002357099,-0.0024466298,0.0013789816,0.15,1.915182e-07,1.9166906e-07,9.389776e-07,2490402,0.0015650847,-0.0007618629,0.052727077,0.4,0.0059511173,0.0059454204,2.0423e-05,8944899,-0.044104725,-0.013371708,0.020422736,0.5,0.0011990005,0.00082415366,0.001251355,1,1,1,0,1,0
85029681,84929119,2490402,-0.00023223377,-0.0024410153,0.0013786721,0.15,1.9210465e-07,1.9225743e-07,9.4906994e-07,2490402,0.0015916033,-0.0007811733,0.05279959,0.4,0.0059511955,0.0059455046,2.0216718e-05,8944899,-0.04406973,-0.01331779,0.020446667,0.5,0.0011989358,0.00082389725,0.0012513328,1,1,1,0,1,0
85819876,85719193,2490402,-0.00023645631,-0.0024287347,0.0013797707,0.15,1.9231943e-07,1.9246674e-07,9.569363e-07,2490402,0.0016133749,-0.0007707191,0.052820303,0.4,0.0059511997,0.0059455386,2.005673e-05,8944899,-0.043414112,-0.012606816,0.020895746,0.5,0.001197537,0.00082273147,0.0012489546,1,0,1,0,1,0
86163742,86059068,2490402,-0.00024979835,-0.002432853,0.0013817035,0.15,1.9191113e-07,1.9205635e-07,9.602372e-07,2490402,0.0016125024,-0.0008457969,0.052887067,0.4,0.0059511564,0.005945496,1.9974035e-05,8944899,-0.041807506,-0.010087106,0.021178393,0.5,0.0011964,0.00081797346,0.0012410523,1,0,1,0,1,0
86230003,86129093,2490402,-0.00024979794,-0.0024328507,0.0013817035,0.15,1.92612e-07,1.9275723e-07,9.609381e-07,2490402,0.0016183836,-0.0008478299,0.052912682,0.4,0.005951163,0.0059455023,1.9978012e-05,8944899,-0.040794328,-0.009681829,0.02006138,0.5,0.0011952547,0.0008177824,0.0012397657,1,0,1,0,1,0
86300066,86199117,2490402,-0.0002497981,-0.0024328486,0.0013817035,0.15,1.9331283e-07,1.9345805e-07,9.61639e-07,2490402,0.0016229453,-0.00084945327,0.052931987,0.4,0.0059511694,0.005945509,1.9979412e-05,8944899,-0.04180082,-0.010324654,0.02168279,0.5,0.0011926813,0.00081724534,0.0012364406,1,0,1,0,1,0
86369891,86269286,2490402,-0.00026166937,-0.002442278,0.0013872136,0.15,1.9212591e-07,1.9222097e-07,9.620627e-07,2490402,0.0015541903,-0.00089156476,0.052919004,0.4,0.005951128,0.00594546,1.9935662e-05,8944899,-0.041267995,-0.009190411,0.021674672,0.5,0.0011920956,0.00081357936,0.0012344172,1,0,1,0,1,0
86439839,86339454,2490402,-0.00026167,-0.0024422747,0.0013872136,0.15,1.9282952e-07,1.9292457e-07,9.627663e-07,2490402,0.0015605693,-0.00089399406,0.05294606,0.4,0.0059511345,0.0059454665,1.9939669e-05,8944899,-0.040895596,-0.010084559,0.020061731,0.5,0.0011915979,0.00081075635,0.0012282782,1,0,1,0,1,0
86563731,86459068,2490402,-0.000280082,-0.0024412328,0.0013939685,0.15,1.9210145e-07,1.9212027e-07,9.63546e-07,2490402,0.0014404162,-0.0007676648,0.052937813,0.4,0.0059509184,0.0059452625,1.9895626e-05,8944899,-0.039851446,-0.010695301,0.019841975,0.5,0.0011887966,0.0008065426,0.0012262152,1,0,1,0,1,0
86639957,86539195,2490402,-0.0002800837,-0.0024412281,0.0013939684,0.15,1.9290407e-07,1.9292288e-07,9.643484e-07,2490402,0.0014473629,-0.0007701612,0.052967563,0.4,0.005950926,0.00594527,1.9900534e-05,8944899,-0.03874714,-0.010089223,0.01859988,0.5,0.0011866386,0.000802948,0.0012211951,1,0,1,0,1,0
86709852,86609194,2490402,-0.0002800861,-0.0024412232,0.0013939681,0.15,1.9360444e-07,1.9362325e-07,9.650486e-07,2490402,0.0014530763,-0.0007716204,0.052992083,0.4,0.0059509324,0.0059452765,1.9901976e-05,8944899,-0.039863057,-0.009281423,0.01879453,0.5,0.0011855795,0.00080211076,0.0012203421,1,0,1,0,1,0
86853802,86749195,2490402,-0.00029093752,-0.0024554788,0.0014028758,0.15,1.9313507e-07,1.930738e-07,9.659287e-07,2490402,0.0012842685,-0.00093488017,0.052994814,0.4,0.005950676,0.0059449333,1.9860914e-05,8944899,-0.04005971,-0.008403136,0.019301027,0.5,0.00118199,0.0007937896,0.0012143163,1,0,1,0,1,0
86990012,86889075,2490402,-0.00029709967,-0.002460109,0.0014062558,0.15,1.9268953e-07,1.925481e-07,9.66835e-07,2490402,0.0011647334,-0.0009887941,0.052975148,0.4,0.0059501287,0.005944265,1.9822803e-05,8944899,-0.038896907,-0.0065345806,0.020032166,0.5,0.0011765697,0.0007856323,0.0012117825,1,0,1,0,1,0
87060083,86959227,2490402,-0.00029710398,-0.0024601032,0.0014062553,0.15,1.93393e-07,1.9325158e-07,9.675384e-07,2490402,0.0011698426,-0.0009878034,0.0529969,0.4,0.005950135,0.0059442716,1.982444e-05,8944899,-0.040164553,-0.0054926625,0.02140842,0.5,0.0011739149,0.00078192074,0.0012079283,1,0,1,0,1,0
87129875,87029420,2490402,-0.000297104,-0.0024601032,0.0014062551,0.15,1.9409703e-07,1.939556e-07,9.682425e-07,2490402,0.0011698453,-0.000987815,0.0529969,0.4,0.0059501417,0.005944278,1.9828314e-05,8944899,-0.040852,-0.0041165613,0.02106468,0.5,0.0011722371,0.0007799059,0.0012061654,1,0,1,0,1,0
87260013,87159226,2490402,-0.00031522076,-0.0024692093,0.001412044,0.15,1.9349228e-07,1.9330821e-07,9.692806e-07,2490402,0.00068844965,-0.0011283819,0.052974943,0.4,0.005949028,0.005943006,1.9787109e-05,8944899,-0.04043195,-0.0027944231,0.02073177,0.5,0.0011696779,0.00077485846,0.0012051404,1,0,1,0,1,0
87399872,87299193,2490402,-0.00031415283,-0.0024621063,0.0014101684,0.15,1.9294298e-07,1.9275292e-07,9.705769e-07,2490402,0.000829538,-0.0009251967,0.052927565,0.4,0.005947331,0.0059412136,1.9749163e-05,8944899,-0.039704833,-4.4776625e-06,0.022191295,0.5,0.0011684188,0.00077123195,0.0012013594,1,0,1,0,1,0
87469937,87369193,2490402,-0.00031415757,-0.0024620998,0.001410168,0.15,1.9364315e-07,1.9345309e-07,9.712769e-07,2490402,0.0008346062,-0.0009217729,0.052950937,0.4,0.0059473375,0.00594122,1.9750818e-05,8944899,-0.038848262,-0.00012380812,0.023013264,0.5,0.0011671802,0.0007704682,0.0011982111,1,0,1,0,1,0
87543791,87439068,2490402,-0.00031416197,-0.002462093,0.0014101677,0.15,1.9434086e-07,1.941508e-07,9.719746e-07,2490402,0.0008395389,-0.00091766415,0.052973878,0.4,0.005947344,0.0059412266,1.9754658e-05,8944899,-0.036797818,0.00095813104,0.02453029,0.5,0.0011654006,0.0007699342,0.0011963862,1,0,1,0,1,0
87610223,87509068,2490402,-0.00030486344,-0.0024482186,0.0014102714,0.15,1.9308519e-07,1.928958e-07,9.726601e-07,2490402,0.001216951,-0.00045357415,0.05294428,0.4,0.0059455894,0.0059393332,1.9712606e-05,8944899,-0.035887126,0.0019894014,0.025141317,0.5,0.0011647695,0.00076889154,0.0011953686,1,0,1,0,1,0
87680037,87579069,2490402,-0.00030486917,-0.0024482103,0.0014102713,0.15,1.9378584e-07,1.9359645e-07,9.733608e-07,2490402,0.0012239325,-0.00044710274,0.052976478,0.4,0.005945596,0.0059393398,1.971425e-05,8944899,-0.034670126,0.0016933997,0.026180657,0.5,0.0011629912,0.00076796114,0.0011909984,1,0,1,0,1,0
87750312,87649205,2490402,-0.00028856774,-0.0024336765,0.0014515362,0.15,1.9247221e-07,1.9234653e-07,9.5963e-07,2490402,0.0018835474,-0.000116227864,0.052970964,0.4,0.005943598,0.0059372,1.967259e-05,8944899,-0.031056993,-0.00038614214,0.027609954,0.5,0.0011503407,0.0006545569,0.0011888181,1,0,1,0,1,0
87880081,87779068,2490402,-0.00028856887,-0.002433675,0.0014515355,0.15,1.9376999e-07,1.9364431e-07,9.609281e-07,2490402,0.0018852938,-0.000114676724,0.05297785,0.4,0.0059436103,0.005937212,1.9677425e-05,8944899,-0.026283061,0.0007914661,0.030008383,0.5,0.0011406651,0.0006535294,0.0011814389,1,0,1,0,1,0
87950002,87849333,2490402,-0.0002746656,-0.0024345114,0.001455002,0.15,1.9251891e-07,1.9240788e-07,9.614619e-07,2490402,0.002272896,-0.00018688943,0.052934576,0.4,0.0059417337,0.005935414,1.9635987e-05,8944899,-0.021869915,0.0011985654,0.03173311,0.5,0.0011337857,0.0006514231,0.0011764085,1,0,1,0,1,0
88019929,87919437,2490402,-0.0002746661,-0.002434511,0.0014550016,0.15,1.9322142e-07,1.931104e-07,9.621646e-07,2490402,0.002273855,-0.00018605655,0.052938014,0.4,0.0059417402,0.0059354207,1.9637837e-05,8944899,-0.018746834,0.00047672665,0.032316588,0.5,0.0011273149,0.00065050373,0.0011715704,1,0,1,0,1,0
88089949,87989194,2490402,-0.00027466746,-0.0024345093,0.0014550015,0.15,1.9391678e-07,1.9380575e-07,9.628598e-07,2490402,0.002277955,-0.00018321454,0.052949086,0.4,0.0059417463,0.0059354273,1.9641748e-05,8944899,-0.016967006,0.001408962,0.034514815,0.5,0.0011215504,0.00064938853,0.0011679472,1,0,1,0,1,0
88159846,88059193,2490402,-0.00027606307,-0.0024377215,0.0014547155,0.15,1.9272768e-07,1.9256127e-07,9.634294e-07,2490402,0.0021086454,-0.00024714723,0.052897494,0.4,0.0059398566,0.005934016,1.9600382e-05,8944899,-0.0136795845,0.0014650398,0.036329735,0.5,0.0011126751,0.000647081,0.0011590051,1,0,1,0,1,0
88233666,88129068,2490402,-0.00027606345,-0.002437721,0.0014547155,0.15,1.934254e-07,1.9325898e-07,9.64127e-07,2490402,0.002110206,-0.0002462373,0.052901156,0.4,0.005939862,0.005934022,1.9602201e-05,8944899,-0.007978234,0.002248164,0.03869645,0.5,0.0011016509,0.000645587,0.0011510467,1,0,1,0,1,0
88289846,88189481,2490402,-0.0002760639,-0.0024377203,0.0014547156,0.15,1.9403389e-07,1.9386748e-07,9.647356e-07,2490402,0.0021134145,-0.0002449587,0.052906744,0.4,0.005939867,0.005934027,1.9605332e-05,8944899,-0.0046955235,0.002997101,0.0412782,0.5,0.0010904986,0.00064341957,0.0011423622,1,0,1,0,1,0
88359895,88259069,2490402,-0.00026596335,-0.0024266564,0.0014585416,0.15,1.927211e-07,1.9258975e-07,9.652618e-07,2490402,0.0025279883,-4.490834e-05,0.05288076,0.4,0.0059380285,0.005932931,1.9563884e-05,8944899,-0.003030609,0.0047229677,0.04337266,0.5,0.0010824945,0.00063955947,0.0011379769,1,0,1,0,1,0
88434010,88329194,2490402,-0.00026596515,-0.0024266553,0.0014585422,0.15,1.9342411e-07,1.9329276e-07,9.659648e-07,2490402,0.0025440005,-4.00143e-05,0.05290344,0.4,0.0059380326,0.005932937,1.9565725e-05,8944899,-0.003924624,0.00640639,0.047884624,0.5,0.0010705065,0.0006365406,0.0011271038,1,0,1,0,1,0
88503687,88399085,2490402,-0.00026596634,-0.0024266553,0.0014585429,0.15,1.9412204e-07,1.9399069e-07,9.666627e-07,2490402,0.0025439928,-3.9992767e-05,0.05290344,0.4,0.0059380373,0.005932941,1.9570205e-05,8944899,-0.0031165825,0.008131859,0.05022566,0.5,0.0010628744,0.000633839,0.0011208442,1,0,1,0,1,0
88559872,88459193,2490402,-0.00018961872,-0.0024728535,0.0015358225,0.15,1.9240643e-07,1.9238932e-07,9.655537e-07,2490402,0.0013166401,-0.004906227,0.053026978,0.4,0.0059281723,0.0059257844,1.9527815e-05,8944899,-0.0013315239,0.0015991242,0.050080143,0.5,0.0010619501,0.00062166376,0.0011208096,1,0,1,0,1,0
88570080,88469068,2490402,-0.00018961872,-0.0024728535,0.001535823,0.15,1.9250395e-07,1.9248684e-07,9.656511e-07,2490402,0.0013166337,-0.0049062073,0.053026978,0.4,0.005928173,0.005925785,1.9528692e-05,8944899,-0.004540558,0.0035130177,0.05175069,0.5,0.0010519964,0.0006194692,0.0011169167,1,0,1,0,1,0
88640029,88539245,2490402,-0.00018961947,-0.0024728542,0.0015358238,0.15,1.9320797e-07,1.9319086e-07,9.663551e-07,2490402,0.0013228254,-0.0049046855,0.05303398,0.4,0.005928176,0.005925791,1.9530567e-05,8944899,-0.008680241,0.0055890703,0.0517832,0.5,0.0010454291,0.0006176989,0.0011158787,1,0,1,0,1,0
88709881,88609320,2490402,-0.00018961981,-0.0024728547,0.0015358246,0.15,1.939099e-07,1.9389279e-07,9.670568e-07,2490402,0.0013245326,-0.004904229,0.053035684,0.4,0.0059281783,0.005925795,1.9532716e-05,8944899,-0.014279953,0.006894075,0.051366765,0.5,0.0010388416,0.0006161873,0.0011141867,1,0,1,0,1,0
88749998,88649069,2490402,-0.00015268334,-0.0025387672,0.0015943366,0.15,1.9187287e-07,1.9187117e-07,9.650956e-07,2490402,-0.005981306,-0.010071515,0.053035323,0.4,0.005893872,0.005898684,1.948612e-05,8944899,-0.01291198,0.001918719,0.05102374,0.5,0.001037669,0.0005998796,0.0011141264,1,0,1,0,1,0
88779963,88679585,2490402,-0.00015268337,-0.0025387672,0.001594337,0.15,1.9218348e-07,1.9218177e-07,9.654062e-07,2490402,-0.005981306,-0.010071515,0.053035323,0.4,0.005893873,0.0058986847,1.9487043e-05,8944899,-0.020643365,0.0022693702,0.05034554,0.5,0.0010285128,0.0005986538,0.0011126432,1,0,1,0,1,0
88840027,88739215,2490402,-0.00015268488,-0.0025387702,0.0015943381,0.15,1.9277678e-07,1.9277508e-07,9.659994e-07,2490402,-0.005975256,-0.01006983,0.053040825,0.4,0.005893873,0.005898687,1.9487494e-05,8944899,-0.026677025,0.002016921,0.048439585,0.5,0.0010215583,0.00059748086,0.0011113593,1,0,1,0,1,0
88909920,88809229,2490402,-0.00015268548,-0.0025387714,0.0015943389,0.15,1.9347749e-07,1.9347578e-07,9.667e-07,2490402,-0.005973201,-0.010069209,0.053042613,0.4,0.0058938763,0.0058986926,1.9491472e-05,8944899,-0.03136303,0.0011424598,0.04566382,0.5,0.0010164267,0.0005962022,0.0011093905,1,0,1,0,1,0
88949939,88849068,2490402,-0.00015496709,-0.0025530353,0.0015959607,0.15,1.914636e-07,1.9129561e-07,9.649717e-07,2490402,-0.007714182,-0.009858108,0.053113747,0.4,0.0058266916,0.0058459635,1.944156e-05,8944899,-0.031302314,0.0009765153,0.04559224,0.5,0.0010153396,0.0005819252,0.0011093126,1,0,1,0,1,0
88979939,88879464,2490402,-0.00015496823,-0.002553038,0.0015959617,0.15,1.9177168e-07,1.9160369e-07,9.652797e-07,2490402,-0.0077100713,-0.0098568555,0.053117204,0.4,0.005826691,0.0058459654,1.9442163e-05,8944899,-0.037035715,-0.0013224984,0.04185103,0.5,0.0010101423,0.0005800774,0.0011062156,1,0,1,0,1,0
89049583,88949193,2490402,-0.00015496823,-0.002553038,0.0015959617,0.15,1.9246679e-07,1.922988e-07,9.659749e-07,2490402,-0.0077100713,-0.0098568555,0.053117204,0.4,0.005826694,0.0058459714,1.9446177e-05,8944899,-0.002221778,-0.10086727,0.04647389,0.5,0.0025000002,0.0025000002,0.0025000002,1,0,1,0,1,0
89123931,89019193,2490402,-0.00015574654,-0.0025528958,0.001604164,0.15,1.9316485e-07,1.9299918e-07,9.66408e-07,2490402,-0.007866158,-0.00957516,0.053115733,0.4,0.0058265966,0.0058456636,1.94501e-05,8944899,-0.039156754,-0.0459601,0.026957916,0.5,0.0016685282,0.0017269432,0.0016674992,1,0,1,0,1,0
89149969,89049069,2490402,-0.00015956137,-0.0025423327,0.0016028956,0.15,1.9115127e-07,1.9068277e-07,9.656284e-07,2490402,-0.005342548,-0.00864329,0.0531748,0.4,0.0057399645,0.005778261,1.9397257e-05,8944899,-0.039243504,-0.045920413,0.026998397,0.5,0.0016680941,0.0017255966,0.0016674718,1,0,1,0,1,0
89193814,89089193,2490402,-0.00016089572,-0.0025421514,0.0016136859,0.15,1.9154913e-07,1.9108552e-07,9.657062e-07,2490402,-0.0055588502,-0.008229459,0.053170025,0.4,0.0057398337,0.0057777865,1.9398642e-05,8944899,-0.05558547,-0.027026141,0.017941888,0.5,0.0014964007,0.0015504757,0.0015007603,1,0,1,0,1,0
89260010,89159068,2490402,-0.00016219555,-0.0025419642,0.0016241862,0.15,1.9224179e-07,1.9178307e-07,9.660773e-07,2490402,-0.0057566194,-0.007828149,0.053165376,0.4,0.0057397196,0.0057773152,1.9402609e-05,8944899,-0.06067072,-0.019231433,0.0155771505,0.5,0.0014164816,0.0014608463,0.0014291153,1,0,1,0,1,0
89330079,89229219,2490402,-0.00016347469,-0.002541776,0.0016345205,0.15,1.9294053e-07,1.9248664e-07,9.664594e-07,2490402,-0.0059455163,-0.007435272,0.05316082,0.4,0.0057396134,0.005776857,1.9406556e-05,8944899,-0.07142959,-0.016149923,0.012183667,0.5,0.0013659438,0.0014026811,0.0013884061,1,0,1,0,1,0
89350006,89249193,2490402,-0.00014405341,-0.0025025986,0.0016531596,0.15,1.9096882e-07,1.902425e-07,9.661023e-07,2490402,0.0010960201,-0.010358706,0.053114377,0.4,0.005661152,0.0057151564,1.9354045e-05,8944899,-0.07085482,-0.01705886,0.012335946,0.5,0.0013649574,0.0014014045,0.0013883588,1,0,1,0,1,0
89393720,89289069,2490402,-0.00014538826,-0.002502496,0.0016624589,0.15,1.9136063e-07,1.9064036e-07,9.662043e-07,2490402,0.0009181878,-0.009971992,0.053109877,0.4,0.005661043,0.005714648,1.9355393e-05,8944899,-0.075771056,-0.014708418,0.010181643,0.5,0.00132752,0.0013581674,0.0013628515,1,0,1,0,1,0
89460237,89359193,2490402,-0.0001466384,-0.0025023995,0.0016711669,0.15,1.9205775e-07,1.9134293e-07,9.666412e-07,2490402,0.0007540803,-0.009610828,0.05310567,0.4,0.0056609493,0.0057141967,1.9359419e-05,8944899,-0.08286583,-0.007378906,0.008520791,0.5,0.0012979574,0.0013251009,0.0013447666,1,0,1,0,1,0
89530014,89429088,2490402,-0.00014780139,-0.002502307,0.0016792379,0.15,1.9275086e-07,1.9204126e-07,9.67087e-07,2490402,0.0006065691,-0.0092738625,0.05310174,0.4,0.0056608655,0.005713762,1.9363335e-05,8944899,-0.08972901,-0.00466453,0.0067312247,0.5,0.0012705044,0.0012949179,0.0013222905,1,0,1,0,1,0
89559806,89459583,2490402,-0.00015835385,-0.0025007334,0.0016772655,0.15,1.911084e-07,1.9019139e-07,9.668312e-07,2490402,0.00064322544,-0.008036953,0.053007107,0.4,0.0056177313,0.00568076,1.9316665e-05,8944899,-0.089874335,-0.004560625,0.0067442562,0.5,0.0012693304,0.00129321,0.0013222186,1,0,1,0,1,0
89600006,89499212,2490402,-0.00015952588,-0.002500759,0.0016847249,0.15,1.9149569e-07,1.9058457e-07,9.669855e-07,2490402,0.0004928073,-0.007710628,0.053003307,0.4,0.0056176316,0.0056803054,1.9317991e-05,8944899,-0.09178841,-0.004308029,0.00023110054,0.5,0.0012470445,0.0012689021,0.0013073364,1,0,1,0,1,0
89669918,89569560,2490402,-0.00016061794,-0.0025007916,0.0016916603,0.15,1.9219752e-07,1.9129186e-07,9.674724e-07,2490402,0.0003636749,-0.0074029597,0.053004663,0.4,0.005617545,0.005679886,1.9322077e-05,8944899,-0.0970383,-0.0027195604,0.0006452562,0.5,0.001229767,0.0012477615,0.0012983871,1,0,1,0,1,0
89739874,89639220,2490402,-0.00016161539,-0.0025008128,0.0016979807,0.15,1.9288612e-07,1.9198544e-07,9.67965e-07,2490402,0.00024168509,-0.007123219,0.05300155,0.4,0.005617461,0.0056794966,1.9323608e-05,8944899,-0.100306146,-0.0030717817,-0.00020682225,0.5,0.001213742,0.0012278799,0.0012887069,1,0,1,0,1,0
89749947,89649068,2490402,-0.00017018263,-0.002513302,0.0016895403,0.15,1.9118683e-07,1.9018076e-07,9.673796e-07,2490402,-0.0011850077,-0.0065104645,0.052942608,0.4,0.005595699,0.005663093,1.9280867e-05,8944899,-0.10073776,-0.002560412,-0.00028643274,0.5,0.0012121007,0.0012253849,0.0012886141,1,0,1,0,1,0
89809910,89709070,2490402,-0.00017113819,-0.0025134338,0.0016953142,0.15,1.9178238e-07,1.907811e-07,9.678008e-07,2490402,-0.0013080487,-0.006248434,0.052939553,0.4,0.005595616,0.0056627286,1.9284062e-05,8944899,-0.10365214,-0.0006336214,0.00083143165,0.5,0.0011986686,0.0012081539,0.0012815618,1,0,1,0,1,0
89883992,89779193,2490402,-0.00017203363,-0.0025135572,0.0017007183,0.15,1.9248066e-07,1.9148379e-07,9.683391e-07,2490402,-0.0014218622,-0.0060025956,0.052936684,0.4,0.005595542,0.005662393,1.9288114e-05,8944899,-0.10840813,0.0012668223,-0.0009326566,0.5,0.001187031,0.001193175,0.0012757624,1,0,1,0,1,0
89939916,89839194,2490402,-0.00017286703,-0.0025136722,0.0017057416,0.15,1.9307649e-07,1.9208376e-07,9.687852e-07,2490402,-0.0015255992,-0.0057728593,0.052934002,0.4,0.0055954736,0.0056620752,1.9291176e-05,8944899,-0.1101945,0.0035561244,-0.002784898,0.5,0.0011753096,0.0011773874,0.001267282,1,0,1,0,1,0
89950183,89849104,2490402,-0.00019107272,-0.0025164948,0.0017045186,0.15,1.9140593e-07,1.9045613e-07,9.681008e-07,2490402,-0.001867,-0.0048356284,0.05283964,0.4,0.0055854674,0.005654526,1.9248013e-05,8944899,-0.110340126,0.003658207,-0.0027747573,0.5,0.001173188,0.0011741866,0.0012671809,1,0,1,0,1,0
90009897,89909193,2490402,-0.00019184097,-0.0025167016,0.001709113,0.15,1.920044e-07,1.9105813e-07,9.685671e-07,2490402,-0.0019692944,-0.0046223695,0.052837152,0.4,0.0055853976,0.0056542372,1.9251249e-05,8944899,-0.113447875,0.0038612587,-0.0007969892,0.5,0.0011633254,0.0011594007,0.0012597447,1,0,1,0,1,0
90083686,89979068,2490402,-0.00019257133,-0.0025168976,0.0017134743,0.15,1.9269916e-07,1.9175619e-07,9.691382e-07,2490402,-0.0020654912,-0.0044195876,0.052834783,0.4,0.0055853315,0.005653965,1.9253484e-05,8944899,-0.11758901,0.0048881904,-0.004039428,0.5,0.0011553107,0.0011462354,0.0012525484,1,0,1,0,1,0
90150682,90049193,2490402,-0.00021198593,-0.0025065425,0.0017292504,0.15,1.9162825e-07,1.9087642e-07,9.688182e-07,2490402,-0.00206234,-0.004418059,0.052836332,0.4,0.005585327,0.005653967,1.9255704e-05,8944899,-0.11581412,0.0057117296,-0.007921953,0.5,0.0011433293,0.0011298442,0.0012455056,1,0,1,0,1,0
90220042,90119069,2490402,-0.00021259856,-0.0025068023,0.0017330111,0.15,1.9232316e-07,1.9157376e-07,9.694048e-07,2490402,-0.002143327,-0.00423722,0.052836183,0.4,0.005585267,0.00565372,1.9259813e-05,8944899,-0.11806934,0.0048974482,-0.010185103,0.5,0.0011321733,0.0011163392,0.0012357411,1,0,1,0,1,0
90290046,90189208,2490402,-0.00021318284,-0.0025070463,0.0017365894,0.15,1.9302345e-07,1.9227636e-07,9.70003e-07,2490402,-0.002223677,-0.0040667295,0.052834187,0.4,0.005585211,0.0056534857,1.92639e-05,8944899,-0.121038206,0.004707317,-0.011467975,0.5,0.0011251674,0.0011070359,0.0012320927,1,0,1,0,1,0
90359934,90259510,2490402,-0.00022561339,-0.002512155,0.0017437049,0.15,1.9187102e-07,1.914751e-07,9.696131e-07,2490402,-0.002222207,-0.004065931,0.052834872,0.4,0.0055852034,0.005653485,1.9264324e-05,8944899,-0.12155704,0.0069192853,-0.013517781,0.5,0.0011157374,0.0010871458,0.0012200206,1,0,1,0,1,0
90429935,90329194,2490402,-0.0002260766,-0.0025124373,0.0017468698,0.15,1.9256281e-07,1.9216817e-07,9.702135e-07,2490402,-0.0022941113,-0.003910947,0.05283305,0.4,0.005585157,0.005653263,1.9266115e-05,8944899,-0.122390606,0.006816947,-0.009329264,0.5,0.0011049628,0.0010762056,0.0012054999,1,0,1,0,1,0
90490042,90389258,2490402,-0.00022651842,-0.0025127,0.0017498755,0.15,1.931625e-07,1.9276906e-07,9.707286e-07,2490402,-0.0023620527,-0.0037634796,0.052831315,0.4,0.0055851163,0.0056530586,1.9269663e-05,8944899,-0.12728815,0.0076453728,-0.00578166,0.5,0.0010928608,0.0010677843,0.0011953879,1,0,1,0,1,0
90559906,90459475,2490402,-0.00022873215,-0.0024942458,0.0017595703,0.15,1.9211684e-07,1.9197131e-07,9.708529e-07,2490402,-0.0026861953,-0.0038161683,0.0528091,0.4,0.0055835145,0.0056518363,1.9231766e-05,8944899,-0.13054912,0.008603921,-0.0045043873,0.5,0.0010836731,0.001057843,0.0011888115,1,0,1,0,1,0
90629837,90529585,2490402,-0.00022908807,-0.0024945135,0.0017622239,0.15,1.9281815e-07,1.9267323e-07,9.714805e-07,2490402,-0.0027416942,-0.003680591,0.052809224,0.4,0.005583472,0.0056516496,1.9235926e-05,8944899,-0.13335873,0.008480643,-0.003180862,0.5,0.0010776703,0.0010512386,0.0011862937,1,0,1,0,1,0
90699895,90599193,2490402,-0.0002294271,-0.0024947734,0.0017647604,0.15,1.9350941e-07,1.9336507e-07,9.721014e-07,2490402,-0.0027888245,-0.0035472836,0.05281153,0.4,0.005583432,0.0056514693,1.9239931e-05,8944899,-0.13488637,0.009055258,-0.0019957763,0.5,0.0010737493,0.0010439248,0.0011833248,1,0,1,0,1,0
90773955,90669194,2490402,-0.00024675642,-0.0025118224,0.001767189,0.15,1.9253243e-07,1.9260465e-07,9.723294e-07,2490402,-0.0027778444,-0.003540064,0.05281621,0.4,0.0055834204,0.0056514647,1.9238538e-05,8944899,-0.13539428,0.012956641,-0.0021016323,0.5,0.0010691347,0.0010276235,0.001170682,1,0,1,0,1,0
90843718,90739068,2490402,-0.00024703846,-0.002512077,0.0017694439,0.15,1.9322924e-07,1.9330166e-07,9.729622e-07,2490402,-0.0028257521,-0.003423072,0.052814815,0.4,0.005583394,0.0056512924,1.9241192e-05,8944899,-0.13658816,0.013879025,0.001799484,0.5,0.0010650894,0.0010208109,0.0011658856,1,0,1,0,1,0
90910042,90809193,2490402,-0.00024730663,-0.0025123223,0.0017715939,0.15,1.9393123e-07,1.9400383e-07,9.736038e-07,2490402,-0.0028681667,-0.0033093428,0.052814603,0.4,0.005583347,0.00565112,1.9243033e-05,8944899,-0.13875444,0.01439481,0.0023558459,0.5,0.0010608573,0.0010155207,0.0011634734,1,0,1,0,1,0
90980001,90879275,2490402,-0.00027132625,-0.0025098533,0.0017815589,0.15,1.9298984e-07,1.9318692e-07,9.740595e-07,2490402,-0.002909511,-0.0032015701,0.052813314,0.4,0.005583325,0.00565095,1.924668e-05,8944899,-0.13869366,0.017353952,-0.00074601226,0.5,0.0010570508,0.0010010413,0.0011505932,1,0,1,0,1,0
91049901,90949427,2490402,-0.00027154668,-0.0025100862,0.0017834812,0.15,1.936926e-07,1.9388966e-07,9.747055e-07,2490402,-0.0029006794,-0.0031952013,0.05281687,0.4,0.0055833175,0.0056509487,1.9249923e-05,8944899,-0.14030491,0.017491536,0.00077939255,0.5,0.0010532981,0.0009941172,0.0011474999,1,0,1,0,1,0
91110013,91009074,2490402,-0.00027176272,-0.0025103164,0.0017853704,0.15,1.9428504e-07,1.9448207e-07,9.752436e-07,2490402,-0.00292877,-0.0030869006,0.05281963,0.4,0.0055832835,0.0056507876,1.9251203e-05,8944899,-0.14286584,0.016187776,0.00021001787,0.5,0.0010500994,0.0009886168,0.0011451187,1,0,1,0,1,0
91153661,91049069,2490402,-0.00027241817,-0.0025008067,0.001784298,0.15,1.9303172e-07,1.9330865e-07,9.753873e-07,2490402,-0.004037875,-0.0037400052,0.05271974,0.4,0.0055740336,0.00563993,1.9214347e-05,8944899,-0.14290777,0.016225811,0.00021008139,0.5,0.0010493841,0.0009877415,0.0011451113,1,0,1,0,1,0
91180036,91079068,2490402,-0.0002726058,-0.0025010256,0.001786106,0.15,1.9333116e-07,1.9360795e-07,9.756336e-07,2490402,-0.004037875,-0.0037400052,0.05271974,0.4,0.0055740336,0.00563993,1.9214347e-05,8944899,-0.14323296,0.017788574,-0.0015795378,0.5,0.0010462292,0.000978397,0.0011384243,1,0,1,0,1,0
91249919,91149235,2490402,-0.00027278528,-0.002501239,0.0017878475,0.15,1.940342e-07,1.9431083e-07,9.762858e-07,2490402,-0.004060886,-0.0036355066,0.052723326,0.4,0.005574004,0.005639774,1.9217603e-05,8944899,-0.14450529,0.017759321,-0.00022133111,0.5,0.0010433575,0.00097150373,0.0011338008,1,0,1,0,1,0
91319907,91219193,2490402,-0.00027296142,-0.0025014414,0.001789533,0.15,1.9473289e-07,1.9500936e-07,9.769358e-07,2490402,-0.004091694,-0.0035408367,0.052723393,0.4,0.0055739586,0.005639613,1.9219418e-05,8944899,-0.14613321,0.017499253,-0.0003204244,0.5,0.0010403044,0.00096736045,0.0011326622,1,0,1,0,1,0
91353901,91249193,2490402,-0.00026138395,-0.0024894627,0.0017784594,0.15,1.9331985e-07,1.9359562e-07,9.765312e-07,2490402,-0.005271885,-0.0030656897,0.052703205,0.4,0.005564677,0.0056275357,1.9182056e-05,8944899,-0.14678232,0.018161543,-0.00034429587,0.5,0.001037869,0.00096480415,0.0011326564,1,0,1,0,1,0
91389861,91289194,2490402,-0.0002615289,-0.0024896408,0.0017800778,0.15,1.9371954e-07,1.9399516e-07,9.768852e-07,2490402,-0.0053000925,-0.0029696354,0.052704684,0.4,0.005564645,0.0056273853,1.9183586e-05,8944899,-0.14701003,0.017690387,0.00085382094,0.5,0.0010346235,0.0009595074,0.0011294108,1,0,1,0,1,0
91463942,91359193,2490402,-0.00026167106,-0.0024898127,0.0017816527,0.15,1.9441937e-07,1.9469485e-07,9.775415e-07,2490402,-0.005330809,-0.002878826,0.052704815,0.4,0.0055646156,0.005627244,1.9187755e-05,8944899,-0.14956991,0.016977685,0.0017493288,0.5,0.0010313287,0.0009537505,0.0011252492,1,0,1,0,1,0
91533673,91429068,2490402,-0.00026180304,-0.0024899896,0.0017831712,0.15,1.9511697e-07,1.9539229e-07,9.781966e-07,2490402,-0.0053400653,-0.0027746488,0.0527121,0.4,0.0055645686,0.0056270915,1.9189594e-05,8944899,-0.15028785,0.017939743,0.0002154187,0.5,0.0010291736,0.0009495986,0.0011239263,1,0,1,0,1,0
91553878,91449068,2490402,-0.00025900052,-0.0025074442,0.0017896376,0.15,1.9364603e-07,1.9386984e-07,9.77858e-07,2490402,-0.0042859605,-0.0016612578,0.052684817,0.4,0.005553011,0.005610739,1.9151057e-05,8944899,-0.14987548,0.01755574,0.00021433993,0.5,0.0010272835,0.0009477238,0.0011239235,1,0,1,0,1,0
91589863,91489193,2490402,-0.0002591194,-0.0025075832,0.0017910942,0.15,1.9404834e-07,1.9427205e-07,9.782201e-07,2490402,-0.004319005,-0.0015781983,0.05268382,0.4,0.005552978,0.0056106,1.9152629e-05,8944899,-0.15134296,0.017177708,0.0003611022,0.5,0.0010251784,0.0009442938,0.0011233448,1,0,1,0,1,0
91659838,91559068,2490402,-0.00025923346,-0.002507717,0.0017924882,0.15,1.9474568e-07,1.949693e-07,9.788787e-07,2490402,-0.004348252,-0.0014970124,0.05268353,0.4,0.005552948,0.005610467,1.9156796e-05,8944899,-0.15230852,0.01811848,-0.00015391714,0.5,0.0010225845,0.00093999034,0.0011180352,1,0,1,0,1,0
91733696,91629194,2490402,-0.00025934025,-0.002507854,0.0017938319,0.15,1.9544827e-07,1.9567179e-07,9.795431e-07,2490402,-0.0043608127,-0.0014053886,0.052688446,0.4,0.0055528996,0.0056103203,1.9158717e-05,8944899,-0.1512865,0.019592091,-0.0010272466,0.5,0.0010184386,0.0009339818,0.0011122794,1,0,1,0,1,0
91749944,91649194,2490402,-0.00027327592,-0.0025106405,0.0018018085,0.15,1.9391997e-07,1.9414766e-07,9.789649e-07,2490402,-0.004166441,-0.0028096822,0.052623022,0.4,0.0055405283,0.005594062,1.9120534e-05,8944899,-0.15080133,0.019099569,-0.0010084,0.5,0.0010156085,0.00093107193,0.0011122732,1,0,1,0,1,0
91800254,91699068,2490402,-0.0002733587,-0.002510755,0.0018031038,0.15,1.9441735e-07,1.9464494e-07,9.794265e-07,2490402,-0.004185872,-0.0027233942,0.052626017,0.4,0.0055404957,0.005593928,1.9122977e-05,8944899,-0.15259287,0.018480249,-0.0016948092,0.5,0.0010138736,0.0009276004,0.0011107146,1,0,1,0,1,0
91940054,91839215,2490402,-0.00027351294,-0.0025109807,0.0018055574,0.15,1.9582106e-07,1.9604843e-07,9.80762e-07,2490402,-0.004203662,-0.0025429558,0.052637506,0.4,0.005540412,0.0055936524,1.9126446e-05,8944899,-0.15401745,0.019212341,-0.00012462943,0.5,0.0010085234,0.00091974525,0.0011022307,1,0,1,0,1,0
91949869,91849198,2490402,-0.00027903047,-0.002504173,0.0018048753,0.15,1.9420033e-07,1.9440358e-07,9.799376e-07,2490402,-0.0051983586,-0.0039252867,0.052533086,0.4,0.005527143,0.0055753863,1.9087753e-05,8944899,-0.15405291,0.019251352,-0.00012864581,0.5,0.0010050563,0.0009162297,0.0011022243,1,0,1,0,1,0
92009886,91909550,2490402,-0.00027908606,-0.002504257,0.0018060383,0.15,1.9480747e-07,1.9501063e-07,9.805134e-07,2490402,-0.00522783,-0.003853877,0.052532222,0.4,0.0055271103,0.0055752588,1.9091185e-05,8944899,-0.15599644,0.0190298,0.006014859,0.5,0.0009961277,0.00090932584,0.0010908281,1,0,1,0,1,0
92149852,92049069,2490402,-0.00029602312,-0.0024932541,0.0018086325,0.15,1.9454438e-07,1.9470448e-07,9.817157e-07,2490402,-0.0058225314,-0.005940979,0.05255679,0.4,0.0055098976,0.0055505917,1.9053217e-05,8944899,-0.15689683,0.019192273,0.0063193166,0.5,0.0009877867,0.0008993844,0.0010795062,1,0,1,0,1,0
92209902,92109495,2490402,-0.00029606934,-0.0024933273,0.0018097049,0.15,1.951534e-07,1.9531343e-07,9.822965e-07,2490402,-0.005849981,-0.0058746366,0.052555986,0.4,0.005509865,0.0055504716,1.9056684e-05,8944899,-0.15860933,0.018004773,0.0059059863,0.5,0.0009864181,0.0008965524,0.0010787405,1,0,1,0,1,0
92279932,92179201,2490402,-0.00029611125,-0.002493405,0.0018107431,0.15,1.958476e-07,1.9600756e-07,9.829631e-07,2490402,-0.0058527323,-0.0057881526,0.052562583,0.4,0.0055098115,0.005550335,1.9058738e-05,8944899,-0.15925731,0.01792608,0.004573166,0.5,0.0009849378,0.0008936348,0.0010767636,1,0,1,0,1,0
92350161,92249193,2490402,-0.00030363505,-0.0025117882,0.001816279,0.15,1.9489833e-07,1.9502953e-07,9.834391e-07,2490402,-0.0043017813,-0.0064507024,0.052453212,0.4,0.005489083,0.005523314,1.9020776e-05,8944899,-0.1586915,0.019130658,0.002803809,0.5,0.0009829095,0.0008852268,0.0010693707,1,0,1,0,1,0
92424063,92319068,2490402,-0.0003036635,-0.0025118648,0.0018172642,0.15,1.955961e-07,1.9572721e-07,9.841106e-07,2490402,-0.0042843865,-0.006347758,0.052465633,0.4,0.005489052,0.0055231955,1.9025056e-05,8944899,-0.15972377,0.018847674,0.003285704,0.5,0.0009817077,0.00088289374,0.0010689507,1,0,1,0,1,0
92560206,92459106,2490402,-0.000314029,-0.0025058861,0.0018192863,0.15,1.9527026e-07,1.9532268e-07,9.84808e-07,2490402,-0.0050007883,-0.0080664,0.05240017,0.4,0.0054732882,0.005498108,1.899171e-05,8944899,-0.1611157,0.018592976,0.0045681093,0.5,0.000976892,0.0008735213,0.0010637287,1,0,1,0,1,0
92630039,92529232,2490402,-0.00031404904,-0.0025059364,0.0018202025,0.15,1.9597326e-07,1.9602562e-07,9.854876e-07,2490402,-0.0050007883,-0.0080664,0.05240017,0.4,0.005473268,0.0054980884,1.8991539e-05,8944899,-0.163612,0.016383143,0.0059379674,0.5,0.0009741857,0.0008676451,0.0010576932,1,0,1,0,1,0
92693728,92589068,2490402,-0.0003140677,-0.0025059883,0.0018210987,0.15,1.9657006e-07,1.9662237e-07,9.860618e-07,2490402,-0.005007045,-0.007990429,0.052404754,0.4,0.0054732324,0.005497974,1.8994793e-05,8944899,-0.16414256,0.016131273,0.0068985885,0.5,0.0009723207,0.00086409465,0.001054824,1,0,1,0,1,0
92760043,92659069,2490402,-0.0003229248,-0.0025270153,0.0018278422,0.15,1.9558425e-07,1.9557513e-07,9.865996e-07,2490402,-0.005007045,-0.007990429,0.052404754,0.4,0.0054732324,0.005497974,1.8994793e-05,8944899,-0.1637673,0.016093964,0.007962734,0.5,0.0009710351,0.0008564905,0.0010466732,1,0,1,0,1,0
92830019,92729252,2490402,-0.0003229368,-0.0025270635,0.001828699,0.15,1.9628834e-07,1.9627916e-07,9.872817e-07,2490402,-0.005007045,-0.007990429,0.052404754,0.4,0.0054732333,0.005497975,1.8995686e-05,8944899,-0.16463044,0.01531207,0.008206308,0.5,0.0009700851,0.0008540731,0.0010464235,1,0,1,0,1,0
92900068,92799468,2490402,-0.00032294902,-0.0025271105,0.0018295246,0.15,1.9699286e-07,1.9698362e-07,9.879647e-07,2490402,-0.0049998984,-0.007906164,0.05241246,0.4,0.005473173,0.005497836,1.899789e-05,8944899,-0.16434377,0.016324328,0.007996822,0.5,0.00096923544,0.0008511824,0.0010453747,1,0,1,0,1,0
92949782,92849193,2490402,-0.00033042955,-0.0025387113,0.0018349452,0.15,1.9577324e-07,1.9568763e-07,9.881701e-07,2490402,-0.0041647763,-0.008675084,0.052331954,0.4,0.005456438,0.0054704933,1.8960782e-05,8944899,-0.16402586,0.01605149,0.007991197,0.5,0.0009682789,0.00085040875,0.0010453737,1,0,1,0,1,0
93039897,92939193,2490402,-0.00033044495,-0.0025387818,0.001836537,0.15,1.9667358e-07,1.9658789e-07,9.89029e-07,2490402,-0.004180879,-0.008540416,0.052338753,0.4,0.0054563624,0.005470266,1.8964889e-05,8944899,-0.16465367,0.015424799,0.00961689,0.5,0.0009662326,0.0008423683,0.0010402701,1,0,1,0,1,0
93149839,93049194,2490402,-0.0003462275,-0.0025454091,0.0018429846,0.15,1.9604451e-07,1.9588083e-07,9.897738e-07,2490402,-0.0035019554,-0.010399781,0.052279282,0.4,0.005440583,0.005442933,1.8931572e-05,8944899,-0.16444951,0.015262514,0.009342323,0.5,0.00096408016,0.0008390664,0.0010397926,1,0,1,0,1,0
93183772,93079069,2490402,-0.00034622956,-0.0025454343,0.0018437458,0.15,1.9634233e-07,1.9617863e-07,9.900521e-07,2490402,-0.0035244853,-0.010349475,0.052278668,0.4,0.0054405686,0.0054428508,1.8934239e-05,8944899,-0.16470523,0.013957437,0.010872995,0.5,0.0009627636,0.00083487923,0.0010368435,1,0,1,0,1,0
93239877,93139090,2490402,-0.00034623276,-0.0025454615,0.0018444997,0.15,1.9694303e-07,1.9677933e-07,9.906338e-07,2490402,-0.0035073513,-0.010331329,0.05228334,0.4,0.0054405434,0.0054428224,1.8933271e-05,8944899,-0.16568765,0.012735832,0.011249786,0.5,0.00096133107,0.00082973455,0.0010323091,1,0,1,0,1,0
93450042,93349069,2490402,-0.00034584152,-0.0025571855,0.0018494633,0.15,1.9730204e-07,1.9705789e-07,9.925119e-07,2490402,-0.00312132,-0.01011973,0.05219464,0.4,0.0054247533,0.0054158126,1.890352e-05,8944899,-0.1675952,0.009422998,0.0135885095,0.5,0.00095798826,0.00081839797,0.0010228767,1,0,1,0,1,0
93520041,93419068,2490402,-0.0003458422,-0.0025572057,0.0018501496,0.15,1.9800257e-07,1.977584e-07,9.931957e-07,2490402,-0.0030863474,-0.0100812735,0.052203715,0.4,0.005424727,0.0054157805,1.8905992e-05,8944899,-0.16903609,0.009026794,0.013214478,0.5,0.0009566229,0.0008165765,0.0010215075,1,0,1,0,1,0
93589923,93489257,2490402,-0.0003500445,-0.0025641432,0.0018520928,0.15,1.9691376e-07,1.9658572e-07,9.938585e-07,2490402,-0.0030863474,-0.0100812735,0.052203715,0.4,0.005424727,0.0054157805,1.8905992e-05,8944899,-0.1689058,0.008240194,0.01531169,0.5,0.00095592014,0.00081293617,0.0010174608,1,0,1,0,1,0
93729925,93629194,2490402,-0.00035004478,-0.0025641792,0.0018533879,0.15,1.9831297e-07,1.979849e-07,9.95226e-07,2490402,-0.0030953863,-0.009962491,0.052210033,0.4,0.00542465,0.0054155723,1.8913668e-05,8944899,-0.16982326,0.0093646245,0.015172721,0.5,0.0009554582,0.0008086679,0.0010154587,1,0,1,0,1,0
93749839,93649193,2490402,-0.0003465379,-0.0025449754,0.0018461571,0.15,1.9666876e-07,1.962672e-07,9.951782e-07,2490402,-0.005292815,-0.011588878,0.052046034,0.4,0.005414936,0.005393535,1.8876004e-05,8944899,-0.17022492,0.0097088115,0.015174009,0.5,0.0009546192,0.00080815837,0.0010154566,1,0,1,0,1,0
93790006,93689263,2490402,-0.0003465349,-0.0025449856,0.0018467775,0.15,1.970706e-07,1.9666903e-07,9.955648e-07,2490402,-0.005311521,-0.01154733,0.05204552,0.4,0.005414926,0.00539347,1.8879608e-05,8944899,-0.17052867,0.009020436,0.017344572,0.5,0.00095088896,0.0008060154,0.0010114628,1,0,1,0,1,0
93929841,93829222,2490402,-0.00034653224,-0.0025450068,0.0018479702,0.15,1.9847056e-07,1.9806899e-07,9.969356e-07,2490402,-0.0053088362,-0.011424193,0.05205406,0.4,0.0054148184,0.0053932313,1.8886289e-05,8944899,-0.17179005,0.008421072,0.017943999,0.5,0.0009480633,0.0008021037,0.0010083163,1,0,1,0,1,0
93949855,93849557,2490402,-0.0003391918,-0.002506276,0.0018374779,0.15,1.967165e-07,1.9626498e-07,9.967873e-07,2490402,-0.0067232265,-0.011734489,0.052102808,0.4,0.0054083974,0.0053748493,1.8849512e-05,8944899,-0.17234154,0.00879116,0.018005902,0.5,0.00094647123,0.0008009879,0.001008311,1,0,1,0,1,0
94073742,93969193,2490402,-0.0003392033,-0.0025062854,0.0018386097,0.15,1.9790987e-07,1.9745835e-07,9.97953e-07,2490402,-0.006706623,-0.011602174,0.05211422,0.4,0.00540832,0.0053746547,1.88564e-05,8944899,-0.17282587,0.009535045,0.019268794,0.5,0.0009452782,0.00079651887,0.0010045656,1,0,1,0,1,0
94139955,94039068,2490402,-0.0003392075,-0.0025062903,0.00183915,0.15,1.9860754e-07,1.9815602e-07,9.986371e-07,2490402,-0.006710263,-0.011552041,0.052116722,0.4,0.005408278,0.0053745527,1.8857972e-05,8944899,-0.17205498,0.009027334,0.016567925,0.5,0.00094390695,0.0007926547,0.0009999886,1,0,1,0,1,0
94210071,94109068,2490402,-0.0003410436,-0.0024782657,0.0018312641,0.15,1.9731486e-07,1.968049e-07,9.98932e-07,2490402,-0.007114808,-0.012303603,0.05215222,0.4,0.0054031196,0.005359282,1.8824512e-05,8944899,-0.17125525,0.008769561,0.0148231,0.5,0.0009411031,0.00079001853,0.0009984042,1,0,1,0,1,0
94349821,94249386,2490402,-0.00031762206,-0.002443927,0.0018292387,0.15,1.9676821e-07,1.961855e-07,1.0002061e-06,2490402,-0.00895821,-0.011687547,0.052113637,0.4,0.005398392,0.0053453427,1.8797764e-05,8944899,-0.17122142,0.0080411555,0.014199119,0.5,0.00093971903,0.00078469474,0.0009937143,1,0,1,0,1,0
94619894,94519194,2490402,-0.00030793072,-0.00239752,0.0018285932,0.15,1.9753337e-07,1.9685179e-07,1.0027247e-06,2490402,-0.008935505,-0.011613404,0.052121792,0.4,0.0053983284,0.00534521,1.8805711e-05,8944899,-0.17119591,0.0083034905,0.012804043,0.5,0.0009342443,0.00077516946,0.0009821887,1,0,1,0,1,0
94689838,94589068,2490402,-0.00030795037,-0.0023975174,0.0018290379,0.15,1.982313e-07,1.9754974e-07,1.0034121e-06,2490402,-0.008935505,-0.011613404,0.052121792,0.4,0.0053983284,0.00534521,1.8805711e-05,8944899,-0.1720996,0.007519738,0.012874919,0.5,0.0009298159,0.00076905894,0.00097318535,1,0,1,0,1,0
94763812,94659193,2490402,-0.0002763015,-0.0023647717,0.0018203079,0.15,1.9698876e-07,1.9625206e-07,1.0039938e-06,2490402,-0.008941723,-0.011576728,0.052122813,0.4,0.005398287,0.005345114,1.880477e-05,8944899,-0.1731681,0.007641333,0.011245039,0.5,0.00092713686,0.00076753146,0.0009690344,1,0,1,0,1,0
94833719,94729069,2490402,-0.00027631823,-0.0023647656,0.0018207363,0.15,1.9768635e-07,1.9694966e-07,1.0046813e-06,2490402,-0.00893069,-0.011563284,0.052125324,0.4,0.005398257,0.005345067,1.880833e-05,8944899,-0.17287968,0.00848088,0.010166067,0.5,0.0009247213,0.00076595676,0.00096663146,1,0,1,0,1,0
94949854,94849250,2490402,-0.0002677177,-0.0023247814,0.0018047268,0.15,1.9687097e-07,1.9613296e-07,1.0053835e-06,2490402,-0.008903107,-0.011486688,0.05213386,0.4,0.0053982185,0.005344972,1.8812729e-05,8944899,-0.17358616,0.009298599,0.010554792,0.5,0.0009222346,0.0007618214,0.0009628107,1,0,1,0,1,0
95100032,94999068,2490402,-0.0002677615,-0.0023247492,0.0018059362,0.15,1.9836756e-07,1.9762955e-07,1.0068518e-06,2490402,-0.008853696,-0.011342625,0.052149132,0.4,0.005398138,0.0053447774,1.8819765e-05,8944899,-0.17382269,0.009699277,0.008792781,0.5,0.0009192078,0.00075713004,0.00095754414,1,0,1,0,1,0
95149849,95049342,2490402,-0.00028250323,-0.0022892726,0.0018099559,0.15,1.9681562e-07,1.9604046e-07,1.0066259e-06,2490402,-0.008309059,-0.012233921,0.052166585,0.4,0.005396448,0.0053398223,1.8788345e-05,8944899,-0.17348412,0.009287937,0.008864341,0.5,0.00091688154,0.0007554541,0.00095753395,1,0,1,0,1,0
95170096,95069270,2490402,-0.00028250748,-0.0022892605,0.0018103399,0.15,1.970142e-07,1.9623903e-07,1.0068155e-06,2490402,-0.008298832,-0.0121802585,0.052170925,0.4,0.0053964057,0.0053397226,1.8788354e-05,8944899,-0.17331773,0.009233821,0.0070622247,0.5,0.0009115986,0.00075361424,0.0009488065,1,0,1,0,1,0
95239927,95139436,2490402,-0.00028251117,-0.0022892484,0.0018107181,0.15,1.9771801e-07,1.9694282e-07,1.0075106e-06,2490402,-0.008289508,-0.012128126,0.05217499,0.4,0.005396366,0.005339624,1.8792856e-05,8944899,-0.1709886,0.010748834,0.005495511,0.5,0.0009075477,0.00075197185,0.00094512204,1,0,1,0,1,0
95309985,95209194,2490402,-0.0002825174,-0.0022892351,0.0018110909,0.15,1.9841329e-07,1.976381e-07,1.0081972e-06,2490402,-0.008300199,-0.012101625,0.05217465,0.4,0.0053963633,0.005339584,1.8797351e-05,8944899,-0.17137195,0.010738732,0.0066851415,0.5,0.0009062073,0.0007508027,0.00094345305,1,0,1,0,1,0
95349823,95249230,2490402,-0.00030055156,-0.0022896577,0.0018268119,0.15,1.9663501e-07,1.9575383e-07,1.007062e-06,2490402,-0.008289203,-0.011903464,0.05214491,0.4,0.0053915605,0.005336389,1.876608e-05,8944899,-0.17045325,0.009930753,0.006754116,0.5,0.0009009353,0.0007465827,0.0009434151,1,0,1,0,1,0
95559785,95459068,2490402,-0.00031400446,-0.0023273462,0.0018394642,0.15,1.9657551e-07,1.9554523e-07,1.0079553e-06,2490402,-0.010920843,-0.012016736,0.052013002,0.4,0.0053839562,0.0053321254,1.8744671e-05,8944899,-0.17024608,0.009319504,0.0068594646,0.5,0.0008942991,0.00073961413,0.0009391859,1,1,1,0,1,0
95653875,95549194,2490402,-0.00031396394,-0.0023273295,0.0018401383,0.15,1.9747833e-07,1.9644811e-07,1.0088429e-06,2490402,-0.0109026395,-0.011918635,0.052020486,0.4,0.00538387,0.005331923,1.874927e-05,8944899,-0.17201957,0.008485297,0.006183112,0.5,0.00089177914,0.000735146,0.00093284145,1,1,1,0,1,0
95749925,95649315,2490402,-0.0003142603,-0.0023496083,0.0018400718,0.15,1.9642977e-07,1.9525125e-07,1.0092741e-06,2490402,-0.01213566,-0.011904919,0.051968504,0.4,0.0053777127,0.0053286455,1.8722189e-05,8944899,-0.17216708,0.008390642,0.0060381787,0.5,0.0008895281,0.00073248206,0.0009324906,1,1,1,0,1,0
95790043,95689193,2490402,-0.00031423723,-0.0023495986,0.001840396,0.15,1.9682732e-07,1.9564885e-07,1.0096644e-06,2490402,-0.012100716,-0.011823944,0.05197745,0.4,0.0053776684,0.0053285435,1.8724035e-05,8944899,-0.17326568,0.008302393,0.0062631466,0.5,0.000887684,0.0007314402,0.0009308476,1,1,1,0,1,0
95860004,95759068,2490402,-0.00031420786,-0.0023495944,0.0018407264,0.15,1.9752514e-07,1.9634673e-07,1.0103549e-06,2490402,-0.01211109,-0.011799985,0.051977143,0.4,0.0053776246,0.005328441,1.8728533e-05,8944899,-0.17318895,0.007352545,0.00585839,0.5,0.00088544475,0.0007282661,0.0009232948,1,1,1,0,1,0
95930093,95829381,2490402,-0.00031418778,-0.0023495788,0.0018410586,0.15,1.9823162e-07,1.9705327e-07,1.0110541e-06,2490402,-0.012043905,-0.011676214,0.051992517,0.4,0.0053775324,0.005328257,1.8731162e-05,8944899,-0.17076667,0.008405351,0.004717485,0.5,0.00088066974,0.0007262601,0.0009189219,1,1,1,0,1,0
95950038,95849296,2490402,-0.0003350501,-0.0023514696,0.0018608378,0.15,1.9659807e-07,1.9510405e-07,1.0096883e-06,2490402,-0.012375309,-0.011680688,0.05191093,0.4,0.005372173,0.005324677,1.8700906e-05,8944899,-0.16957344,0.0074491636,0.004826239,0.5,0.0008748193,0.00072213146,0.00091885735,1,1,1,0,1,0
95989985,95889068,2490402,-0.0003350128,-0.002351466,0.0018611547,0.15,1.9699345e-07,1.9549955e-07,1.0100769e-06,2490402,-0.012363107,-0.01162835,0.051915195,0.4,0.0053721275,0.0053245733,1.870275e-05,8944899,-0.17066507,0.006920401,0.0035555211,0.5,0.0008703746,0.0007208347,0.00091544027,1,1,1,0,1,0
96059987,95959075,2490402,-0.0003349748,-0.0023514645,0.0018614694,0.15,1.976936e-07,1.961998e-07,1.01077e-06,2490402,-0.012364841,-0.0115944715,0.051916607,0.4,0.005372083,0.005324468,1.8707287e-05,8944899,-0.17194282,0.007883474,0.00447142,0.5,0.00086725893,0.00071879325,0.000910165,1,1,1,0,1,0
96130063,96029301,2490402,-0.00033494364,-0.002351449,0.0018617806,0.15,1.9839834e-07,1.9690467e-07,1.0114676e-06,2490402,-0.01233061,-0.011549998,0.051923446,0.4,0.00537204,0.005324394,1.8708193e-05,8944899,-0.1701275,0.009535463,0.0030893825,0.5,0.0008653107,0.00071616407,0.00090625155,1,1,1,0,1,0
96199893,96099543,2490402,-0.00034550825,-0.0023647049,0.0018752883,0.15,1.9759109e-07,1.9553705e-07,1.0092331e-06,2490402,-0.012280085,-0.0114841275,0.051933516,0.4,0.005371999,0.005324323,1.8708295e-05,8944899,-0.16941656,0.009136053,0.0046081007,0.5,0.00085273146,0.0007078204,0.00090393156,1,1,1,0,1,0
96269842,96169197,2490402,-0.00034545854,-0.0023647067,0.0018755778,0.15,1.9828431e-07,1.9623047e-07,1.00992e-06,2490402,-0.012280085,-0.0114841275,0.051933516,0.4,0.005371999,0.005324323,1.8708295e-05,8944899,-0.17051554,0.0087496,0.006796074,0.5,0.00084714167,0.0007011696,0.0008939879,1,1,1,0,1,0
96339939,96239193,2490402,-0.0003454157,-0.0023646893,0.0018758599,0.15,1.9898468e-07,1.9693104e-07,1.0106141e-06,2490402,-0.012280085,-0.0114841275,0.051933516,0.4,0.005371999,0.005324323,1.8708295e-05,8944899,-0.17354243,0.008855865,0.007699123,0.5,0.0008436051,0.0007004066,0.0008876783,1,1,1,0,1,0
96349934,96249074,2490402,-0.0003805191,-0.0023572003,0.0019071397,0.15,1.9747026e-07,1.9501596e-07,1.0095988e-06,2490402,-0.012280085,-0.0114841275,0.051933516,0.4,0.005371999,0.005324323,1.8708295e-05,8944899,-0.17156857,0.0072678486,0.00787673,0.5,0.0008390417,0.0006972508,0.0008876351,1,1,1,0,1,0
96413735,96309068,2490402,-0.00038046556,-0.0023571993,0.0019074135,0.15,1.9807e-07,1.9561595e-07,1.0101927e-06,2490402,-0.012280085,-0.0114841275,0.051933516,0.4,0.005371999,0.005324323,1.8708295e-05,8944899,-0.1714702,0.007104612,0.00997908,0.5,0.00083509483,0.00069609814,0.0008832385,1,1,1,0,1,0
96613726,96509193,2490402,-0.00038742437,-0.0023670937,0.0019100703,0.15,1.9827444e-07,1.9562178e-07,1.0119123e-06,2490402,-0.012212607,-0.01132676,0.051949915,0.4,0.005371858,0.005324019,1.871479e-05,8944899,-0.1722299,0.0063038357,0.009472897,0.5,0.0008304136,0.000689067,0.0008770649,1,1,1,0,1,0
96750204,96649109,2490402,-0.00041027454,-0.0023938012,0.0019236188,0.15,1.9799383e-07,1.9503847e-07,1.0128083e-06,2490402,-0.012109344,-0.0111535555,0.051971573,0.4,0.0053717634,0.0053238194,1.8718483e-05,8944899,-0.17098774,0.00567033,0.010211463,0.5,0.000826369,0.0006828386,0.0008707458,1,1,1,0,1,0
96959836,96859193,2490402,-0.0004101587,-0.0024221998,0.0019248695,0.15,1.9848741e-07,1.9518096e-07,1.0143257e-06,2490402,-0.012087867,-0.011091516,0.051977254,0.4,0.0053717135,0.0053237006,1.872308e-05,8944899,-0.17148711,0.006729476,0.010988658,0.5,0.00082344306,0.00067606906,0.0008633843,1,1,1,0,1,0
97029869,96929068,2490402,-0.00041009128,-0.0024222068,0.0019251244,0.15,1.9918488e-07,1.9587883e-07,1.0150176e-06,2490402,-0.012097134,-0.0110725155,0.051977016,0.4,0.0053717094,0.0053236717,1.8726652e-05,8944899,-0.1719872,0.006508623,0.013195371,0.5,0.0008198978,0.00067501,0.0008599584,1,1,1,0,1,0
97149983,97049193,2490402,-0.00041366793,-0.0024432861,0.0019340564,0.15,1.9832687e-07,1.9510045e-07,1.015834e-06,2490402,-0.013474947,-0.010074906,0.052008856,0.4,0.0053575803,0.005318686,1.8701116e-05,8944899,-0.17229173,0.0065584746,0.012718501,0.5,0.0008152248,0.00067395327,0.0008553157,1,1,1,0,1,0
97159873,97059194,2490402,-0.00041360155,-0.0024432968,0.0019343059,0.15,1.9842646e-07,1.9520046e-07,1.0159281e-06,2490402,-0.013483672,-0.01005655,0.052008625,0.4,0.0053575737,0.0053186547,1.870201e-05,8944899,-0.17239189,0.0064024944,0.015644988,0.5,0.0008122117,0.0006729454,0.0008510777,1,1,1,0,1,0
97350021,97249068,2490402,-0.00039692942,-0.0024287442,0.0019289391,0.15,1.9796587e-07,1.950607e-07,1.0171516e-06,2490402,-0.012421913,-0.011661317,0.05195308,0.4,0.0053327093,0.005310621,1.8680374e-05,8944899,-0.17278345,0.006536652,0.015625225,0.5,0.0008096489,0.0006704717,0.0008503863,1,1,1,0,1,0
97373734,97269193,2490402,-0.0003968668,-0.0024287505,0.0019291786,0.15,1.9816801e-07,1.9526321e-07,1.0173485e-06,2490402,-0.012429755,-0.011643649,0.051952854,0.4,0.005332705,0.0053105922,1.868219e-05,8944899,-0.17373501,0.0061908276,0.016690675,0.5,0.0008025021,0.0006692346,0.00084454915,1,1,1,0,1,0
97439989,97339068,2490402,-0.00039680355,-0.002428755,0.0019294204,0.15,1.9886527e-07,1.9596087e-07,1.0180404e-06,2490402,-0.012420672,-0.011601308,0.051955894,0.4,0.005332661,0.005310473,1.868681e-05,8944899,-0.17217618,0.006087368,0.0167934,0.5,0.00079865777,0.0006677477,0.0008410412,1,1,1,0,1,0
97510009,97409212,2490402,-0.00039674094,-0.0024287535,0.0019296655,0.15,1.9956819e-07,1.9666419e-07,1.018738e-06,2490402,-0.012356475,-0.011476685,0.051969618,0.4,0.0053325673,0.0053102444,1.8688675e-05,8944899,-0.1726981,0.004904013,0.016018078,0.5,0.0007976587,0.0006654103,0.000838313,1,1,1,0,1,0
97559788,97459432,2490402,-0.00040947984,-0.002418213,0.0019179906,0.15,1.9737713e-07,1.9518578e-07,1.0181258e-06,2490402,-0.01095568,-0.011385126,0.051943228,0.4,0.0053098635,0.0053046457,1.8659894e-05,8944899,-0.17334527,0.005338899,0.016087119,0.5,0.0007940776,0.000663647,0.000838273,1,1,1,0,1,0
97579921,97479303,2490402,-0.0004094241,-0.002418217,0.0019182273,0.15,1.9757442e-07,1.9538338e-07,1.0183178e-06,2490402,-0.01095568,-0.011385126,0.051943228,0.4,0.0053098644,0.0053046467,1.8660729e-05,8944899,-0.17418623,0.0049633137,0.015194737,0.5,0.0007934287,0.0006624564,0.00083722296,1,1,1,0,1,0
97779889,97679278,2490402,-0.00039403714,-0.0024132992,0.0019242639,0.15,1.970998e-07,1.955481e-07,1.0189659e-06,2490402,-0.010614023,-0.011087469,0.052005548,0.4,0.005291779,0.0052995603,1.8638393e-05,8944899,-0.17367773,0.0044540823,0.013766211,0.5,0.0007880862,0.0006550989,0.00083249435,1,1,1,0,1,0
97919896,97819194,2490402,-0.00039394302,-0.0024133006,0.0019247275,0.15,1.9849827e-07,1.9694706e-07,1.0203543e-06,2490402,-0.0104844365,-0.010830435,0.052033067,0.4,0.0052916515,0.005299191,1.8645904e-05,8944899,-0.17449881,0.0028058835,0.016639335,0.5,0.0007843698,0.0006510885,0.0008277198,1,1,1,0,1,0
98153673,98049069,2490402,-0.0004076845,-0.00241267,0.001913797,0.15,1.9604997e-07,1.9562592e-07,1.0205689e-06,2490402,-0.009778275,-0.010145905,0.052051146,0.4,0.0052565057,0.005289233,1.859893e-05,8944899,-0.17594644,0.003335328,0.016629841,0.5,0.0007723374,0.0006440375,0.00082275394,1,1,1,0,1,0
98263768,98159068,2490402,-0.00040761605,-0.0024126768,0.0019142441,0.15,1.9715029e-07,1.9672649e-07,1.0216602e-06,2490402,-0.009668721,-0.009915274,0.052074645,0.4,0.0052563865,0.0052888566,1.860398e-05,8944899,-0.1763672,0.0025816234,0.017969662,0.5,0.0007701117,0.00064091536,0.000820022,1,1,1,0,1,0
98353645,98249193,2490402,-0.0004254221,-0.0024410484,0.0019114768,0.15,1.9577503e-07,1.958667e-07,1.0212717e-06,2490402,-0.010789822,-0.007290838,0.052218277,0.4,0.0052405153,0.005284277,1.8580347e-05,8944899,-0.17698926,0.0030429321,0.017912121,0.5,0.0007642448,0.0006376065,0.0008196051,1,1,1,0,1,0
98400029,98299068,2490402,-0.00042539454,-0.0024410493,0.001911692,0.15,1.9627258e-07,1.9636434e-07,1.0217648e-06,2490402,-0.010756744,-0.0072111306,0.052225657,0.4,0.005240478,0.0052841455,1.8583267e-05,8944899,-0.17796963,0.002238357,0.01829467,0.5,0.0007629976,0.00063534756,0.0008184897,1,1,1,0,1,0
98470030,98369303,2490402,-0.00042536753,-0.0024410577,0.0019119203,0.15,1.9697771e-07,1.9706955e-07,1.0224654e-06,2490402,-0.010719447,-0.00714881,0.052233104,0.4,0.005240439,0.005284034,1.8582587e-05,8944899,-0.17799073,0.0010855134,0.015767701,0.5,0.0007610142,0.00063266593,0.0008098963,1,1,1,0,1,0
98539906,98439529,2490402,-0.000425341,-0.002441067,0.0019121493,0.15,1.9768247e-07,1.977744e-07,1.0231655e-06,2490402,-0.010655832,-0.0070149596,0.052246697,0.4,0.005240398,0.0052838866,1.858542e-05,8944899,-0.17729074,0.0010227339,0.01475199,0.5,0.0007526198,0.00063129794,0.0007996429,1,1,1,0,1,0
98609910,98509193,2490402,-0.00041315635,-0.002480517,0.0019228683,0.15,1.9638287e-07,1.9672005e-07,1.0236452e-06,2490402,-0.010660958,-0.0069984547,0.052246463,0.4,0.005240399,0.0052838614,1.8589017e-05,8944899,-0.17583735,0.00092557946,0.013360899,0.5,0.00074746116,0.0006283288,0.0007951428,1,1,1,0,1,0
98679958,98579194,2490402,-0.00041313155,-0.0024805297,0.0019231023,0.15,1.9708345e-07,1.974207e-07,1.024341e-06,2490402,-0.01057672,-0.006828539,0.0522642,0.4,0.0052403207,0.0052836,1.8591212e-05,8944899,-0.17590104,-0.00042684883,0.013369385,0.5,0.000746948,0.0006267927,0.0007943462,1,1,1,0,1,0
98753639,98649068,2490402,-0.00041846815,-0.0025222444,0.0019330104,0.15,1.958619e-07,1.9639617e-07,1.0249364e-06,2490402,-0.013570184,-0.0048604133,0.052297316,0.4,0.005226918,0.005277378,1.8565526e-05,8944899,-0.17584507,-0.00014825854,0.013072432,0.5,0.00074559846,0.000625499,0.00079251645,1,1,1,0,1,0
98953958,98849195,2490402,-0.00044022006,-0.002557231,0.0019455748,0.15,1.960216e-07,1.9672358e-07,1.0267704e-06,2490402,-0.015647227,-0.0034855965,0.052225567,0.4,0.00521534,0.005270653,1.8547034e-05,8944899,-0.1737946,-0.0007146943,0.010527149,0.5,0.00074171793,0.0006209776,0.0007879658,1,1,1,0,1,0
99023771,98919068,2490402,-0.00044019034,-0.0025572493,0.001945821,0.15,1.9671909e-07,1.9742113e-07,1.0274632e-06,2490402,-0.015567363,-0.003345213,0.052241717,0.4,0.005215306,0.0052705402,1.8549094e-05,8944899,-0.17379479,-0.0018077735,0.012070984,0.5,0.0007398793,0.0006195509,0.00078642805,1,1,1,0,1,0
99090033,98989202,2490402,-0.0004401629,-0.0025572565,0.0019460518,0.15,1.9742205e-07,1.9812417e-07,1.0281615e-06,2490402,-0.015495936,-0.003193645,0.05225692,0.4,0.0052152667,0.0052703903,1.8551045e-05,8944899,-0.17498952,-0.0021017233,0.011999534,0.5,0.00073451526,0.0006180276,0.0007817792,1,1,1,0,1,0
99153913,99049069,2490402,-0.00044513665,-0.0025667872,0.0019489614,0.15,1.9600736e-07,1.9704225e-07,1.0283462e-06,2490402,-0.015205844,-0.0003131298,0.05246605,0.4,0.005198531,0.005262489,1.8524695e-05,8944899,-0.174857,-0.0021827356,0.012007517,0.5,0.00073317194,0.0006176882,0.0007817738,1,1,1,0,1,0
99229905,99129455,2490402,-0.00044508625,-0.0025667858,0.0019494069,0.15,1.968157e-07,1.9785068e-07,1.029145e-06,2490402,-0.015118716,-0.0001094123,0.0524851,0.4,0.0051984577,0.0052622,1.8528835e-05,8944899,-0.17677538,-0.0032025226,0.009045443,0.5,0.00073076884,0.0006133604,0.00077853794,1,1,1,0,1,0
99353855,99249068,2490402,-0.00045640697,-0.0025935292,0.0019567164,0.15,1.9605845e-07,1.9737126e-07,1.0301172e-06,2490402,-0.016997818,0.0012797926,0.052451015,0.4,0.005182719,0.0052538235,1.8503457e-05,8944899,-0.17604734,-0.0029512197,0.008780136,0.5,0.0007292455,0.0006116205,0.0007779998,1,1,1,0,1,0
99360022,99259242,2490402,-0.00045638604,-0.0025935185,0.0019569257,0.15,1.9616192e-07,1.9747476e-07,1.0302158e-06,2490402,-0.017002063,0.0012954238,0.05245078,0.4,0.005182718,0.005253797,1.8504383e-05,8944899,-0.17616038,-0.003329033,0.009970257,0.5,0.00072790385,0.0006103929,0.000776865,1,1,1,0,1,0
99429938,99329329,2490402,-0.00045635743,-0.0025935215,0.0019571555,0.15,1.9686404e-07,1.981769e-07,1.0309133e-06,2490402,-0.016927635,0.0014537761,0.052466642,0.4,0.005182648,0.0052535315,1.8507575e-05,8944899,-0.17770028,-0.00492432,0.011327312,0.5,0.0007222909,0.0006078538,0.0007722919,1,1,1,0,1,0
99569842,99469200,2490402,-0.00044489314,-0.0025763102,0.001957886,0.15,1.9627157e-07,1.9790558e-07,1.0316326e-06,2490402,-0.016837632,0.0016419229,0.05248578,0.4,0.0051825773,0.0052532502,1.851323e-05,8944899,-0.17712891,-0.0062537827,0.01125198,0.5,0.0007159281,0.0006030341,0.00076795946,1,1,1,0,1,0
99643995,99539193,2490402,-0.00044486858,-0.0025763093,0.0019581134,0.15,1.9697177e-07,1.9860579e-07,1.0323281e-06,2490402,-0.016775785,0.0017558547,0.05249853,0.4,0.0051825093,0.005253008,1.8515531e-05,8944899,-0.17690007,-0.005734945,0.012836532,0.5,0.00071332237,0.00060157076,0.0007648551,1,1,1,0,1,0
99713742,99609069,2490402,-0.0004448463,-0.0025763048,0.0019583353,0.15,1.9766934e-07,1.9930337e-07,1.0330209e-06,2490402,-0.016742906,0.0018399741,0.05250593,0.4,0.005182473,0.005252854,1.8517494e-05,8944899,-0.17556223,-0.0063436637,0.01049253,0.5,0.000711303,0.00059870974,0.0007620544,1,1,1,0,1,0
99780008,99679068,2490402,-0.00042088897,-0.0025740243,0.0019616503,0.15,1.9647455e-07,1.9836155e-07,1.0335349e-06,2490402,-0.016694633,0.0019297738,0.052515928,0.4,0.0051824357,0.0052527203,1.8517614e-05,8944899,-0.17440952,-0.008971824,0.012107578,0.5,0.00070901774,0.00059644156,0.0007605175,1,1,1,0,1,0
99843874,99739068,2490402,-0.0004208634,-0.0025740203,0.0019618806,0.15,1.9707491e-07,1.9896193e-07,1.0341306e-06,2490402,-0.01664342,0.0020483544,0.05252712,0.4,0.005182402,0.005252572,1.852051e-05,8944899,-0.17556651,-0.010072736,0.012739813,0.5,0.00070512434,0.00059436756,0.0007580456,1,1,1,0,1,0
99913669,99809194,2490402,-0.00042083178,-0.0025740222,0.0019621206,0.15,1.9777768e-07,1.9966471e-07,1.0348288e-06,2490402,-0.016562734,0.0022223887,0.052544452,0.4,0.005182369,0.0052524204,1.85252e-05,8944899,-0.17592913,-0.010683288,0.013606318,0.5,0.0007031769,0.0005925989,0.0007574355,1,1,1,0,1,0
99949891,99849070,2490402,-0.0004206757,-0.002602581,0.0019655519,0.15,1.9627758e-07,1.9836634e-07,1.034888e-06,2490402,-0.017925145,0.005853094,0.05273909,0.4,0.005165555,0.0052435305,1.8497123e-05,8944899,-0.17585045,-0.010647764,0.013577842,0.5,0.00070171733,0.00059225643,0.0007574253,1,1,1,0,1,0
99980011,99879070,2490402,-0.00042066432,-0.0026025674,0.0019657658,0.15,1.9657759e-07,1.9866634e-07,1.0351831e-06,2490402,-0.017928788,0.0058689774,0.052738845,0.4,0.0051655564,0.0052435063,1.8499817e-05,8944899,-0.1765366,-0.0108493455,0.012034109,0.5,0.00070023554,0.00058987946,0.00075491704,1,1,1,0,1,0
100050075,99949110,2490402,-0.00042063312,-0.0026025681,0.0019660096,0.15,1.9727912e-07,1.9936788e-07,1.0358796e-06,2490402,-0.017845662,0.0060484535,0.052756708,0.4,0.00516549,0.0052432315,1.8503006e-05,8944899,-0.17360657,-0.0101522375,0.010878482,0.5,0.0006965643,0.0005874037,0.0007521718,1,1,1,0,1,0
100119868,100019275,2490402,-0.00042061118,-0.002602562,0.0019662417,0.15,1.9798276e-07,2.0007151e-07,1.0365783e-06,2490402,-0.017807966,0.006143241,0.052765142,0.4,0.0051654577,0.005243077,1.8507697e-05,8944899,-0.17312655,-0.011209033,0.010326158,0.5,0.00069500273,0.0005860208,0.0007518082,1,1,1,0,1,0
100149791,100049220,2490402,-0.00039195508,-0.002579689,0.0019689163,0.15,1.9643346e-07,1.986702e-07,1.0368556e-06,2490402,-0.017774811,0.004226165,0.052817386,0.4,0.005149372,0.005233262,1.8478484e-05,8944899,-0.17277054,-0.011460507,0.010323737,0.5,0.0006948105,0.00058593083,0.0007518042,1,1,1,0,1,0
100189982,100089555,2490402,-0.00039193407,-0.002579681,0.0019691512,0.15,1.9684033e-07,1.9907706e-07,1.0372573e-06,2490402,-0.017740203,0.004315545,0.05282517,0.4,0.0051493393,0.005233113,1.8480612e-05,8944899,-0.17124406,-0.013024107,0.012091836,0.5,0.00069312355,0.00058362674,0.0007502913,1,1,1,0,1,0
