timestamp,timestamp_last_signal,rssi,rssi_dbm,rc_lost_frame_count,rc_total_frame_count,rc_ppm_frame_length,values[0],values[1],values[2],values[3],values[4],values[5],values[6],values[7],values[8],values[9],values[10],values[11],values[12],values[13],values[14],values[15],values[16],values[17],channel_count,rc_failsafe,rc_lost,input_source,link_quality
80891037,80891026,-1,-18.0,0,0,0,1500,1505,1000,1497,1988,1999,1500,1500,1500,1000,1000,1000,1000,1000,2000,2000,0,0,16,0,0,14,100
81400838,81400825,-1,-17.0,0,0,0,1499,1501,1000,1499,1988,1999,1500,1500,1500,1000,1000,1000,1000,1000,2000,2000,0,0,16,0,0,14,100
81890893,81890882,-1,-17.0,0,0,0,1497,1505,1000,1497,1988,1999,1500,1500,1500,1000,1000,1000,1000,1000,2000,2000,0,0,16,0,0,14,100
82400945,82400934,-1,-17.0,0,0,0,1497,1503,1131,1500,1988,1999,1500,1500,1500,1000,1000,1000,1000,1000,2000,2000,0,0,16,0,0,14,100
82890814,82890803,-1,-17.0,0,0,0,1497,1503,1252,1500,1988,1999,1500,1500,1500,1000,1000,1000,1000,1000,2000,2000,0,0,16,0,0,14,100
83400804,83400793,-1,-17.0,0,0,0,1496,1503,1345,1497,1988,1999,1500,1500,1500,1000,1000,1000,1000,1000,2000,2000,0,0,16,0,0,14,100
83890784,83890773,-1,-17.0,0,0,0,1496,1505,1463,1499,1988,1999,1500,1500,1500,1000,1000,1000,1000,1000,2000,2000,0,0,16,0,0,14,100
84400794,84400782,-1,-17.0,0,0,0,1497,1505,1527,1499,1988,1999,1500,1500,1500,1000,1000,1000,1000,1000,2000,2000,0,0,16,0,0,14,100
84890793,84890782,-1,-18.0,0,0,0,1497,1503,1616,1497,1988,1999,1500,1500,1500,1000,1000,1000,1000,1000,2000,2000,0,0,16,0,0,14,100
85400985,85400975,-1,-18.0,0,0,0,1496,1502,1689,1496,1988,1999,1500,1500,1500,1000,1000,1000,1000,1000,2000,2000,0,0,16,0,0,14,100
85891014,85891003,-1,-18.0,0,0,0,1497,1505,1314,1497,1988,1999,1500,1500,1500,1000,1000,1000,1000,1000,2000,2000,0,0,16,0,0,14,100
86400810,86400799,-1,-20.0,0,0,0,1497,1505,1000,1497,1988,1999,1500,1500,1500,1000,1000,1000,1000,1000,2000,2000,0,0,16,0,0,14,100
86890784,86890773,-1,-22.0,0,0,0,1499,1503,1000,1497,1988,1000,1500,1500,1500,1000,1000,1000,1000,1000,2000,2000,0,0,16,0,0,14,100
87401042,87401031,-1,-22.0,0,0,0,1497,1503,1000,1497,1988,1000,1500,1500,1500,1000,1000,1000,1000,1000,2000,2000,0,0,16,0,0,14,100
87890677,87890665,-1,-23.0,0,0,0,1497,1503,1000,1497,1988,1000,1500,1500,1500,1000,1000,1000,1000,1000,2000,2000,0,0,16,0,0,14,100
88401240,88401230,-1,-23.0,0,0,0,1497,1503,1000,1497,1988,1000,1500,1500,1500,1000,1000,1000,1000,1000,2000,2000,0,0,16,0,0,14,100
88889084,88889073,-1,-27.0,0,0,0,1499,1503,1000,1489,1988,1000,1500,1500,1500,1000,1000,1000,1000,1000,2000,2000,0,0,16,0,0,14,100
89400610,89400599,-1,-27.0,0,0,0,1497,1503,1000,1497,1988,1000,1500,1500,1500,1000,1000,1000,1000,1000,2000,2000,0,0,16,0,0,14,100
89894734,89890674,-1,-26.0,0,0,0,1497,1503,1000,1492,1988,1000,1500,1500,1500,1000,1000,1000,1000,1000,2000,2000,0,0,16,0,0,14,100
90400865,90400852,-1,-30.0,0,0,0,1499,1503,1000,1500,1988,1000,1500,1500,1500,1000,1000,1000,1000,1000,2000,2000,0,0,16,0,0,14,100
90890659,90890601,-1,-30.0,0,0,0,1497,1503,1000,1500,1988,1000,1500,1500,1500,1000,1000,1000,1000,1000,2000,1935,0,0,16,0,0,14,100
91400635,91400623,-1,-56.0,0,0,0,1499,1503,1000,1500,1988,1000,1500,1500,1500,1000,1000,1000,1000,1000,2000,2000,0,0,16,0,0,14,100
91890710,91890699,-1,-56.0,0,0,0,1497,1503,1000,1500,1988,1000,1500,1500,1500,1000,1000,1000,1000,1000,2000,2000,0,0,16,0,0,14,100
92396944,92390910,-1,-56.0,0,0,0,1497,1503,1000,1499,1988,1000,1500,1500,1500,1000,1000,1000,1000,1000,2000,2000,0,0,16,0,0,14,100
92890583,92890572,-1,-56.0,0,0,0,1499,1503,1000,1499,1988,1000,1500,1500,1500,1000,1000,1000,1000,1000,2000,2000,0,0,16,0,0,14,100
93400552,93400539,-1,-56.0,0,0,0,1497,1503,1000,1497,1988,1000,1500,1500,1500,1000,1000,1000,1000,1000,2000,2000,0,0,16,0,0,14,100
93890681,93890670,-1,-56.0,0,0,0,1497,1503,1063,1499,1988,1000,1500,1500,1500,1000,1000,1000,1000,1000,2000,2000,0,0,16,0,0,14,100
94400554,94400542,-1,-56.0,0,0,0,1499,1503,1000,1496,1988,1000,1500,1500,1500,1000,1000,1000,1000,1000,2000,2000,0,0,16,0,0,14,100
94891189,94891178,-1,-56.0,0,0,0,1497,1503,1000,1497,1988,1000,1500,1500,1500,1000,1000,1000,1000,1000,2000,2000,0,0,16,0,0,14,100
95400518,95400507,-1,-56.0,0,0,0,1497,1503,1000,1497,1988,1000,1500,1500,1500,1000,1000,1000,1000,1000,2000,2000,0,0,16,0,0,14,100
95891008,95890998,-1,-56.0,0,0,0,1497,1503,1000,1499,1988,1000,1500,1500,1500,1000,1000,1000,1000,1000,2000,2000,0,0,16,0,0,14,100
96400518,96400507,-1,-56.0,0,0,0,1497,1503,1000,1499,1988,1000,1500,1500,1500,1000,1000,1000,1000,1000,2000,2000,0,0,16,0,0,14,100
96890939,96890928,-1,-56.0,0,0,0,1499,1503,1000,1497,1988,1000,1500,1500,1500,1000,1000,1000,1000,1000,2000,2000,0,0,16,0,0,14,100
97400398,97400387,-1,-56.0,0,0,0,1497,1503,1000,1499,1988,1000,1500,1500,1500,1000,1000,1000,1000,1000,2000,2000,0,0,16,0,0,14,100
97890447,97890435,-1,-56.0,0,0,0,1497,1503,1000,1497,1988,1000,1500,1500,1500,1000,1000,1000,1000,1000,2000,2000,0,0,16,0,0,14,100
98400359,98400348,-1,-56.0,0,0,0,1497,1503,1000,1497,1988,1000,1500,1500,1500,1000,1000,1000,1000,1000,2000,2000,0,0,16,0,0,14,100
98890097,98890086,-1,-56.0,0,0,0,1497,1503,1000,1497,1988,1000,1500,1500,1500,1000,1000,1000,1000,1000,2000,2000,0,0,16,0,0,14,100
99400331,99400320,-1,-56.0,0,0,0,1499,1503,1000,1497,1988,1000,1500,1500,1500,1000,1000,1000,1000,1000,2000,2000,0,0,16,0,0,14,100
99894510,99890376,-1,-56.0,0,0,0,1497,1503,1000,1499,1988,1000,1500,1500,1500,1000,1000,1000,1000,1000,2000,2000,0,0,16,0,0,14,100
100400677,100400664,-1,-56.0,0,0,0,1497,1503,1000,1499,1988,1000,1500,1500,1500,1000,1000,1000,1000,1000,2000,2000,0,0,16,0,0,14,100
100890429,100890417,-1,-56.0,0,0,0,1497,1503,1000,1497,1988,1000,1500,1500,1500,1000,1000,1000,1000,1000,2000,2000,0,0,16,0,0,14,100
101400271,101400260,-1,-56.0,0,0,0,1499,1506,1000,1499,1988,1000,1500,1500,1500,1000,1000,1000,1000,1000,2000,2000,0,0,16,0,0,14,100
101890421,101890409,-1,-56.0,0,0,0,1497,1611,1000,1499,1988,1000,1500,1500,1500,1000,1000,1000,1000,1000,2000,2000,0,0,16,0,0,14,100
102400240,102400229,-1,-56.0,0,0,0,1497,1503,1000,1497,1988,1000,1500,1500,1500,1000,1000,1000,1000,1000,2000,2000,0,0,16,0,0,14,100
102890270,102890259,-1,-56.0,0,0,0,1499,1503,1000,1497,1988,1000,1500,1500,1500,1000,1000,1000,1000,1000,2000,2000,0,0,16,0,0,14,100
103400398,103400387,-1,-56.0,0,0,0,1497,1503,1000,1497,1988,1000,1500,1500,1500,1000,1000,1000,1000,1000,2000,2000,0,0,16,0,0,14,100
103890659,103890602,-1,-56.0,0,0,0,1497,1503,1000,1497,1988,1000,1500,1500,1500,1000,1000,1000,1000,1000,2000,2000,0,0,16,0,0,14,100
104400247,104400236,-1,-56.0,0,0,0,1497,1505,1000,1496,1988,1000,1500,1500,1500,1000,1000,1000,1000,1000,2000,2000,0,0,16,0,0,14,100
104890415,104890404,-1,-56.0,0,0,0,1497,1503,1000,1497,1988,1000,1500,1500,1500,1000,1000,1000,1000,1000,2000,2000,0,0,16,0,0,14,100
105400497,105400486,-1,-56.0,0,0,0,1499,1503,1000,1496,1988,1000,1500,1500,1500,1000,1000,1000,1000,1000,2000,2000,0,0,16,0,0,14,100
105890243,105890232,-1,-56.0,0,0,0,1497,1503,1000,1496,1988,1000,1500,1500,1500,1000,1000,1000,1000,1000,2000,2000,0,0,16,0,0,14,100
106400429,106400418,-1,-56.0,0,0,0,1499,1503,1000,1496,1988,1000,1500,1500,1500,1000,1000,1000,1000,1000,2000,2000,0,0,16,0,0,14,100
106890192,106890181,-1,-56.0,0,0,0,1499,1503,1000,1497,1988,1000,1500,1500,1500,1000,1000,1000,1000,1000,2000,2000,0,0,16,0,0,14,100
107400158,107400146,-1,-33.0,0,0,0,1497,1503,1000,1497,1988,1000,1500,1500,1500,1000,1000,1000,1000,1000,2000,2000,0,0,16,0,0,14,100
