timestamp,gyro_rad[0],gyro_rad[1],gyro_rad[2],gyro_integral_dt,accelerometer_timestamp_relative,accelerometer_m_s2[0],accelerometer_m_s2[1],accelerometer_m_s2[2],accelerometer_integral_dt,accelerometer_clipping,gyro_clipping,accel_calibration_count,gyro_calibration_count
80397176,0.009186688,-0.019531084,-0.0037393435,5242,0,-3.9536028,0.7731837,-9.17841,5242,0,0,1,1
80402508,-0.01979186,0.018070253,0.017554333,5332,0,3.1099477,-1.1569012,-10.231014,5332,0,0,1,1
80407884,-0.020304061,-0.011333276,-0.011613029,5376,0,-3.0696647,-1.1111383,-9.872063,5376,0,0,1,1
80413121,0.005338904,-0.008288833,0.0047242236,5237,0,2.6608868,0.98325145,-9.887053,5237,0,0,1,1
80418431,-0.0022416294,0.024220657,-0.028039416,5310,0,-2.6115851,-0.13646764,-9.386167,5310,0,0,1,1
80423686,0.005725506,-0.042678405,0.004026358,5255,0,2.4238834,0.96706504,-9.646113,5255,0,0,1,1
80429007,-0.011286798,0.06115946,-0.028529877,5321,0,-1.2463332,-1.4911638,-10.1270075,5321,0,0,1,1
80434315,-0.0072116936,-0.080885,0.014679351,5308,0,0.8424242,0.49830014,-9.899377,5308,0,0,1,1
80439587,0.0075754477,0.08124704,-0.011162672,5272,0,0.65441215,0.13891658,-9.823539,5272,0,0,1,1
80508466,-0.014358507,0.071218565,0.01551625,5331,0,-0.9420523,0.38253593,-10.131959,5331,0,0,1,1
80513732,0.010191394,-0.11382206,0.032033347,5266,0,-2.2959177,-0.74422604,-8.811746,5266,0,0,1,1
80519067,0.0095005175,0.11278751,-0.0224482,5335,0,1.811348,0.8180471,-10.086698,5335,0,0,1,1
80524340,0.0031140593,-0.099254295,0.02035519,5273,0,-2.0374374,-0.26081786,-9.576412,5273,0,0,1,1
80529596,-0.0109453695,0.07913174,-0.0098463055,5256,0,4.6679745,-1.3630041,-10.635384,5256,0,0,1,1
80534950,0.009082722,-0.05409914,0.02156479,5354,0,-4.446712,-0.7774678,-9.831692,5354,0,0,1,1
80540191,-0.0133077195,0.03841554,0.045026746,5241,0,3.9991834,0.7664035,-9.763012,5241,0,0,1,1
80545562,-0.0035692237,-0.010992555,-0.010324154,5371,0,-4.402635,1.1996406,-9.093465,5371,0,0,1,1
80550864,-0.0031041577,-0.03012098,0.024614992,5302,0,5.003834,0.1789895,-10.495922,5302,0,0,1,1
80556116,-0.0043716603,0.059568252,-0.00072530884,5252,0,-4.480368,-1.2670873,-9.350424,5252,0,0,1,1
80561398,0.010375503,-0.081259064,-0.0148182865,5282,0,2.2075975,-1.118816,-10.169943,5282,0,0,1,1
80566840,0.015536139,0.09825093,-0.014765401,5442,0,-1.0781829,0.8297152,-9.677621,5442,0,0,1,1
80572002,-0.042551085,-0.09727651,0.0034355258,5162,0,1.492254,1.2897797,-9.920832,5162,0,0,1,1
80577333,0.0033026896,0.09828045,-0.039754763,5331,0,0.37772366,-1.661937,-9.967845,5331,0,0,1,1
80582574,0.039691307,-0.09670672,0.00876998,5241,0,-1.9980797,-1.0726241,-9.712857,5241,0,0,1,1
80587925,-0.01827231,0.08899486,-0.02626814,5351,0,1.3069645,-0.23262517,-9.792697,5351,0,0,1,1
80593170,-0.02287484,-0.074321315,-0.01526368,5245,0,-0.62125754,2.734617,-9.686737,5245,0,0,1,1
80598503,-0.030509165,0.055166755,0.0015620736,5333,0,2.180573,-0.4776035,-10.188225,5333,0,0,1,1
80603835,0.059536684,-0.033230856,-0.048054535,5332,0,-1.5421174,-1.6903886,-9.488128,5332,0,0,1,1
80609076,0.0044269613,0.01563967,0.015723137,5241,0,-0.7536134,-0.04107966,-9.535429,5241,0,0,1,1
80614391,-0.014699956,-0.02098981,0.0075845383,5315,0,-0.17823856,-0.73163706,-10.194085,5315,0,0,1,1
80619724,-0.031303037,0.03172834,-0.0003487017,5333,0,1.8614271,2.748838,-9.756792,5333,0,0,1,1
80624966,0.016657824,-0.017829832,0.02048202,5242,0,0.10104984,-1.1275421,-9.772611,5242,0,0,1,1
80630324,-0.0011329624,0.0022739668,0.011786377,5358,0,-0.16878617,-0.8660891,-10.042432,5358,0,0,1,1
80635581,-0.013919694,0.009633738,0.0014088197,5257,0,-1.7446709,-2.4610968,-9.828301,5257,0,0,1,1
80640894,-0.015654838,0.0020186359,0.038363043,5313,0,1.2475462,1.2279656,-9.8820915,5313,0,0,1,1
80646129,-0.049394738,-0.0026893793,-0.014290158,5235,0,-0.7681313,2.8193104,-9.244663,5235,0,0,1,1
80651461,0.041496165,-0.04092675,-0.021582957,5332,0,2.2454963,-1.0631533,-10.17461,5332,0,0,1,1
80656857,-0.006753781,0.045248695,-0.003987167,5396,0,-2.6258252,-2.1448438,-9.976218,5396,0,0,1,1
80662098,0.028669043,-0.058992144,-0.06654353,5241,0,0.6407245,-0.92764276,-9.307108,5241,0,0,1,1
80667341,-0.03923163,0.07033786,-0.0547638,5243,0,0.15721759,2.8215077,-10.193414,5243,0,0,1,1
80672631,0.017901033,-0.074003644,0.007500556,5290,0,1.1008927,1.341418,-9.254809,5290,0,0,1,1
80678102,0.008793605,0.06578741,-0.027757604,5471,0,0.54343915,-2.6168787,-10.694993,5471,0,0,1,1
80683259,0.005709207,-0.07951364,0.022030119,5157,0,-2.61667,-2.4132395,-9.350049,5157,0,0,1,1
80688518,-0.041735735,0.07299283,-0.00012163277,5259,0,1.4047514,1.3358498,-10.312608,5259,0,0,1,1
80693849,-0.018803375,-0.052262053,-0.029572614,5331,0,-2.1846027,1.894374,-8.805433,5331,0,0,1,1
80699122,0.013174685,0.048894513,0.0447608,5273,0,5.1544027,1.7706193,-10.256492,5273,0,0,1,1
80704434,-0.0022503857,-0.0452333,0.023766406,5312,0,-4.3074574,-3.7077477,-9.732189,5312,0,0,1,1
80709767,0.01672676,0.025919909,0.05957213,5333,0,2.1187806,-2.1828682,-10.61944,5333,0,0,1,1
80715038,-0.07054893,-0.009948613,0.030394852,5271,0,-4.373952,0.678443,-9.645793,5271,0,0,1,1
80720371,0.019057391,-0.021570735,0.042400263,5333,0,5.556034,2.414275,-9.121307,5333,0,0,1,1
80725644,-0.013834784,0.02570801,-0.008174014,5273,0,-1.142133,0.105697006,-10.605397,5273,0,0,1,1
80730943,0.072265975,-0.057532497,0.030675609,5299,0,-0.04894316,-0.49860784,-9.209313,5299,0,0,1,1
80736232,-0.026010038,0.048702575,-0.013639047,5289,0,-2.4907494,-1.1440777,-9.769037,5289,0,0,1,1
80741523,-0.026815793,-0.081555285,-0.016974183,5291,0,-1.0263945,0.8969243,-9.393539,5291,0,0,1,1
80746832,0.0035863305,0.084078744,-0.03419851,5309,0,4.683565,-0.1103561,-11.142111,5309,0,0,1,1
80752132,0.0024569705,-0.0913838,-0.039884124,5300,0,-2.2117295,1.1487601,-8.993316,5300,0,0,1,1
80757375,-0.02275558,0.06306701,-0.060697563,5243,0,3.5187979,-0.9882418,-10.192138,5243,0,0,1,1
80762707,-0.033091772,-0.06934556,-0.042774044,5332,0,-6.8801208,-2.6139755,-9.249521,5332,0,0,1,1
80768094,0.033707775,0.033038437,-0.0015609487,5387,0,3.5499563,0.11393479,-10.216848,5387,0,0,1,1
80773279,-0.03063005,0.009417831,0.013165191,5185,0,-2.7539563,1.5001779,-9.7626705,5185,0,0,1,1
80778611,0.011507607,-0.021959612,0.046636537,5332,0,5.800445,0.46733102,-9.911163,5332,0,0,1,1
80783853,0.03091701,0.054486312,0.05011364,5242,0,-2.9540906,-1.9960155,-10.043943,5242,0,0,1,1
80789185,0.015674405,-0.06699751,0.0589754,5332,0,1.4574327,0.44336954,-9.805831,5332,0,0,1,1
80794528,0.00034427232,0.11449524,0.031998932,5343,0,-1.4476788,0.51762676,-9.592281,5343,0,0,1,1
80799770,-0.015681006,-0.1041527,0.030934157,5242,0,-0.121529676,1.2195898,-9.606352,5242,0,0,1,1
80805055,0.022371933,0.087653816,-0.020413939,5285,0,1.5737485,0.103851855,-9.936386,5285,0,0,1,1
80810386,0.04451736,-0.0782477,0.027654428,5331,0,-3.87194,-2.1182916,-9.520161,5331,0,0,1,1
80815682,-0.052970037,0.04053642,0.003593412,5296,0,1.8236632,0.687163,-10.06809,5296,0,0,1,1
80820994,-0.024789987,-0.03182479,-0.035860144,5312,0,-1.9263543,-1.3907106,-9.234135,5312,0,0,1,1
80826323,-0.061549086,-3.1930047e-06,-0.07295126,5329,0,5.3021317,2.479026,-10.965135,5329,0,0,1,1
80831563,-0.0004928291,0.015136127,-0.110899255,5240,0,-3.2901814,-2.3019664,-9.431819,5240,0,0,1,1
80836859,0.011824373,-0.0427751,0.012303144,5296,0,2.2090988,-0.16390932,-10.622979,5296,0,0,1,1
80842156,-0.012887674,0.06832393,0.010884508,5297,0,-5.3548393,-1.7225444,-8.428121,5297,0,0,1,1
80847489,0.026308471,-0.08989654,0.073039204,5333,0,2.0884113,-0.020259818,-10.316524,5333,0,0,1,1
80852756,-0.020963494,0.103722736,0.06523201,5267,0,-1.2342426,1.8554882,-9.380441,5267,0,0,1,1
80858092,0.0033726394,-0.07862964,0.10223223,5336,0,4.9083734,-0.108698346,-10.352639,5336,0,0,1,1
80863327,0.016154312,0.098397076,0.027794236,5235,0,1.0173529,1.202558,-10.218414,5235,0,0,1,1
80868659,0.043974277,-0.076783605,0.016836971,5332,0,-0.39816722,-2.5112932,-9.763467,5332,0,0,1,1
80873996,-0.022705657,0.03410939,-0.0071691624,5337,0,-1.2682561,1.2127858,-10.805964,5337,0,0,1,1
80879314,0.0125782965,-0.052045077,-0.026547423,5318,0,-3.8747325,-0.7816863,-7.4657903,5318,0,0,1,1
80884553,-0.0067157974,0.028139409,-0.020613892,5239,0,2.4067178,2.6129816,-10.698686,5239,0,0,1,1
80889817,0.0101514105,-0.01430691,-0.023479447,5264,0,-3.0886872,-0.95067346,-8.54301,5264,0,0,1,1
80895150,0.0010317187,-0.0038285388,-0.030311203,5333,0,5.0048046,-1.284251,-10.947809,5333,0,0,1,1
80900390,-0.012195465,0.03011929,-0.002194213,5240,0,-2.820907,-0.19465593,-10.225091,5240,0,0,1,1
80905706,-0.013087223,-0.06064222,0.000100978854,5316,0,2.8332343,-0.6997866,-9.708645,5316,0,0,1,1
80911037,-0.03493624,0.04945641,-0.01945453,5331,0,-3.807602,1.0485255,-9.552944,5331,0,0,1,1
80916281,0.010708572,-0.069910966,0.061938062,5244,0,2.8773642,-1.1521478,-10.183012,5244,0,0,1,1
80921647,-0.027211772,0.11982787,0.010347098,5366,0,-1.3753601,-0.40765834,-9.531432,5366,0,0,1,1
80926909,0.021601882,-0.097160116,0.034997843,5262,0,1.6573037,-0.29653102,-9.722519,5262,0,0,1,1
80932198,0.018378172,0.12653871,0.007882905,5289,0,0.44181493,0.99116904,-10.459226,5289,0,0,1,1
80937530,0.015306423,-0.10708595,0.0046332893,5332,0,-1.8019148,1.011387,-9.153723,5332,0,0,1,1
80942774,0.0013784547,0.083880015,-0.033644054,5244,0,1.8015562,-1.197466,-10.601919,5244,0,0,1,1
80948108,0.055830453,-0.07205377,-0.015795061,5334,0,-4.281867,-1.6883012,-8.714152,5334,0,0,1,1
80953438,0.0047319746,0.025720254,-0.029130852,5330,0,4.019633,1.3415015,-10.068603,5330,0,0,1,1
80958680,-0.05159204,0.029433513,-0.061935507,5242,0,-3.3108516,0.37867993,-9.584618,5242,0,0,1,1
80964033,-0.011261773,-0.05630164,-0.0064821807,5353,0,5.0703354,0.11696023,-10.71637,5353,0,0,1,1
80969314,0.005775386,0.08479402,-0.08177757,5281,0,-2.857602,-1.3185606,-9.823046,5281,0,0,1,1
80974591,-0.011072971,-0.10607029,0.00051147933,5277,0,2.0708876,-0.40649673,-10.157892,5277,0,0,1,1
80979925,-0.024394576,0.10333688,-0.023225948,5334,0,-4.19522,-0.22433761,-8.705983,5334,0,0,1,1
80985167,0.014628441,-0.11301594,0.009848939,5242,0,0.71077603,0.54188985,-9.673694,5242,0,0,1,1
80990561,-0.013136923,0.12731317,0.010791893,5394,0,0.54402095,1.5417175,-9.868301,5394,0,0,1,1
80995789,0.0020670714,-0.09857108,0.026433827,5228,0,2.2317116,-1.3845184,-10.360234,5228,0,0,1,1
81001099,0.015279282,0.09720912,-0.0006744615,5310,0,1.511979,-1.0766441,-10.462702,5310,0,0,1,1
81006349,0.009856363,-0.09378315,0.012305766,5250,0,-2.3418543,0.015821436,-9.540405,5250,0,0,1,1
81011679,-0.027429279,0.060141686,0.009235038,5330,0,0.13312912,0.35958004,-9.547482,5330,0,0,1,1
81016964,0.016175713,-0.06379819,0.007141152,5285,0,-3.9000807,0.41811642,-8.670555,5285,0,0,1,1
81022322,0.035644032,0.05467198,0.013288793,5358,0,4.035414,-0.6083124,-11.054116,5358,0,0,1,1
81027564,-0.0022092925,0.01175317,-0.03390549,5242,0,-2.4034128,-0.20355365,-8.850105,5242,0,0,1,1
81032896,-0.030525392,-0.04694312,-0.04259885,5332,0,5.0419264,0.7969926,-10.731505,5332,0,0,1,1
81038142,-0.024714192,0.05636019,-0.054134306,5246,0,-4.4679627,-0.7723806,-9.92136,5246,0,0,1,1
81043474,0.008203054,-0.09598932,-0.018326843,5332,0,2.4061246,-0.21897934,-9.721214,5332,0,0,1,1
81048723,0.0013940403,0.0940176,0.000861094,5249,0,-3.2942698,-1.1568524,-9.174249,5249,0,0,1,1
81054047,-0.0175741,-0.09489497,0.060291324,5324,0,2.2874944,0.39984727,-10.147872,5324,0,0,1,1
81059334,-0.011995252,0.104802474,0.03807695,5287,0,-1.1342275,0.6582308,-9.574337,5287,0,0,1,1
81064655,0.014219114,-0.09657483,0.04734043,5321,0,1.3562099,0.18652953,-10.193765,5321,0,0,1,1
81069942,0.0007228467,0.09843372,0.03991077,5287,0,0.8469966,0.15486574,-9.947156,5287,0,0,1,1
81075229,0.021889437,-0.08533299,0.031931568,5287,0,-1.7419927,-0.9642203,-9.478102,5287,0,0,1,1
81080581,-0.03597703,0.053929225,0.011775648,5352,0,1.7995284,-0.37260738,-10.329753,5352,0,0,1,1
81085825,0.017754538,-0.03563937,0.0057523223,5244,0,-3.3886364,-0.9387542,-9.13897,5244,0,0,1,1
81091153,-0.025337268,0.0073924423,-0.020307168,5328,0,2.8336024,1.0361813,-10.102589,5328,0,0,1,1
81096395,0.00078743347,0.006249619,-0.06729832,5242,0,-3.0091043,1.4221607,-9.304243,5242,0,0,1,1
81101838,-0.012014404,-0.0545872,-0.031410743,5443,0,3.3308263,-1.1586561,-10.277381,5443,0,0,1,1
81107008,0.016273994,0.06905574,-0.03732065,5170,0,-2.4934812,-1.3902675,-9.878322,5170,0,0,1,1
81112308,0.008785743,-0.0838726,0.025893977,5300,0,1.2961795,-0.6381453,-9.846018,5300,0,0,1,1
81117624,-0.038672097,0.095089495,0.0090618925,5316,0,-1.0524868,0.8185973,-9.55146,5316,0,0,1,1
81122866,-0.0019995307,-0.09252713,0.029944893,5242,0,1.7328504,0.8102743,-10.045915,5242,0,0,1,1
81128188,-0.02383302,0.09777145,0.021478627,5322,0,1.1661481,0.027500838,-9.952243,5322,0,0,1,1
81133522,0.016040806,-0.07864911,0.0075620897,5334,0,-1.655878,-0.90399295,-9.643382,5334,0,0,1,1
81138764,-0.030916616,0.06870444,-0.054855276,5242,0,0.36114672,-0.32137227,-9.573027,5242,0,0,1,1
81144097,0.050451715,-0.074623026,-0.017231748,5333,0,-3.3875113,0.01055308,-9.401521,5333,0,0,1,1
81149390,-0.052502885,0.04677327,0.008519661,5293,0,3.175735,1.8224925,-10.405865,5293,0,0,1,1
81154722,-0.049927294,-0.058740746,-0.047175504,5332,0,-2.579458,-0.5097969,-9.058754,5332,0,0,1,1
81159975,-0.013214982,-0.019318385,-0.01961267,5253,0,4.3772907,-1.4637167,-11.347591,5253,0,0,1,1
81165295,0.03354359,0.031989593,-0.05016868,5320,0,-3.2610114,-0.9726416,-8.815199,5320,0,0,1,1
81170649,0.0069839857,-0.07829559,0.04880249,5354,0,2.7159095,-1.0829892,-10.320464,5354,0,0,1,1
81175922,-0.06773676,0.08836941,0.022766188,5273,0,-4.378653,-0.02670339,-10.025316,5273,0,0,1,1
81181163,0.0025458392,-0.11808483,0.06626065,5241,0,2.456841,0.5529273,-9.511332,5241,0,0,1,1
81186495,-0.061940975,0.13743018,0.0016526356,5332,0,0.7804885,1.8677446,-9.701262,5332,0,0,1,1
81191831,0.05842719,-0.10663194,0.036619667,5336,0,2.1332762,1.0509734,-9.248379,5336,0,0,1,1
81197082,-0.055238836,0.122528166,-0.022901364,5251,0,-1.4954059,-1.9814142,-10.877158,5251,0,0,1,1
81202323,0.002613352,-0.13485132,-0.014974834,5241,0,-3.90955,-1.4688015,-8.707449,5241,0,0,1,1
81207653,-0.046101402,0.039170906,-0.023556868,5330,0,3.7570567,2.1341667,-11.076095,5330,0,0,1,1
81213059,-0.020163821,-0.021319967,-0.022031717,5406,0,-3.035506,0.8707526,-8.0190735,5406,0,0,1,1
81218245,0.02365835,-0.044364106,0.02725574,5186,0,5.9536805,-1.3182139,-11.147619,5186,0,0,1,1
81223577,0.004728926,0.005631578,0.03279211,5332,0,-6.579933,-2.777534,-9.479796,5332,0,0,1,1
81228818,0.030732393,-0.04732621,0.09058392,5241,0,3.3219776,0.014304713,-9.817253,5241,0,0,1,1
81234150,-0.06178144,0.07413922,0.0043756836,5332,0,-0.8169906,3.4429057,-10.244714,5332,0,0,1,1
81239444,0.0401214,-0.06538362,0.051498104,5294,0,3.8573008,0.34690425,-9.090632,5294,0,0,1,1
81244774,0.01063412,0.051338818,0.0035291766,5330,0,-0.20211715,-0.84574795,-11.175484,5330,0,0,1,1
81250068,0.03523207,-0.057054672,0.044537008,5294,0,-3.340598,-2.7172685,-8.878634,5294,0,0,1,1
81255335,-0.02117357,0.034719657,0.03317938,5267,0,-2.4492776,-0.89778197,-9.614724,5267,0,0,1,1
81260656,-0.10394344,-0.04318546,-0.008704189,5321,0,0.19248305,5.0924563,-9.580419,5321,0,0,1,1
81265896,-0.009055994,0.05786583,-0.07921831,5240,0,3.1977236,0.35547915,-9.164209,5240,0,0,1,1
81271229,0.048346806,-0.09606914,0.00013144578,5333,0,0.873438,-3.3167562,-11.552743,5333,0,0,1,1
81276527,-0.009115036,0.06832543,-0.009746033,5298,0,0.09176609,-3.5888176,-9.751024,5298,0,0,1,1
81281825,-0.084601745,-0.09398902,0.035382066,5298,0,-5.684577,0.109655775,-9.626216,5298,0,0,1,1
81287121,-0.041379936,0.025815997,0.064195566,5296,0,4.6303024,5.6283073,-9.488707,5296,0,0,1,1
81292411,0.027142288,0.008526727,0.010941713,5290,0,-1.8874451,-1.1791826,-9.445636,5290,0,0,1,1
81297694,0.045291148,-0.0493496,0.051013067,5283,0,5.096836,-1.8970041,-10.413033,5283,0,0,1,1
81303056,-0.029128738,0.07067106,-0.010468908,5362,0,-4.4941936,-2.2485204,-9.23577,5362,0,0,1,1
81308296,0.029390264,-0.097015075,0.01617981,5240,0,0.053902782,0.10455798,-10.809127,5240,0,0,1,1
81313628,-0.060347755,0.14087364,0.0050315354,5332,0,0.64744097,4.228012,-9.19057,5332,0,0,1,1
81318870,0.035481673,-0.13423839,-0.0139643485,5242,0,1.506076,0.12304254,-9.149897,5242,0,0,1,1
81324313,0.011605961,0.10281313,-0.011873178,5443,0,1.2716453,-1.0938137,-10.958726,5443,0,0,1,1
81329520,0.015677787,-0.09548623,0.0064787567,5207,0,-4.493368,-2.0700314,-8.362192,5207,0,0,1,1
81334761,0.010412945,0.06114926,0.0010950841,5241,0,0.39210126,-0.7074086,-10.69499,5241,0,0,1,1
81340094,-0.06207889,-0.0038879907,-0.0070504746,5333,0,-0.6970092,1.9134293,-9.130786,5333,0,0,1,1
81345426,0.019689173,-0.021436147,-0.022374058,5332,0,5.4203186,0.82139474,-10.989244,5332,0,0,1,1
81350667,0.036755696,0.022976937,0.035813972,5241,0,-1.5380284,-1.7394165,-9.9133,5241,0,0,1,1
81355999,0.001008236,-0.034883708,0.0060504316,5332,0,0.059309285,-0.84565026,-9.67847,5332,0,0,1,1
81361242,0.01237153,0.03805767,0.02689075,5243,0,-3.693627,-1.2112428,-8.867887,5243,0,0,1,1
81366573,-0.027981803,-0.021280365,0.035540257,5331,0,0.31120187,2.972122,-9.650935,5331,0,0,1,1
81371919,0.015096172,0.037292875,-0.023539932,5346,0,1.7078893,1.1890653,-10.014239,5346,0,0,1,1
81377159,0.0048670294,0.0040463465,-0.03945478,5240,0,1.6579012,-1.418952,-10.04983,5240,0,0,1,1
81382492,-0.047859255,-0.012486788,-0.088066384,5333,0,1.1272618,-1.1426604,-10.866128,5333,0,0,1,1
81387733,-0.017363802,-0.011587342,-0.1375029,5241,0,-3.7239995,-1.6258212,-9.1026325,5241,0,0,1,1
81393079,-0.023938227,-0.03642358,-0.0048278193,5346,0,-0.54821247,2.9199314,-9.42416,5346,0,0,1,1
81398398,-0.040113825,0.03805246,-0.027738303,5319,0,-1.765623,0.0455901,-8.665888,5319,0,0,1,1
81403653,-0.0024668537,-0.04488166,0.04787039,5255,0,3.5172236,-3.0062687,-10.9092045,5255,0,0,1,1
81408971,0.023011241,0.07367041,0.10531375,5318,0,1.3276801,-0.11136146,-11.0013,5318,0,0,1,1
81414313,0.03507098,-0.03879284,0.09935832,5342,0,-1.2941871,0.47655615,-8.447948,5342,0,0,1,1
81419585,-0.040881634,0.06584699,0.10791833,5272,0,0.80456716,3.4834244,-10.755039,5272,0,0,1,1
81424827,0.06684876,-0.045187045,0.052916754,5242,0,-0.36104056,-3.3820803,-9.70617,5242,0,0,1,1
81430157,0.042365454,0.050959248,-0.019809734,5330,0,2.316655,-0.24182343,-9.899331,5330,0,0,1,1
81435397,0.011765169,-0.023964962,-0.018169394,5240,0,-3.5678818,-1.0971148,-9.381419,5240,0,0,1,1
81440759,0.0026105414,0.02920172,-0.061459556,5362,0,-0.30207065,1.872761,-9.502164,5362,0,0,1,1
81445987,0.008255625,-0.011036026,-0.06406446,5228,0,-1.1667444,1.837021,-9.541105,5228,0,0,1,1
81451320,0.009443964,-0.0019189491,0.014700263,5333,0,3.0067105,-1.1397368,-10.277531,5333,0,0,1,1
81456652,0.0036306237,0.015134425,0.036661036,5332,0,-1.5370824,-2.508861,-10.153982,5332,0,0,1,1
81461907,-0.06714678,-0.022963827,0.0748385,5255,0,0.97399735,-1.0843008,-9.842983,5255,0,0,1,1
81467181,-0.03685052,0.03693559,0.024423312,5274,0,-1.5574311,2.4347267,-9.23359,5274,0,0,1,1
81472514,-0.045369066,-0.048336364,0.030662026,5333,0,2.8213222,1.8278055,-10.18157,5333,0,0,1,1
81477846,0.004286746,0.08792154,-0.01749548,5332,0,-0.14634626,-1.6511137,-9.925482,5332,0,0,1,1
81483131,0.031513724,-0.090077385,-0.024694776,5285,0,0.003836016,-2.7175581,-10.671798,5285,0,0,1,1
81488419,-0.025228024,0.08797708,-0.051778927,5288,0,-2.2231007,-0.15236114,-8.489437,5288,0,0,1,1
81493705,0.026584977,-0.070500955,-0.03044428,5286,0,-2.1831274,2.8257258,-9.332549,5286,0,0,1,1
81499036,-0.010891873,0.06267843,-0.039641827,5331,0,2.4408157,2.0621264,-10.03129,5331,0,0,1,1
81504333,0.051594514,-0.028978763,-0.035493277,5297,0,1.2997831,-1.8909411,-10.0700245,5297,0,0,1,1
81509630,-0.005627353,0.005344953,-0.009528631,5297,0,1.7045876,-2.6774552,-10.844358,5297,0,0,1,1
81514899,0.020419855,-0.0058924137,-0.0036926784,5269,0,-3.4338503,-1.4978918,-9.085277,5269,0,0,1,1
81520230,-0.022514313,-0.04295472,0.056108557,5331,0,-0.31957838,2.4227626,-10.386842,5331,0,0,1,1
81525558,-0.067449234,0.056321755,0.02354156,5328,0,0.51919824,2.6616566,-8.687024,5328,0,0,1,1
81530798,-0.0014613747,-0.061332494,0.03700674,5240,0,2.371133,-1.1783398,-10.098438,5240,0,0,1,1
81536039,0.009905682,0.11075463,-0.0038265206,5241,0,-0.016800417,-3.1531904,-10.707286,5241,0,0,1,1
81541384,0.025530256,-0.080082774,-0.0425268,5345,0,-1.3154683,-0.9026314,-8.873688,5345,0,0,1,1
81546837,-0.0917994,0.0838238,-0.03686113,5453,0,-1.3553001,2.0324008,-10.696693,5453,0,0,1,1
81551973,-0.016139934,-0.07379251,-0.03297568,5136,0,-0.4376233,2.3680775,-8.638682,5136,0,0,1,1
81557266,0.061709914,0.052236326,-0.039299123,5293,0,2.0852568,-2.3493373,-10.749002,5293,0,0,1,1
81562597,0.053729907,-0.028824335,-0.0073909964,5331,0,-0.065499276,-1.8105155,-9.489106,5331,0,0,1,1
81567837,-0.0009911485,0.030620629,-0.0004401054,5240,0,0.24612443,0.024684567,-9.85611,5240,0,0,1,1
81573198,0.02257297,-0.029947823,-0.04240969,5361,0,-1.9938087,1.1806935,-9.844727,5361,0,0,1,1
81578490,-0.011010723,0.002792823,0.00264083,5292,0,3.158819,3.498482,-10.243492,5292,0,0,1,1
81583736,0.055612262,-0.014603911,0.001435329,5246,0,-0.7287222,-1.5990585,-9.180705,5246,0,0,1,1
81589067,-0.016664056,0.007640141,0.033045325,5331,0,0.750612,-1.5874771,-10.164891,5331,0,0,1,1
81594334,-0.011438897,-0.02607648,0.050724987,5267,0,-4.6924043,-2.883537,-9.98287,5267,0,0,1,1
81599655,-0.014838103,0.035624627,0.009424864,5321,0,2.9174848,2.0726578,-9.407638,5321,0,0,1,1
81604988,-0.054551564,0.0025221845,-0.05011412,5333,0,-1.1102008,1.4652369,-9.495168,5333,0,0,1,1
81610230,0.004371071,-0.039587803,-0.033500247,5242,0,5.520657,0.22842222,-11.179592,5242,0,0,1,1
81615559,0.0038118593,0.029875372,-0.064957015,5329,0,-5.1445065,-3.5889764,-9.275164,5329,0,0,1,1
81620846,-0.0037101596,-0.06962684,-0.016815085,5287,0,0.9869618,0.83705646,-10.00945,5287,0,0,1,1
81626102,-0.024601996,0.08888434,-0.05426594,5256,0,-4.272526,0.08909481,-8.277586,5256,0,0,1,1
81631434,-0.012062871,-0.115604304,-0.054754633,5332,0,3.8443284,1.2133564,-10.929614,5332,0,0,1,1
81636847,-0.013766216,0.10993419,-0.056990933,5413,0,2.5128946,0.99880075,-9.950958,5413,0,0,1,1
81641996,0.06384335,-0.1231057,0.024971945,5149,0,-1.1562659,-2.4245346,-9.5772295,5149,0,0,1,1
81647328,-0.015636448,0.10701843,-0.0076263575,5332,0,-0.7171734,0.36489734,-10.3621855,5332,0,0,1,1
81652576,0.011415722,-0.094354674,0.024124397,5248,0,-3.7669694,-1.288434,-8.575219,5248,0,0,1,1
81657939,-0.023701454,0.059532158,0.051021244,5363,0,5.4700236,1.8023676,-11.316513,5363,0,0,1,1
81663209,0.023160262,-0.008048308,5.2218344e-05,5270,0,-1.833908,0.04114207,-8.753267,5270,0,0,1,1
81668571,0.0108985705,-0.035527624,0.035367567,5362,0,3.4951456,0.87227774,-10.350174,5362,0,0,1,1
81673811,-0.015749643,0.033346303,0.0064314883,5240,0,-6.519554,-2.5279732,-9.394279,5240,0,0,1,1
81679145,-0.009192055,-0.07713061,0.014651762,5334,0,2.8017244,-0.7129766,-10.059608,5334,0,0,1,1
81684416,-0.030856159,0.12381666,-0.016514327,5271,0,-1.7942019,0.33586916,-10.21053,5271,0,0,1,1
81689655,0.023936035,-0.12413987,0.008982017,5239,0,5.011199,1.7608664,-9.361211,5239,0,0,1,1
81694988,-0.02902146,0.08794709,-0.028622083,5333,0,-3.499621,-1.0230632,-10.032649,5333,0,0,1,1
81700319,0.019562561,-0.13813582,0.019994266,5331,0,-0.53780687,-1.1118714,-9.383779,5331,0,0,1,1
81705615,-0.05907733,0.11345524,-0.018563418,5296,0,0.5248625,1.7787381,-10.177183,5296,0,0,1,1
81710940,0.0021857095,-0.08936944,-0.016623339,5325,0,-0.034576084,-0.7545424,-9.312087,5325,0,0,1,1
81716189,0.021480277,0.06101247,0.017132342,5249,0,4.4946623,0.40406185,-10.694933,5249,0,0,1,1
81721520,0.0022496786,-0.056505993,0.031649202,5331,0,-6.39824,-2.0146441,-9.201142,5331,0,0,1,1
81726806,0.031761996,-0.021112982,0.05355244,5286,0,3.0781903,0.312136,-9.909022,5286,0,0,1,1
81732092,-0.111005925,0.058520902,-0.021540081,5286,0,-3.0921137,1.5187203,-9.940367,5286,0,0,1,1
81737335,0.052411936,-0.09764719,0.0027773485,5243,0,6.175688,0.24421854,-9.066591,5243,0,0,1,1
81742667,0.010076339,0.11191529,0.0012256218,5332,0,-2.2471874,0.034899898,-11.262009,5332,0,0,1,1
81748089,-0.0071564405,-0.11466588,0.031267226,5422,0,-1.2710081,-2.6271534,-9.140767,5422,0,0,1,1
81753228,-0.0031407261,0.08056683,0.02119913,5139,0,-1.7573757,-0.12189925,-9.952654,5139,0,0,1,1
81758599,-0.054149102,-0.064706475,0.020045856,5371,0,0.08689464,0.7867333,-9.620323,5371,0,0,1,1
81763839,0.04333666,0.059522927,0.016863065,5240,0,4.109724,1.5132248,-9.607149,5240,0,0,1,1
81769172,-0.011613409,-0.039493535,0.047574215,5333,0,-1.7009643,-0.40245166,-10.092129,5333,0,0,1,1
81774418,0.022097155,0.014879937,0.018740004,5246,0,1.7710823,-1.5064757,-9.917269,5246,0,0,1,1
81779750,-0.033134393,-0.018766081,-0.0052323053,5332,0,-4.935004,-0.8252278,-9.700478,5332,0,0,1,1
81785087,-0.05574931,-0.018442176,0.010872436,5337,0,3.8390975,2.4186976,-9.946777,5337,0,0,1,1
81790328,0.035190508,0.03287046,-0.046339672,5241,0,-2.0253787,0.44477233,-9.249415,5241,0,0,1,1
81795635,0.046261977,-0.053390026,0.046301212,5307,0,3.394479,-1.1611229,-10.089751,5307,0,0,1,1
81800967,-0.012341575,0.04669327,0.010149954,5332,0,-5.385489,-2.319472,-9.5392275,5332,0,0,1,1
81806227,0.00012097032,-0.0833199,0.043500956,5260,0,1.4028081,-1.144477,-10.265061,5260,0,0,1,1
81811499,-0.025899017,0.1154096,0.037606444,5272,0,1.3050153,3.2259245,-9.901712,5272,0,0,1,1
81816857,0.009043351,-0.0881435,0.012541957,5358,0,3.15992,1.3227901,-9.390705,5358,0,0,1,1
81822129,0.013996047,0.07053865,0.013698743,5272,0,-0.09683422,-1.5106562,-10.589724,5272,0,0,1,1
81827398,0.025108824,-0.080171034,0.009026679,5269,0,-3.2580066,-3.5624173,-9.993828,5269,0,0,1,1
81832773,-0.044433914,0.058398593,-0.0394284,5375,0,-1.4635497,0.89488167,-9.225479,5375,0,0,1,1
81838054,-0.05618358,-0.041035533,-0.034908626,5281,0,-0.4991809,4.673539,-8.414618,5281,0,0,1,1
81843278,0.0020864133,0.023936098,-0.03331927,5224,0,3.5614934,0.60251516,-10.434606,5224,0,0,1,1
81848610,0.043464597,-0.025254069,0.06292471,5332,0,-0.25432628,-4.3021455,-10.441936,5332,0,0,1,1
81853886,-0.009252734,-0.009461248,0.06647925,5276,0,-0.20453262,-4.6094837,-10.191904,5276,0,0,1,1
81859349,-0.05915551,0.020818098,0.06887971,5463,0,-3.5734818,2.6265893,-10.205181,5463,0,0,1,1
81864497,-0.04063524,-0.036205143,0.037893865,5148,0,2.2247415,4.0514565,-8.758466,5148,0,0,1,1
81869774,0.025403468,0.06757729,-0.0382591,5277,0,2.6990054,3.5229921,-10.066979,5277,0,0,1,1
81875142,0.037444137,-0.06140665,-0.051026434,5368,0,1.0072532,-5.451463,-9.375181,5368,0,0,1,1
81880382,0.022299824,0.033846017,-0.050003078,5240,0,-2.9275074,-3.7918382,-10.386093,5240,0,0,1,1
81885704,-0.048433736,-0.03234169,-0.073657736,5322,0,-3.773876,-0.6695625,-10.121667,5322,0,0,1,1
81890946,-0.04242186,0.019481128,-0.024566252,5242,0,2.155581,6.614128,-9.315468,5242,0,0,1,1
81896278,-0.024225468,0.009621947,-0.054698244,5332,0,1.7983912,3.723529,-8.952019,5332,0,0,1,1
81901610,0.063994974,-0.043261897,0.022083724,5332,0,3.4718885,-5.2445245,-11.210418,5332,0,0,1,1
81906854,0.03516725,0.028264694,0.10024529,5244,0,-4.463072,-5.7974834,-9.326156,5244,0,0,1,1
81912186,-0.011208282,-0.009139059,0.1276145,5332,0,-0.64381826,-0.12053308,-9.297561,5332,0,0,1,1
81917427,-0.04866657,0.012742387,0.068868876,5241,0,-1.297144,6.239432,-10.862879,5241,0,0,1,1
81922759,0.0012425343,0.022271043,0.03633657,5332,0,3.798901,1.6086874,-9.027083,5332,0,0,1,1
81928111,0.06806269,-0.018140072,-0.07650024,5352,0,2.4146235,-2.854408,-11.01537,5352,0,0,1,1
81933351,0.012494566,0.021133866,-0.04346423,5240,0,-0.9575035,-2.6773968,-9.512985,5240,0,0,1,1
81938683,-0.03189496,-0.004273883,-0.07114923,5332,0,-2.297905,1.5008252,-8.949359,5332,0,0,1,1
81943928,-0.023623854,0.0026111666,-0.028686292,5245,0,-3.519282,1.6808114,-9.418139,5245,0,0,1,1
81949314,0.004101675,-0.009451991,0.03508688,5386,0,0.8912792,0.9729649,-10.284984,5386,0,0,1,1
81954565,0.05984848,0.03306555,0.07901935,5251,0,1.6296525,-3.076961,-10.521159,5251,0,0,1,1
81959882,-0.02787282,-0.005464931,0.10298628,5317,0,2.257644,-1.8968155,-9.573916,5317,0,0,1,1
81965160,-0.012396763,0.015690263,0.10537077,5278,0,-1.0734437,2.4405544,-9.352654,5278,0,0,1,1
81970422,-0.01512978,-0.0038514778,0.04672515,5262,0,-1.0568173,1.0733631,-10.077549,5262,0,0,1,1
81975776,0.045818403,-0.008762025,-0.0126820365,5354,0,0.49825072,0.93161577,-10.005301,5354,0,0,1,1
81981023,0.002567765,0.0055558626,-0.07128783,5247,0,1.8467523,-4.404018,-9.676188,5247,0,0,1,1
81986355,-0.02524639,0.016613152,-0.082897276,5332,0,-1.9427775,-0.8158682,-10.615984,5332,0,0,1,1
81991597,0.003765752,-0.03507123,-0.103886865,5242,0,-1.0759637,1.4844313,-8.9233465,5242,0,0,1,1
81996940,0.021654254,0.04732759,-0.036225818,5343,0,0.058920402,4.0319905,-9.284782,5343,0,0,1,1
82002259,0.012300883,-0.020700706,0.0027135336,5319,0,0.39927465,-0.96366036,-10.036473,5319,0,0,1,1
82007504,0.0023660844,7.36656e-05,0.076860085,5245,0,2.0386534,-5.3655944,-10.804797,5245,0,0,1,1
82012790,-0.015740419,0.018281994,0.0865952,5286,0,-1.4965839,0.43961582,-10.398051,5286,0,0,1,1
82018103,-0.04642983,0.0052719302,0.05588739,5313,0,0.35738412,2.9659622,-8.245214,5313,0,0,1,1
82023427,-0.043077588,0.012595865,0.0029668019,5324,0,-0.18661624,3.4682195,-9.451432,5324,0,0,1,1
82028670,0.036947176,-0.013645213,-0.020285286,5243,0,2.1671042,-3.594167,-10.681651,5243,0,0,1,1
82034001,-0.033453442,0.06548022,-0.066658616,5331,0,-1.802234,-3.609826,-9.906624,5331,0,0,1,1
82039329,0.009881721,-0.063037634,-0.07898606,5328,0,-1.0439239,-0.017156646,-10.011969,5328,0,0,1,1
82044630,-0.0043202587,0.077247955,-0.09314854,5301,0,-0.4116093,4.1811066,-9.037814,5301,0,0,1,1
82049873,0.0036164154,-0.050331715,-0.06888647,5243,0,0.19913653,3.0711484,-9.469549,5243,0,0,1,1
82055205,0.06754047,0.038728204,0.023267366,5332,0,2.618569,-3.706362,-11.131899,5332,0,0,1,1
82060576,-0.02152431,-0.018251454,0.0031125927,5371,0,-1.8278552,-3.7203748,-9.026258,5371,0,0,1,1
82065815,-0.0034924862,0.0052253534,0.08976586,5239,0,0.9045155,0.5915594,-10.07478,5239,0,0,1,1
82071086,-0.033519085,0.02645252,0.07561357,5271,0,-1.6186677,1.7880342,-10.245055,5271,0,0,1,1
82076388,-0.04212585,-0.0077743186,0.050542828,5302,0,3.3807085,3.4017768,-9.426717,5302,0,0,1,1
82081807,-0.000919697,0.038337912,-0.01910141,5419,0,-0.598667,-4.0070233,-9.526097,5419,0,0,1,1
82086992,0.031975135,-0.03912054,-0.051367212,5185,0,-0.034333706,-2.2736497,-10.496851,5185,0,0,1,1
82092241,-0.022286078,0.04717016,-0.0655791,5249,0,-3.6223304,0.27932522,-8.793652,5249,0,0,1,1
82097573,0.018974654,-0.03681037,-0.041117202,5332,0,0.32023206,2.673655,-10.351432,5332,0,0,1,1
82102847,-0.0017755991,0.03444175,-0.0052168146,5274,0,0.45739466,2.1140285,-9.445833,5274,0,0,1,1
82108136,0.009268675,-0.030625748,0.016380504,5289,0,1.8823202,-2.2336552,-10.790659,5289,0,0,1,1
82113453,0.04906321,0.036213335,0.049082387,5317,0,0.99152946,-2.0360522,-9.280598,5317,0,0,1,1
82118799,-0.07063364,-0.0296876,0.06530884,5346,0,-2.0432324,-0.1831843,-9.377442,5346,0,0,1,1
82124052,0.0008157932,0.0076454002,0.06159491,5253,0,1.3842402,4.05038,-10.2083,5253,0,0,1,1
82129347,-0.0509833,0.001061018,0.059287954,5295,0,-1.533348,-0.61841697,-8.900058,5295,0,0,1,1
82134679,-0.008682048,-0.0020004634,0.01665627,5332,0,2.4760356,-2.9768245,-11.194521,5332,0,0,1,1
82139929,0.013135145,0.060878813,-0.07680073,5250,0,-2.5008812,-3.7108083,-8.922341,5250,0,0,1,1
82145238,-0.03635297,-0.05408432,-0.08529544,5309,0,1.4292021,1.0817475,-10.234552,5309,0,0,1,1
82150675,-0.01321329,0.088181265,-0.1046177,5437,0,-3.2372413,3.731361,-9.993842,5437,0,0,1,1
82155921,0.07265258,-0.097156085,-0.09449776,5246,0,2.6868405,0.48358077,-9.110116,5246,0,0,1,1
82161164,0.018349987,0.07597732,-0.026632473,5243,0,0.82399535,-1.0058694,-10.351982,5243,0,0,1,1
82166404,0.06591658,-0.08687367,-0.007080787,5240,0,-0.79797226,-3.449066,-10.046199,5240,0,0,1,1
82171836,-0.016749289,0.058566652,-0.0029894637,5432,0,-0.23284142,2.3506565,-9.717898,5432,0,0,1,1
82176999,-0.063245565,-0.027092678,0.024339277,5163,0,-1.3035196,2.191108,-9.098133,5163,0,0,1,1
82182368,0.067453355,-0.007834761,-0.0012135789,5369,0,4.504139,0.58059657,-10.165555,5369,0,0,1,1
82187608,-0.028790496,0.07391477,-0.029719267,5240,0,-1.4493216,-2.5235796,-10.652197,5240,0,0,1,1
82192896,0.021734092,-0.1010327,-0.019219538,5288,0,0.6088023,-2.331345,-9.8945675,5288,0,0,1,1
82198225,-0.013299935,0.119031936,-0.073617674,5329,0,-4.109673,0.5991547,-9.090308,5329,0,0,1,1
82203500,0.012014454,-0.12470003,-0.024513695,5275,0,-0.32149708,2.4778721,-9.069849,5275,0,0,1,1
82208832,0.03418474,0.10982953,-0.025420444,5332,0,1.5312837,0.083294824,-9.931471,5332,0,0,1,1
82214079,0.0046327054,-0.08061507,-0.007424072,5247,0,1.5092659,-2.2250865,-10.952277,5247,0,0,1,1
82219409,0.016696654,0.06369023,0.040472116,5330,0,2.1363764,-0.09978204,-9.530891,5330,0,0,1,1
82224741,-0.023420222,-0.035496548,0.03528267,5332,0,-3.6759264,0.328749,-9.693425,5332,0,0,1,1
82229981,-0.02362301,0.009907143,0.036570475,5240,0,1.9580206,1.7332184,-10.279223,5240,0,0,1,1
82235268,0.012959245,0.009159629,0.005755654,5287,0,-2.1504526,-2.1481094,-8.799223,5287,0,0,1,1
82240600,-0.018977249,-0.025529096,-0.018956652,5332,0,3.8930063,-0.6224258,-10.573143,5332,0,0,1,1
82245941,0.011598513,0.047881097,-0.04461292,5341,0,-4.619334,-0.89042753,-9.494873,5341,0,0,1,1
82251182,-0.023390565,-0.058652494,-0.0061939335,5241,0,1.9612523,1.592492,-9.910728,5241,0,0,1,1
82256514,0.028112294,0.06726017,-0.060244866,5332,0,-2.3647656,0.90980005,-9.239498,5332,0,0,1,1
82261788,0.015520004,-0.09505667,0.008043445,5274,0,4.0890684,-0.42320943,-10.541173,5274,0,0,1,1
82267118,0.004960625,0.093782976,-0.021774713,5330,0,-0.41489238,-0.49870268,-9.68975,5330,0,0,1,1
82272368,0.030862546,-0.099394605,0.036188073,5250,0,-0.26374257,-0.77554995,-9.8018465,5250,0,0,1,1
82277701,-0.004452608,0.091369994,0.029702585,5333,0,-0.6873556,0.6915466,-9.565705,5333,0,0,1,1
82283068,-0.0010484887,-0.08411137,0.064670056,5367,0,-1.322923,-0.1572678,-9.804826,5367,0,0,1,1
82288245,-0.013032644,0.08858558,0.034956653,5177,0,1.846432,-0.66082937,-10.219809,5177,0,0,1,1
82293581,0.0030749228,-0.07028893,0.038880315,5336,0,-1.4931755,-0.68357635,-9.478975,5336,0,0,1,1
82298831,-0.021491123,0.061986487,-0.017370224,5250,0,2.4277456,-0.04247709,-9.852531,5250,0,0,1,1
82304151,-0.027521253,-0.04609729,-0.07331876,5320,0,-2.8105133,0.29528108,-9.761534,5320,0,0,1,1
82309467,-0.028419785,0.009655027,-0.052455634,5316,0,2.8446329,1.1438881,-10.1550455,5316,0,0,1,1
82314795,0.024403086,0.0042180507,-0.075117394,5328,0,-3.454059,-0.5007236,-9.105544,5328,0,0,1,1
82320037,-0.0017442695,-0.053607084,-0.015766652,5242,0,2.5509365,0.5577549,-10.154532,5242,0,0,1,1
82325368,0.010402916,0.04790146,-0.0048635546,5331,0,-3.007774,-1.3511523,-9.25855,5331,0,0,1,1
82330659,0.0041472353,-0.06694293,0.032476693,5291,0,3.422255,-1.2851495,-10.955994,5291,0,0,1,1
82335925,0.018596422,0.101396315,0.018950468,5266,0,-0.32724798,1.6593468,-8.935965,5266,0,0,1,1
82341232,-0.00998169,-0.11138121,0.05691039,5307,0,0.63846153,-0.6534915,-10.553719,5307,0,0,1,1
82346568,-0.0134256715,0.10517747,0.032762136,5336,0,-0.6403015,0.41409773,-9.9412365,5336,0,0,1,1
82351832,0.031210475,-0.08572013,0.03105919,5264,0,-1.5161957,-2.6884954,-9.274003,5264,0,0,1,1
82357133,-0.029474854,0.087776124,0.043219745,5301,0,1.8545353,0.8908343,-10.045145,5301,0,0,1,1
82362467,-0.01408781,-0.053304154,0.0156055745,5334,0,-2.3733003,1.1695464,-9.296681,5334,0,0,1,1
82367708,-0.026863294,0.028370446,0.022609856,5241,0,2.8157017,1.1213734,-10.386397,5241,0,0,1,1
82373088,0.030907985,-0.03518402,-0.011822158,5380,0,-3.2390137,-0.0070368317,-9.01704,5380,0,0,1,1
82378329,0.030492643,-0.00094848976,-0.015002303,5241,0,3.556223,-1.7044111,-10.573637,5241,0,0,1,1
82383615,-0.040668827,0.019663535,0.012137574,5286,0,-2.1851106,1.054489,-9.415592,5286,0,0,1,1
82388897,-0.00686931,-0.048637584,-0.029630776,5282,0,2.0871093,-2.2612026,-9.744038,5282,0,0,1,1
82394182,0.028463155,0.06482186,-0.034959137,5285,0,-0.7716728,0.9253272,-10.591351,5285,0,0,1,1
82399514,0.030392881,-0.060195565,0.054024253,5332,0,-1.8786035,-0.179986,-8.8166685,5332,0,0,1,1
82404767,-0.045741662,0.04848269,0.0005546241,5253,0,2.24817,-0.5278528,-10.511952,5253,0,0,1,1
82410112,-0.009841594,-0.03072998,0.08151435,5345,0,-3.0913637,1.244389,-9.646423,5345,0,0,1,1
82415430,0.013527683,0.025969384,0.04155217,5318,0,4.2204,-1.8084183,-9.812774,5318,0,0,1,1
82420720,-0.0050304173,0.0036654298,-0.009526324,5290,0,-3.2200646,2.3873906,-9.398949,5290,0,0,1,1
82425973,-0.009275426,-0.040534705,0.0049531437,5253,0,4.022576,-1.8710107,-10.348637,5253,0,0,1,1
82431305,-0.023649486,0.047030646,-0.03218338,5332,0,-3.827267,-0.39048097,-10.097513,5332,0,0,1,1
82436565,0.030040167,-0.055756584,-0.03408295,5260,0,1.989406,-0.4977598,-9.301558,5260,0,0,1,1
82441905,0.015580922,0.05216946,-0.032133024,5340,0,-2.6390328,0.3154984,-9.839367,5340,0,0,1,1
82447146,-0.0013924405,-0.066031195,-0.008111013,5241,0,1.4551451,2.35513,-9.297501,5241,0,0,1,1
82452479,-0.010787597,0.06686088,-0.054820187,5333,0,0.22089134,-1.7293284,-10.081186,5333,0,0,1,1
82457811,0.019812077,-0.07479594,0.016949655,5332,0,0.55336267,-0.79933554,-10.627219,5332,0,0,1,1
82463079,0.008634387,0.070790134,-0.025737759,5268,0,1.7930995,-1.3806522,-9.477327,5268,0,0,1,1
82468377,-0.03447532,-0.04853167,0.03418458,5298,0,-2.604905,1.5996863,-10.094434,5298,0,0,1,1
82473709,-0.01773381,0.052030522,0.038619123,5332,0,1.8818185,0.4297408,-9.508862,5332,0,0,1,1
82478949,0.013197541,-0.04041087,0.010824165,5240,0,-3.9969752,-0.49616876,-9.483672,5240,0,0,1,1
82484318,0.009864203,0.040663216,0.054434914,5369,0,3.9479342,-0.55653137,-10.039998,5369,0,0,1,1
82489558,-0.008024654,-0.015589839,0.013546213,5240,0,-3.1712415,0.043108366,-9.334808,5240,0,0,1,1
82494846,-0.025517244,0.007419674,-0.002957547,5288,0,5.5050387,0.36086932,-10.994749,5288,0,0,1,1
82500178,-0.010910563,0.014193284,-0.022388816,5332,0,-4.2528186,-1.0488563,-9.146439,5332,0,0,1,1
82505428,0.037164304,-0.06614297,-0.026096791,5250,0,2.2809021,0.13021494,-10.049424,5250,0,0,1,1
82510759,-0.015882203,0.0653309,-0.0075434973,5331,0,-4.3637137,-1.1460589,-9.26156,5331,0,0,1,1
82516001,0.004871327,-0.08448052,0.025853917,5242,0,1.9647223,1.3258955,-10.030886,5242,0,0,1,1
82521332,-0.011023563,0.102121055,-0.041888744,5331,0,0.66969055,0.10141996,-9.556361,5331,0,0,1,1
82526665,0.018015303,-0.10320107,-0.0062797093,5333,0,1.3246028,0.76041865,-10.142733,5333,0,0,1,1
82531921,-0.007996316,0.08952606,-0.03728572,5256,0,0.9440634,-0.9254608,-10.135641,5256,0,0,1,1
82537233,-0.012303361,-0.08730675,0.00034894884,5312,0,-3.3573794,-0.6975001,-9.650329,5312,0,0,1,1
82542500,0.002744961,0.08330727,0.0015552576,5267,0,1.7886534,-0.6006596,-9.758953,5267,0,0,1,1
82547833,-0.0059331967,-0.06284841,0.0031057454,5333,0,-3.045417,0.8315058,-9.313733,5333,0,0,1,1
82553100,-0.015343514,0.06355658,0.009125888,5267,0,4.371737,0.09451638,-10.43173,5267,0,0,1,1
82558447,-0.0011028211,-0.03616952,0.01120375,5347,0,-3.5077817,-1.2303848,-9.455525,5347,0,0,1,1
82563768,0.008648607,0.020592313,-0.0044930913,5321,0,3.660729,-0.014632595,-10.129829,5321,0,0,1,1
82569008,-0.021285677,0.0016348289,-0.010548116,5240,0,-3.3391988,0.9004477,-9.727495,5240,0,0,1,1
82574352,-0.021145785,-0.021319628,0.013607714,5344,0,3.6173248,0.4617869,-10.013208,5344,0,0,1,1
82579605,0.016579583,0.032184757,-0.021931471,5253,0,-4.131403,-1.3607957,-9.2908945,5253,0,0,1,1
82584939,0.015697662,-0.062125687,0.012732187,5334,0,1.4525219,0.12119086,-9.941055,5334,0,0,1,1
82590188,-0.0011442146,0.07567214,-0.022812475,5249,0,-0.8520985,-0.48451677,-9.74077,5249,0,0,1,1
82595554,-0.0013111945,-0.09273359,0.007014773,5366,0,2.486348,0.29655463,-10.270285,5366,0,0,1,1
82600794,-0.011864724,0.114403956,-0.03801635,5240,0,0.18311928,0.24345711,-9.73657,5240,0,0,1,1
82606126,0.012314205,-0.14272709,-0.0036125155,5332,0,-1.731441,-0.88298464,-9.951397,5332,0,0,1,1
82611367,-0.0024349843,0.14599285,-0.034972392,5241,0,0.87699145,-0.0934894,-9.699088,5241,0,0,1,1
82616837,0.011772441,-0.12438698,0.0090253875,5470,0,-2.636192,0.82134265,-9.111427,5470,0,0,1,1
82621982,-0.02726511,0.11038658,0.007375429,5145,0,3.9026015,-0.32556522,-10.722334,5145,0,0,1,1
82627316,0.03366413,-0.06776055,0.0067207124,5334,0,-2.616757,-0.35110682,-9.4541025,5334,0,0,1,1
82632555,-0.014409383,0.04683416,0.03238615,5239,0,2.9832783,-0.97870845,-10.163514,5239,0,0,1,1
82637887,-0.005598878,-0.02700915,0.024457859,5332,0,-3.5258622,0.49532348,-9.585781,5332,0,0,1,1
82643152,-0.033431087,-0.004450724,0.042025987,5265,0,3.5391498,0.16248122,-10.22625,5265,0,0,1,1
82648485,0.0128289005,0.0313483,0.0287917,5333,0,-3.5087051,-0.6415511,-9.097127,5333,0,0,1,1
82653732,0.021315327,-0.06891912,0.04124256,5247,0,2.099815,0.65251184,-10.006423,5247,0,0,1,1
82659067,-0.05752853,0.07045845,0.010082407,5335,0,-2.1674116,-0.5735305,-9.73745,5335,0,0,1,1
82664331,0.008977499,-0.08146178,0.003347517,5264,0,2.3582196,0.81773394,-9.926593,5264,0,0,1,1
82669653,-0.0101282485,0.069703385,-0.018340003,5322,0,0.2972112,-1.4292136,-10.155704,5322,0,0,1,1
82674985,0.025816,-0.068267085,-0.0052622305,5332,0,-0.49893922,0.5048518,-9.692318,5332,0,0,1,1
82680227,-0.0033860763,0.043154668,-0.022333948,5242,0,-0.45298627,-0.92664933,-9.440239,5242,0,0,1,1
82685579,-0.02593462,-0.04031767,-0.018502958,5352,0,-1.4791985,0.6304745,-9.775667,5352,0,0,1,1
82690869,-0.009272987,0.027915228,-0.033285618,5290,0,2.5816178,-0.044105973,-10.076551,5290,0,0,1,1
82696123,0.033908438,-0.022439454,-0.02771938,5254,0,-1.626066,0.2815668,-9.655994,5254,0,0,1,1
82701472,-0.012533578,0.0105836475,0.010019851,5349,0,1.9456837,-0.10706644,-10.012,5349,0,0,1,1
82706846,-0.019720018,0.003048859,0.0018301528,5374,0,-3.026309,-1.0703152,-9.477907,5374,0,0,1,1
82712021,-0.035440445,-0.0019904412,0.015551488,5175,0,3.621916,0.087992035,-10.765165,5175,0,0,1,1
82717399,-0.015971474,0.02431083,-0.015777247,5378,0,-2.3799777,1.2593974,-8.949269,5378,0,0,1,1
82722674,0.030478925,-0.029574912,0.029088026,5275,0,2.6452332,-2.058158,-10.640864,5275,0,0,1,1
82727919,-0.020765277,0.05374587,0.0045263413,5245,0,-4.973341,-0.29520535,-9.16784,5245,0,0,1,1
82733234,-0.039248362,-0.09070818,0.013636307,5315,0,3.537254,0.5480949,-9.842172,5315,0,0,1,1
82738495,-0.054359004,0.13017279,-0.01765209,5261,0,-2.1384053,0.39226174,-10.308412,5261,0,0,1,1
82743827,0.054165035,-0.13043092,-0.0155552365,5332,0,2.9937449,0.30071005,-9.188584,5332,0,0,1,1
82749075,0.014344787,0.10989901,-0.02020101,5248,0,-0.64206356,-1.4748483,-10.414215,5248,0,0,1,1
82754389,0.0077100825,-0.10938446,-0.008041843,5314,0,-1.4152079,0.13398993,-9.455546,5314,0,0,1,1
82759722,-0.048069715,0.054304544,-0.005035533,5333,0,1.7791446,2.0881221,-9.917965,5333,0,0,1,1
82765053,-0.0040310416,-0.06063359,-0.03155125,5331,0,-3.945016,-1.4298162,-9.495296,5331,0,0,1,1
82770321,0.03297112,0.015004219,-0.017638223,5268,0,4.8444347,0.47345638,-10.395862,5268,0,0,1,1
82775580,0.013345732,0.018370098,-0.013568611,5259,0,-4.062255,-1.7258958,-8.9587965,5259,0,0,1,1
82780909,-0.0046034595,-0.043743156,0.032197185,5329,0,4.8552523,-0.3588573,-10.626605,5329,0,0,1,1
82786240,-0.031292845,0.053938024,-0.009802297,5331,0,-4.4636683,-0.19759478,-10.083469,5331,0,0,1,1
82791482,0.0023391747,-0.08368086,0.05997115,5242,0,3.1795547,0.897657,-9.562772,5242,0,0,1,1
82796862,-0.012876352,0.099542424,-0.032590773,5380,0,-2.5223577,0.5837894,-9.175774,5380,0,0,1,1
82802104,0.03398498,-0.11430516,0.017333888,5242,0,1.7086036,-0.22861916,-9.786783,5242,0,0,1,1
82807358,0.0043907734,0.1253279,-0.0048453137,5254,0,-1.0248547,-0.2344128,-10.351639,5254,0,0,1,1
82812723,0.0049843746,-0.12660596,0.028634608,5365,0,-0.74602,-1.0436587,-9.56401,5365,0,0,1,1
82818060,-0.018030621,0.10298874,-0.018624462,5337,0,2.010498,-0.35645747,-10.282165,5337,0,0,1,1
82823300,0.013829407,-0.11542046,0.022638738,5240,0,-2.2193244,0.09373679,-9.633437,5240,0,0,1,1
82828571,-0.024056897,0.085324414,-0.0064886874,5271,0,3.3275235,1.3598621,-9.837359,5271,0,0,1,1
82833873,0.0075252913,-0.061933003,0.0017974597,5302,0,-4.3979645,-1.415893,-9.10291,5302,0,0,1,1
82839128,-0.0007310134,0.03254592,0.027661283,5255,0,4.459861,0.33321598,-10.558892,5255,0,0,1,1
82844485,0.002722621,0.008339378,-0.0068862587,5357,0,-4.5890193,-0.8589022,-9.415543,5357,0,0,1,1
82849785,-0.014380938,-0.04482887,0.04072082,5300,0,4.6914535,0.813424,-10.357485,5300,0,0,1,1
82855081,-0.016957052,0.056718886,-0.011398872,5296,0,-3.429317,-0.30683804,-9.454926,5296,0,0,1,1
82860367,0.024529504,-0.07827615,0.018461842,5286,0,2.563317,0.04191084,-9.928702,5286,0,0,1,1
82865653,-0.01737861,0.085244186,-0.012956889,5286,0,-2.1476266,-0.46699697,-9.541576,5286,0,0,1,1
82870986,-0.010279362,-0.09494432,0.024275173,5333,0,1.406073,0.05259387,-10.1180725,5333,0,0,1,1
82876235,-0.0066408957,0.10829059,-0.010413462,5249,0,-0.29419988,-0.90155506,-10.203074,5249,0,0,1,1
82881521,0.0093142735,-0.11914733,0.0009982985,5286,0,-0.70886564,-0.09365253,-9.601239,5286,0,0,1,1
82886832,-0.013209829,0.09830421,-0.024599075,5311,0,1.2450202,0.105846085,-9.627616,5311,0,0,1,1
82892097,-0.0072415094,-0.1003614,0.013666671,5265,0,-2.6165583,1.164935,-9.337572,5265,0,0,1,1
82897428,0.0057418672,0.08456647,-0.005609324,5331,0,4.572373,0.44934002,-10.285742,5331,0,0,1,1
82902760,0.013158131,-0.052337002,0.015724584,5332,0,-4.0133667,-1.1220515,-9.7469425,5332,0,0,1,1
82908057,0.0008793384,0.024000976,0.028602084,5297,0,4.255956,-1.4921781,-10.423307,5297,0,0,1,1
82913334,-0.008261456,-0.0089379605,0.017851723,5277,0,-5.4899096,-0.32485276,-9.041324,5277,0,0,1,1
82918666,-0.020983886,-0.023406796,0.042710327,5332,0,4.375871,1.3752955,-10.418142,5332,0,0,1,1
82923922,0.005554738,0.05757074,-0.026457109,5256,0,-3.3892686,0.13995732,-8.894994,5256,0,0,1,1
82929307,0.022351896,-0.07061621,-0.011420942,5385,0,2.8107352,0.20355456,-10.138613,5385,0,0,1,1
82934495,-0.008554458,0.065451846,-0.038289994,5188,0,-1.5028253,-1.4713012,-10.061286,5188,0,0,1,1
82939831,-0.009044969,-0.06531954,-0.017768065,5336,0,0.49741802,-0.23600504,-10.01018,5336,0,0,1,1
82945069,-0.011664123,0.06575273,-0.041417535,5238,0,0.9867544,0.7843367,-9.711131,5238,0,0,1,1
82950401,0.0012816766,-0.07394596,-0.014530959,5332,0,-1.3461577,0.38748264,-9.5191765,5332,0,0,1,1
82955698,-0.019207323,0.0717271,-0.00376557,5297,0,0.07991466,-0.040259097,-9.626726,5297,0,0,1,1
82961030,0.008555934,-0.07754035,0.021377832,5332,0,-2.6587598,-1.4881171,-9.440833,5332,0,0,1,1
82966319,0.003611269,0.07815483,0.08559583,5289,0,4.0937376,-0.36729738,-10.825579,5289,0,0,1,1
82971562,-0.042590853,-0.03508141,-0.024746032,5243,0,-1.832624,-0.39167172,-9.842744,5243,0,0,1,1
82976885,-0.01051705,-0.005557701,0.014073173,5323,0,4.1937165,1.8786579,-9.9302635,5323,0,0,1,1
82982234,-0.026274838,0.017480206,-0.0014358995,5349,0,-5.0310965,-1.2436384,-9.64881,5349,0,0,1,1
82987488,0.02767549,-0.07111273,-0.0179848,5254,0,1.7551851,-0.10615537,-9.474587,5254,0,0,1,1
82992806,0.0003375547,0.10071881,-0.05855688,5318,0,-3.3810523,-0.22552773,-9.306903,5318,0,0,1,1
82998131,-0.014948417,-0.12580566,0.011059377,5325,0,3.4427838,1.1775978,-10.266287,5325,0,0,1,1
83003372,0.02119416,0.14627093,-0.05275674,5241,0,-0.044955667,-0.4473096,-9.869303,5241,0,0,1,1
83008724,-0.014592594,-0.172774,0.02019992,5352,0,-0.25709152,-0.98704517,-10.15012,5352,0,0,1,1
83013965,0.0023069498,0.14046755,-0.029912924,5241,0,0.7966864,-0.07703907,-9.702526,5241,0,0,1,1
83019307,-0.0061261915,-0.108470984,0.02233666,5342,0,-2.038695,-0.38003442,-9.605579,5342,0,0,1,1
83024547,0.015334843,0.102666415,0.035062715,5240,0,3.4939592,1.6130978,-10.060628,5240,0,0,1,1
83029918,0.028228119,-0.06388598,0.045928046,5371,0,-2.9573617,-1.9939663,-9.703669,5371,0,0,1,1
83035159,-0.0139556285,0.048135936,0.058566786,5241,0,3.406681,-0.5663679,-10.35836,5241,0,0,1,1
83040553,-0.0093853045,-0.008535735,0.02541179,5394,0,-4.605884,-0.52604073,-9.307494,5394,0,0,1,1
83045745,0.0058370493,-0.032061476,0.022011962,5192,0,3.6206832,2.0972314,-9.7233,5192,0,0,1,1
83051028,-0.03330726,0.07996693,-0.08069467,5283,0,-2.6940646,1.1606514,-9.67686,5283,0,0,1,1
83056365,0.038241733,-0.106948175,0.0007360703,5337,0,3.6447802,0.82628435,-9.465983,5337,0,0,1,1
83061600,-0.024224112,0.069417216,-0.06536605,5235,0,-3.723248,-3.88711,-10.595252,5235,0,0,1,1
83066932,-0.042729605,-0.12102221,-0.0112986695,5332,0,0.7536804,-1.0434153,-9.950855,5332,0,0,1,1
83072203,-0.026456352,0.10621507,-0.018463818,5271,0,-0.88919705,0.44861418,-9.650543,5271,0,0,1,1
83077534,-0.012980663,-0.083328515,0.027289648,5331,0,2.0151613,1.8113875,-9.667241,5331,0,0,1,1
83082866,0.044034913,0.088205054,0.009988503,5332,0,1.6054959,-0.40510586,-9.87061,5332,0,0,1,1
83088151,0.042413488,-0.08298553,0.08410824,5285,0,-2.2364833,-2.4080622,-10.431988,5285,0,0,1,1
83093428,-0.010900226,0.085031725,0.074931644,5277,0,0.28618017,1.7102015,-9.138116,5277,0,0,1,1
83098760,-0.034257744,-0.05573918,0.015585555,5332,0,-2.1420555,0.445149,-9.472746,5332,0,0,1,1
83104003,0.0068305256,0.031535022,0.036193036,5243,0,5.1850963,2.5810556,-10.481155,5243,0,0,1,1
83109330,0.0544997,0.003359705,-0.05337628,5327,0,-2.5884452,-2.8944585,-8.835521,5327,0,0,1,1
83114631,-0.0053287647,-0.01789209,-0.01681031,5301,0,0.9901434,-0.9602285,-11.226924,5301,0,0,1,1
83119919,-0.053882267,0.030206135,-0.06285981,5288,0,-5.4514446,-1.3971511,-8.706604,5288,0,0,1,1
83125188,-0.006023556,-0.09197829,-0.01974543,5269,0,4.3977013,1.980623,-10.421543,5269,0,0,1,1
83130629,0.004589196,0.13449723,-0.027553858,5441,0,-0.57899594,0.70461094,-9.2827,5441,0,0,1,1
83135787,-0.0071228403,-0.15254521,0.02504205,5158,0,1.8742152,-1.3195428,-9.844087,5158,0,0,1,1
83141119,0.012141389,0.14322725,0.022055978,5332,0,-1.7560463,-1.0626376,-10.478779,5332,0,0,1,1
83146379,0.00635151,-0.12864634,0.06027503,5260,0,-1.6222264,-0.62370044,-9.259204,5260,0,0,1,1
83151828,-0.004286703,0.119832106,0.03231363,5449,0,3.064259,1.9348836,-10.429278,5449,0,0,1,1
83157005,0.018309115,-0.0958685,0.05920204,5177,0,-0.97259754,-0.8105867,-9.462396,5177,0,0,1,1
83162320,-0.01447854,0.08975724,0.03417111,5315,0,3.1838143,1.6068348,-9.976399,5315,0,0,1,1
83167556,0.036244445,-0.060533512,0.033283565,5236,0,-4.655169,-1.7679687,-9.108074,5236,0,0,1,1
83172890,-0.00966831,0.049729727,0.027874013,5334,0,1.9300259,0.58461684,-10.475039,5334,0,0,1,1
83178158,0.0059487103,-0.013740822,-0.05521874,5268,0,-2.550073,-0.4566323,-9.087315,5268,0,0,1,1
83183489,-0.019467128,-0.0074722576,-0.022852207,5331,0,3.6071098,0.7424259,-10.701638,5331,0,0,1,1
83188820,-0.006903874,0.013554334,-0.07495543,5331,0,-2.9147284,-1.1275946,-9.506625,5331,0,0,1,1
83194064,-0.01340728,-0.038087558,-0.036480922,5244,0,2.589386,-0.5921557,-10.03457,5244,0,0,1,1
83199337,-0.020610482,0.045241114,0.0069478652,5273,0,-3.5856469,-0.29204732,-9.088913,5273,0,0,1,1
83204657,-0.0054190643,-0.07554658,0.016647357,5320,0,3.1137514,0.19342883,-10.4713335,5320,0,0,1,1
83209944,-0.0070884903,0.08383322,0.016008597,5287,0,-1.8053197,0.30395415,-9.891781,5287,0,0,1,1
83215277,0.014512291,-0.08254413,0.07166846,5333,0,2.5377524,0.09649903,-10.039034,5333,0,0,1,1
83220580,-0.0059569958,0.100914806,-0.031328734,5303,0,-1.7265425,-0.13509873,-9.098602,5303,0,0,1,1
83225879,0.025289224,-0.09921398,0.04365168,5299,0,0.3255498,-0.49893868,-10.4141245,5299,0,0,1,1
83231173,0.018704973,0.111888334,-0.011915445,5294,0,0.56553346,0.3156871,-9.432463,5294,0,0,1,1
83236479,-0.008202792,-0.085225455,-0.019636218,5306,0,-2.15854,0.88459,-9.295728,5306,0,0,1,1
83241809,-0.017651403,0.053877287,-0.0052083703,5330,0,2.8232186,-0.92602724,-10.859335,5330,0,0,1,1
83247049,0.027023226,-0.05811695,-0.02242103,5240,0,-4.783449,-1.4785228,-8.922366,5240,0,0,1,1
83252297,-0.014516577,0.035097,-0.02078319,5248,0,5.243167,0.76942426,-10.6091,5248,0,0,1,1
83257629,-0.029435975,0.0006205313,-0.014603637,5332,0,-3.597452,0.31542414,-8.986411,5332,0,0,1,1
83263059,-0.010514125,-0.023456655,-0.025387716,5430,0,5.126543,-0.042275533,-10.839644,5430,0,0,1,1
83268238,0.02265901,0.04322459,-0.027430844,5179,0,-5.1726055,-0.20332485,-9.106066,5179,0,0,1,1
83273544,0.01112126,-0.05174408,0.034616064,5306,0,2.2088146,-0.685756,-10.241024,5306,0,0,1,1
83278816,-0.0090353545,0.06792651,-0.007583468,5272,0,-3.0660267,-0.5425132,-9.17313,5272,0,0,1,1
83284118,-0.0050875377,-0.05913179,0.03424665,5302,0,3.5658593,0.39058274,-10.320848,5302,0,0,1,1
83289399,-0.008594568,0.07131722,-0.030171957,5281,0,-0.98738307,0.6665298,-9.741304,5281,0,0,1,1
83294750,0.036454134,-0.07485578,0.0005788736,5351,0,0.1378679,0.20164593,-9.520599,5351,0,0,1,1
83299994,-0.0026781915,0.07564153,0.008291924,5244,0,-0.51996696,-1.1454858,-10.280924,5244,0,0,1,1
83305327,-0.01939321,-0.07988747,-0.0050662966,5333,0,-0.818361,0.037977856,-9.483163,5333,0,0,1,1
83310668,-0.011167907,0.08687804,-0.048376206,5341,0,2.5685542,-0.3062356,-10.083503,5341,0,0,1,1
83315921,0.02912861,-0.07384199,-0.016924987,5253,0,-2.9182181,0.8544502,-9.404619,5253,0,0,1,1
83321176,-0.0072280816,0.060915064,-0.022781726,5255,0,1.7227443,-0.675216,-9.701864,5255,0,0,1,1
83326509,-0.012677186,-0.042803574,-0.03302327,5333,0,-3.3674934,-0.6896615,-10.032195,5333,0,0,1,1
83331829,-0.024716787,0.028420009,0.008906509,5320,0,4.812848,0.12609915,-10.40594,5320,0,0,1,1
83337085,0.02165512,0.013490216,-0.010034299,5256,0,-2.1849155,-0.11984623,-9.497074,5256,0,0,1,1
83342416,-0.009464396,-0.022667922,0.01115621,5331,0,2.8021212,1.1746167,-10.045074,5331,0,0,1,1
83347669,-0.008737785,0.03354895,0.007163104,5253,0,-4.3400297,-1.800654,-9.043132,5253,0,0,1,1
83353051,-0.02343406,-0.049555637,-0.015689403,5382,0,2.076871,0.89937675,-10.268143,5382,0,0,1,1
83358319,0.036753826,0.07222451,0.022289569,5268,0,-1.2314235,-0.93584377,-9.541462,5268,0,0,1,1
83363561,-0.011667776,-0.083988205,0.007351657,5242,0,2.0458488,0.8671125,-10.234951,5242,0,0,1,1
83368895,-0.019776998,0.0649406,-0.010896571,5334,0,-0.7902267,-0.28050318,-9.610808,5334,0,0,1,1
83374144,0.012254896,-0.065363325,0.023559598,5249,0,-1.2016412,-1.0956917,-9.832148,5249,0,0,1,1
83379470,-0.024555357,0.047695566,-0.021501787,5326,0,1.9012926,1.3304002,-9.731012,5326,0,0,1,1
83384801,0.04492833,-0.044760603,0.025828788,5331,0,-1.1650128,-0.6091255,-9.687118,5331,0,0,1,1
83390043,-0.09022126,0.033151884,0.014809631,5242,0,2.7120051,-0.88836193,-10.9412985,5242,0,0,1,1
83395378,0.068925515,-0.026815325,-0.045021817,5335,0,-4.3195066,-0.8756004,-8.509278,5335,0,0,1,1
83400658,-0.022573898,0.016759204,0.017198099,5280,0,2.7553315,2.1089275,-10.5274725,5280,0,0,1,1
83405986,-0.011812018,0.0064741042,-0.037045065,5328,0,-3.3903372,0.5082583,-8.724469,5328,0,0,1,1
83411260,0.015866006,-0.025758272,0.014841102,5274,0,4.5712895,-1.6788273,-10.842575,5274,0,0,1,1
83416563,-0.016748222,0.053955033,-0.002654423,5303,0,-2.7116745,-1.1384742,-9.928096,5303,0,0,1,1
83421844,0.029413149,-0.08111884,0.008022467,5281,0,1.9582647,1.4587663,-9.335142,5281,0,0,1,1
83427169,-0.06147045,0.08580815,0.043649513,5325,0,-1.6238275,-0.05512924,-10.283496,5325,0,0,1,1
83432412,-0.009902161,-0.09003228,0.032872763,5243,0,0.89377916,-0.45059174,-9.506148,5243,0,0,1,1
83437745,0.029388906,0.10524481,-0.01922186,5333,0,1.0660033,-1.0543346,-10.109314,5333,0,0,1,1
83443084,-0.014159752,-0.07782012,0.024724578,5339,0,-2.1949563,0.42949626,-9.498319,5339,0,0,1,1
83448325,-0.03133678,0.060886458,-0.043778785,5241,0,1.6659384,1.9262666,-9.567562,5241,0,0,1,1
83453593,-0.00027585987,-0.07331966,-0.013525355,5268,0,-3.3903353,-2.00246,-10.051532,5268,0,0,1,1
83458920,-0.0069527994,0.043277815,-0.026303273,5327,0,4.679378,1.1451621,-10.414442,5327,0,0,1,1
83464299,0.018163193,-0.032762133,-0.06432863,5379,0,-3.1837852,-1.2771506,-9.043632,5379,0,0,1,1
83469538,-0.017509008,0.0011424525,0.012330619,5239,0,4.056319,0.39811248,-10.537683,5239,0,0,1,1
83474780,-0.008096299,0.00944693,-0.044634692,5242,0,-4.8215156,-0.48073822,-8.992451,5242,0,0,1,1
83480113,0.022302408,-0.04777909,0.0152146425,5333,0,3.0591755,-0.32960245,-10.667389,5333,0,0,1,1
83485558,-0.004722618,0.07433615,-0.022400899,5445,0,-2.3108027,0.5624173,-9.259531,5445,0,0,1,1
83490685,0.039575804,-0.08005759,0.03528657,5127,0,1.992311,-0.53408974,-9.78611,5127,0,0,1,1
83496017,-0.047377843,0.08184562,0.01451006,5332,0,-1.0963746,0.07003337,-9.956633,5332,0,0,1,1
83501349,-0.008270392,-0.08729514,0.027541762,5332,0,0.9109542,-0.43394816,-10.037581,5332,0,0,1,1
83506589,-0.02897467,0.10016732,-0.022873413,5240,0,1.1710058,0.67493904,-10.033685,5240,0,0,1,1
83511922,0.034644045,-0.09709097,0.0021255666,5333,0,-1.4167156,-0.412074,-9.331909,5333,0,0,1,1
83517163,-0.016189864,0.06393955,-0.017765759,5241,0,0.20706978,-0.13716662,-10.143362,5241,0,0,1,1
83522493,-0.021727283,-0.06607301,0.01748278,5330,0,-3.7345827,-0.80491835,-9.074851,5330,0,0,1,1
83527825,-0.030920643,0.045181613,-0.019472769,5332,0,4.3449607,0.030135944,-10.63982,5332,0,0,1,1
83533084,0.0069107977,-0.027686175,-0.011899329,5259,0,-1.9296237,0.2128606,-9.525729,5259,0,0,1,1
83538388,0.025517538,0.0033783484,0.007130573,5304,0,4.2945824,0.28816092,-10.319381,5304,0,0,1,1
83543720,-0.032206155,0.004756866,0.011371057,5332,0,-4.674719,0.5961294,-9.099713,5332,0,0,1,1
83548960,-0.00496615,-0.062595546,0.03214129,5240,0,2.6361315,-1.4542364,-10.23792,5240,0,0,1,1
83554372,0.011980692,0.07202139,0.012267133,5412,0,-2.374246,0.21316831,-9.679944,5412,0,0,1,1
83559539,0.022611402,-0.087494254,0.050822183,5167,0,1.1168952,-0.7173747,-9.567281,5167,0,0,1,1
83564890,-0.024706287,0.084450595,-0.012664714,5351,0,0.010293958,0.6348666,-10.233671,5351,0,0,1,1
83570129,0.011782727,-0.08750756,0.011972244,5239,0,-0.09805073,0.2697821,-9.579003,5239,0,0,1,1
83575591,-0.043281987,0.0791247,-0.0629395,5462,0,2.2839303,-0.2589581,-10.589495,5462,0,0,1,1
83580758,0.020434929,-0.1101029,-0.039634865,5167,0,-2.0467064,0.5604626,-9.230332,5167,0,0,1,1
83586088,-0.04095893,0.0761301,-0.003564685,5330,0,1.4324352,-0.3708864,-10.403253,5330,0,0,1,1
83591328,-0.026101362,-0.1205003,-0.0069791353,5240,0,-5.563065,-0.7432991,-7.9559493,5240,0,0,1,1
83596660,0.021044254,0.06450528,0.022936303,5332,0,4.793908,-1.441714,-11.25416,5332,0,0,1,1
83601939,-0.027657876,-0.032933738,0.08527388,5279,0,-3.5797427,-0.6076626,-9.798441,5279,0,0,1,1
83607261,0.027111616,-0.012150667,0.06896377,5322,0,5.902876,0.7032405,-9.809284,5322,0,0,1,1
83612513,-0.0076001096,0.04879177,0.063416556,5252,0,-2.942698,0.63565,-10.543033,5252,0,0,1,1
83617845,0.04541574,-0.07291826,0.111628465,5332,0,3.4378488,1.2964365,-9.420936,5332,0,0,1,1
83623133,0.0106631275,0.08942149,0.032595396,5288,0,-3.0756261,-0.8392043,-9.251779,5288,0,0,1,1
83628465,0.020904398,-0.07496446,0.045166858,5332,0,0.09047536,-0.1869957,-9.728815,5332,0,0,1,1
83633707,0.005714753,0.07747291,-0.0065603126,5242,0,-1.1111419,-0.8858777,-10.056499,5242,0,0,1,1
83639040,-0.023524739,-0.050237358,-0.031460673,5333,0,-0.46110636,0.9086831,-9.489589,5333,0,0,1,1
83644337,-0.018304339,0.040152796,-0.066190645,5297,0,2.59548,0.9780639,-10.335424,5297,0,0,1,1
83649662,-0.028726095,-0.06641,-0.029962625,5325,0,-2.2742264,-0.5295281,-9.549521,5325,0,0,1,1
83654905,0.0023031835,0.03496964,-0.036356542,5243,0,2.399206,-1.7200243,-9.8901825,5243,0,0,1,1
83660179,-0.016883338,-0.048365004,0.05519169,5274,0,-5.183733,-0.91071934,-9.501351,5274,0,0,1,1
83665562,-0.01343195,0.020125246,0.10234982,5383,0,3.9612677,-0.8358429,-10.118153,5383,0,0,1,1
83670808,-0.038136102,0.0228222,0.07957553,5246,0,-2.391089,2.0166595,-10.471476,5246,0,0,1,1
83676134,0.026222367,-0.0045523793,0.090498,5326,0,5.3375854,-0.33083016,-9.5529375,5326,0,0,1,1
83681378,0.014582031,0.027627122,0.050390862,5244,0,-1.9773213,0.93155456,-9.859437,5244,0,0,1,1
83686808,0.03159998,-0.024910526,0.019780237,5430,0,1.2624257,-1.5870957,-9.757349,5430,0,0,1,1
83691986,-0.0019246106,0.020571867,-0.018351704,5178,0,-3.8356576,-0.58479285,-9.3314905,5178,0,0,1,1
83697319,-0.0042453497,-0.036265533,-0.018153066,5333,0,0.15964665,1.5901062,-9.912218,5333,0,0,1,1
83702559,0.006222537,0.06194394,-0.0912499,5240,0,-0.35859895,0.5672815,-9.525002,5240,0,0,1,1
