timestamp,timestamp_sample,q[0],q[1],q[2],q[3],delta_q_reset[0],delta_q_reset[1],delta_q_reset[2],delta_q_reset[3],quat_reset_counter
80890816,80890500,0.9948765,-0.0021305177,-0.0060175713,-0.10089648,0.99987495,-5.1762965e-11,-1.7821955e-10,0.015814018,2
81389625,81389172,0.9948745,-0.0028780177,-0.006308762,-0.10087931,0.99987495,-5.1762965e-11,-1.7821955e-10,0.015814018,2
81888171,81887827,0.9949319,-0.003099,-0.0066133314,-0.100286216,0.99987495,-5.1762965e-11,-1.7821955e-10,0.015814018,2
82392076,82391669,0.9949002,-0.002678778,-0.0061016274,-0.10064358,0.99987495,-5.1762965e-11,-1.7821955e-10,0.015814018,2
82890720,82890392,0.9949114,-0.0028362405,-0.006461744,-0.100507386,0.99987495,-5.1762965e-11,-1.7821955e-10,0.015814018,2
83389643,83389006,0.9949245,-0.0027502654,-0.0065031643,-0.10037655,0.99987495,-5.1762965e-11,-1.7821955e-10,0.015814018,2
83887951,83887637,0.9949559,-0.0029345541,-0.006849386,-0.10003708,0.99987495,-5.1762965e-11,-1.7821955e-10,0.015814018,2
84392222,84391532,0.9949145,-0.002889242,-0.006721551,-0.1004583,0.99987495,-5.1762965e-11,-1.7821955e-10,0.015814018,2
84890522,84890181,0.9949832,-0.0030042713,-0.0070098178,-0.09975137,0.99987495,-5.1762965e-11,-1.7821955e-10,0.015814018,2
85389146,85388826,0.9949995,-0.0003910885,-0.024418605,-0.09684833,0.99987495,-5.1762965e-11,-1.7821955e-10,0.015814018,2
85887799,85887481,0.9952048,-0.030143019,-0.0021540348,-0.09302784,0.99987495,-5.1762965e-11,-1.7821955e-10,0.015814018,2
86391735,86391370,0.99652255,0.030141307,0.019512698,-0.07519126,0.99987495,-5.1762965e-11,-1.7821955e-10,0.015814018,2
86885064,86884749,0.99806935,-0.0010070914,-0.027633026,-0.055615824,0.99987495,-5.1762965e-11,-1.7821955e-10,0.015814018,2
87389039,87388719,0.9958538,-0.038072966,-0.03402399,-0.07528685,0.99987495,-5.1762965e-11,-1.7821955e-10,0.015814018,2
87888599,87887382,0.9927355,-0.028064951,-0.05301321,-0.10429908,0.99987495,-5.1762965e-11,-1.7821955e-10,0.015814018,2
88391519,88391203,0.992134,-0.02886358,-0.06537204,-0.10277984,0.99987495,-5.1762965e-11,-1.7821955e-10,0.015814018,2
88890279,88889911,0.98963845,0.030913359,-0.016481923,-0.13924237,0.99987495,-5.1762965e-11,-1.7821955e-10,0.015814018,2
89388870,89388572,0.9839527,0.06855389,0.005586773,-0.16464005,0.99987495,-5.1762965e-11,-1.7821955e-10,0.015814018,2
89887560,89887219,0.9806933,-0.022585602,0.024627864,-0.19267601,0.99987495,-5.1762965e-11,-1.7821955e-10,0.015814018,2
90391446,90391119,0.9771182,0.033625003,-0.06261308,-0.20047216,0.99987495,-5.1762965e-11,-1.7821955e-10,0.015814018,2
90890039,90889723,0.97340906,-0.06845892,-0.0046852115,-0.21855512,0.99987495,-5.1762965e-11,-1.7821955e-10,0.015814018,2
91388682,91388360,0.9741574,0.030425144,-0.027167438,-0.22215688,0.99987495,-5.1762965e-11,-1.7821955e-10,0.015814018,2
91887376,91887037,0.97221535,0.013358122,-0.07113666,-0.22261745,0.99987495,-5.1762965e-11,-1.7821955e-10,0.015814018,2
92391287,92390933,0.97323096,-0.0058686957,-0.018264147,-0.2290273,0.99987495,-5.1762965e-11,-1.7821955e-10,0.015814018,2
92889880,92889560,0.96993786,-0.015857134,-0.011937628,-0.2425419,0.99987495,-5.1762965e-11,-1.7821955e-10,0.015814018,2
93388550,93388211,0.9690327,0.050006147,-0.049484134,-0.23669927,0.99987495,-5.1762965e-11,-1.7821955e-10,0.015814018,2
93887219,93886903,0.96893746,0.018815812,-0.030725894,-0.24466763,0.99987495,-5.1762965e-11,-1.7821955e-10,0.015814018,2
94391106,94390782,0.97052854,-0.0129083805,-0.0465318,-0.23609866,0.99987495,-5.1762965e-11,-1.7821955e-10,0.015814018,2
94889979,94889469,0.9719554,0.0546214,-0.01249611,-0.2283926,0.99987495,-5.1762965e-11,-1.7821955e-10,0.015814018,2
95388986,95388124,0.96833247,0.044255156,-0.019744657,-0.24491632,0.99987495,-5.1762965e-11,-1.7821955e-10,0.015814018,2
95887106,95886779,0.9674628,0.022146411,0.043369018,-0.24828333,0.99987495,-5.1762965e-11,-1.7821955e-10,0.015814018,2
96391110,96390665,0.96801627,0.027149517,-0.040815115,-0.24605212,0.99987495,-5.1762965e-11,-1.7821955e-10,0.015814018,2
96890164,96889256,0.9667363,-0.03488756,-0.044677045,-0.24941505,0.99987495,-5.1762965e-11,-1.7821955e-10,0.015814018,2
97388281,97387935,0.96113634,0.016705472,-0.035964757,-0.27321115,0.99987495,-5.1762965e-11,-1.7821955e-10,0.015814018,2
97886964,97886571,0.95952517,-0.023401449,-0.061781738,-0.27376455,0.99987495,-5.1762965e-11,-1.7821955e-10,0.015814018,2
98390836,98390503,0.9539518,0.09334115,0.038415924,-0.28246725,0.99987495,-5.1762965e-11,-1.7821955e-10,0.015814018,2
98889965,98889107,0.96021694,-0.0064212405,-0.0139231095,-0.27883393,0.99987495,-5.1762965e-11,-1.7821955e-10,0.015814018,2
99388170,99387820,0.9490406,-0.032391213,-0.058043346,-0.3080645,0.99987495,-5.1762965e-11,-1.7821955e-10,0.015814018,2
99891980,99891660,0.9464977,0.057535674,0.003213583,-0.3175241,0.99987495,-5.1762965e-11,-1.7821955e-10,0.015814018,2
100390758,100390387,0.9492569,0.007752662,0.013024899,-0.31413645,0.99987495,-5.1762965e-11,-1.7821955e-10,0.015814018,2
100889308,100888991,0.954232,0.030056499,0.011421657,-0.2973342,0.99987495,-5.1762965e-11,-1.7821955e-10,0.015814018,2
101387989,101387649,0.9563111,0.019052798,-0.04621051,-0.2880463,0.99987495,-5.1762965e-11,-1.7821955e-10,0.015814018,2
101892002,101891583,0.9594204,-0.044240735,-0.0018359602,-0.2784818,0.99987495,-5.1762965e-11,-1.7821955e-10,0.015814018,2
102390589,102390228,0.9523866,0.04787895,-0.068191156,-0.29328716,0.99987495,-5.1762965e-11,-1.7821955e-10,0.015814018,2
102889929,102888939,0.95058024,0.0010907722,-0.03113117,-0.30891255,0.99987495,-5.1762965e-11,-1.7821955e-10,0.015814018,2
103387888,103387559,0.9529371,0.027799672,-0.0074479436,-0.30179906,0.99987495,-5.1762965e-11,-1.7821955e-10,0.015814018,2
103891778,103891408,0.9428973,0.017843848,-0.06207121,-0.32676214,0.99987495,-5.1762965e-11,-1.7821955e-10,0.015814018,2
104390395,104390080,0.9470022,-0.0152672315,-0.019543214,-0.32026866,0.99987495,-5.1762965e-11,-1.7821955e-10,0.015814018,2
104889069,104888763,0.9464935,0.02872503,-0.021758972,-0.32070464,0.99987495,-5.1762965e-11,-1.7821955e-10,0.015814018,2
105387688,105387374,0.9401398,0.068028115,0.029792564,-0.3325986,0.99987495,-5.1762965e-11,-1.7821955e-10,0.015814018,2
105891613,105891298,0.94114465,-0.0063232044,-0.06944446,-0.3307328,0.99987495,-5.1762965e-11,-1.7821955e-10,0.015814018,2
106390259,106389939,0.93180513,-0.049414013,-0.018160066,-0.35912082,0.99987495,-5.1762965e-11,-1.7821955e-10,0.015814018,2
106888903,106888579,0.93394685,-0.0081259385,0.04567245,-0.3543888,0.99987495,-5.1762965e-11,-1.7821955e-10,0.015814018,2
107387694,107387261,0.6946896,-0.54172945,0.44054204,-0.17279571,0.99987495,-5.1762965e-11,-1.7821955e-10,0.015814018,2
