timestamp,accel_device_id_primary,accel_device_ids[0],accel_device_ids[1],accel_device_ids[2],accel_device_ids[3],accel_inconsistency_m_s_s[0],accel_inconsistency_m_s_s[1],accel_inconsistency_m_s_s[2],accel_inconsistency_m_s_s[3],gyro_device_id_primary,gyro_device_ids[0],gyro_device_ids[1],gyro_device_ids[2],gyro_device_ids[3],gyro_inconsistency_rad_s[0],gyro_inconsistency_rad_s[1],gyro_inconsistency_rad_s[2],gyro_inconsistency_rad_s[3],accel_healthy[0],accel_healthy[1],accel_healthy[2],accel_healthy[3],accel_priority[0],accel_priority[1],accel_priority[2],accel_priority[3],gyro_healthy[0],gyro_healthy[1],gyro_healthy[2],gyro_healthy[3],gyro_priority[0],gyro_priority[1],gyro_priority[2],gyro_priority[3]
80397667,2621474,2490402,2621474,2424842,0,0.2431073,0.19894657,0.099741384,0.0,2621474,2490402,2621474,2424842,0,0.0022950908,0.0054050963,0.0038155243,0.0,1,1,1,0,50,50,50,0,1,1,1,0,50,50,50,0
80403020,2621474,2490402,2621474,2424842,0,0.38111937,0.33394948,0.11287599,0.0,2621474,2490402,2621474,2424842,0,0.003652889,0.005198755,0.0028537295,0.0,1,1,1,0,50,50,50,0,1,1,1,0,50,50,50,0
80598991,2621474,2490402,2621474,2424842,0,0.22570117,0.0273292,0.2521801,0.0,2621474,2490402,2621474,2424842,0,0.0011763162,0.004487057,0.0040808525,0.0,1,1,1,0,50,50,50,0,1,1,1,0,50,50,50,0
80800281,2621474,2490402,2621474,2424842,0,0.2782079,0.15315248,0.15251105,0.0,2621474,2490402,2621474,2424842,0,0.007488878,0.0021004719,0.009115931,0.0,1,1,1,0,50,50,50,0,1,1,1,0,50,50,50,0
81001586,2621474,2490402,2621474,2424842,0,0.36456013,0.12345465,0.29515746,0.0,2621474,2490402,2621474,2424842,0,0.004974479,0.004705922,0.0042441506,0.0,1,1,1,0,50,50,50,0,1,1,1,0,50,50,50,0
81197607,2621474,2490402,2621474,2424842,0,0.295143,0.12539095,0.23549049,0.0,2621474,2490402,2621474,2424842,0,0.010202296,0.003377644,0.008510521,0.0,1,1,1,0,50,50,50,0,1,1,1,0,50,50,50,0
81398872,2621474,2490402,2621474,2424842,0,0.14850768,0.08967095,0.15129231,0.0,2621474,2490402,2621474,2424842,0,0.010542955,0.002124588,0.009538503,0.0,1,1,1,0,50,50,50,0,1,1,1,0,50,50,50,0
81600130,2621474,2490402,2621474,2424842,0,0.2881963,0.05314598,0.2999424,0.0,2621474,2490402,2621474,2424842,0,0.0029411176,0.0021736894,0.0051034405,0.0,1,1,1,0,50,50,50,0,1,1,1,0,50,50,50,0
81801474,2621474,2490402,2621474,2424842,0,0.15140146,0.06353811,0.17033525,0.0,2621474,2490402,2621474,2424842,0,0.005068906,0.006604206,0.0037496763,0.0,1,1,1,0,50,50,50,0,1,1,1,0,50,50,50,0
81997436,2621474,2490402,2621474,2424842,0,0.37768197,0.13131796,0.26267132,0.0,2621474,2490402,2621474,2424842,0,0.006732212,0.0012073407,0.007525532,0.0,1,1,1,0,50,50,50,0,1,1,1,0,50,50,50,0
82198715,2621474,2490402,2621474,2424842,0,0.40743026,0.1309136,0.31274793,0.0,2621474,2490402,2621474,2424842,0,0.015563176,0.0042752256,0.0115697915,0.0,1,1,1,0,50,50,50,0,1,1,1,0,50,50,50,0
82400026,2621474,2490402,2621474,2424842,0,0.4966042,0.18732259,0.34596103,0.0,2621474,2490402,2621474,2424842,0,0.006191493,0.003113116,0.007934125,0.0,1,1,1,0,50,50,50,0,1,1,1,0,50,50,50,0
82601277,2621474,2490402,2621474,2424842,0,0.36259282,0.32062832,0.12472386,0.0,2621474,2490402,2621474,2424842,0,0.010585025,0.0036408007,0.0075573013,0.0,1,1,1,0,50,50,50,0,1,1,1,0,50,50,50,0
82797375,2621474,2490402,2621474,2424842,0,0.07417759,0.1276413,0.11165656,0.0,2621474,2490402,2621474,2424842,0,0.0056661204,0.0018775053,0.004296112,0.0,1,1,1,0,50,50,50,0,1,1,1,0,50,50,50,0
82998611,2621474,2490402,2621474,2424842,0,0.3801958,0.27729133,0.14956868,0.0,2621474,2490402,2621474,2424842,0,0.0046802075,0.007399007,0.004757523,0.0,1,1,1,0,50,50,50,0,1,1,1,0,50,50,50,0
83199815,2621474,2490402,2621474,2424842,0,0.19530363,0.061787724,0.17897795,0.0,2621474,2490402,2621474,2424842,0,0.004399899,0.0023570934,0.005464423,0.0,1,1,1,0,50,50,50,0,1,1,1,0,50,50,50,0
83401163,2621474,2490402,2621474,2424842,0,0.24127536,0.10127841,0.2612889,0.0,2621474,2490402,2621474,2424842,0,0.0061022914,0.006455491,0.001647381,0.0,1,1,1,0,50,50,50,0,1,1,1,0,50,50,50,0
83602424,2621474,2490402,2621474,2424842,0,0.47640976,0.21255288,0.29646245,0.0,2621474,2490402,2621474,2424842,0,0.013964184,0.0020194927,0.012011535,0.0,1,1,1,0,50,50,50,0,1,1,1,0,50,50,50,0
83798566,2621474,2490402,2621474,2424842,0,0.22401816,0.09704402,0.18681157,0.0,2621474,2490402,2621474,2424842,0,0.007793561,0.006414398,0.007810543,0.0,1,1,1,0,50,50,50,0,1,1,1,0,50,50,50,0
83999816,2621474,2490402,2621474,2424842,0,0.14038669,0.049703967,0.16627118,0.0,2621474,2490402,2621474,2424842,0,0.0042169103,0.0032232779,0.00717577,0.0,1,1,1,0,50,50,50,0,1,1,1,0,50,50,50,0
84201023,2621474,2490402,2621474,2424842,0,0.34156954,0.19165489,0.163267,0.0,2621474,2490402,2621474,2424842,0,0.005328248,0.0050898376,0.007853322,0.0,1,1,1,0,50,50,50,0,1,1,1,0,50,50,50,0
84402334,2621474,2490402,2621474,2424842,0,0.6382291,0.27496403,0.37391034,0.0,2621474,2490402,2621474,2424842,0,0.009540011,0.012281626,0.003311661,0.0,1,1,1,0,50,50,50,0,1,1,1,0,50,50,50,0
84598282,2621474,2490402,2621474,2424842,0,0.29240212,0.059871383,0.26364842,0.0,2621474,2490402,2621474,2424842,0,0.016386952,0.0031640292,0.013857874,0.0,1,1,1,0,50,50,50,0,1,1,1,0,50,50,50,0
84799610,2621474,2490402,2621474,2424842,0,0.35515058,0.28367037,0.21876992,0.0,2621474,2490402,2621474,2424842,0,0.007675633,0.0027617628,0.005708433,0.0,1,1,1,0,50,50,50,0,1,1,1,0,50,50,50,0
85000904,2621474,2490402,2621474,2424842,0,0.054707143,0.15255076,0.16080453,0.0,2621474,2490402,2621474,2424842,0,0.008368261,0.0011924173,0.008385054,0.0,1,1,1,0,50,50,50,0,1,1,1,0,50,50,50,0
85202122,2621474,2490402,2621474,2424842,0,0.09253969,0.07234018,0.07973159,0.0,2621474,2490402,2621474,2424842,0,0.0069402643,0.0028796904,0.008747172,0.0,1,1,1,0,50,50,50,0,1,1,1,0,50,50,50,0
85398215,2621474,2490402,2621474,2424842,0,0.3592404,0.18350309,0.23344764,0.0,2621474,2490402,2621474,2424842,0,0.0075968625,0.0092330435,0.004340112,0.0,1,1,1,0,50,50,50,0,1,1,1,0,50,50,50,0
85599632,2621474,2490402,2621474,2424842,0,0.664163,0.27922368,0.562554,0.0,2621474,2490402,2621474,2424842,0,0.018191593,0.019868908,0.004303565,0.0,1,1,1,0,50,50,50,0,1,1,1,0,50,50,50,0
85800733,2621474,2490402,2621474,2424842,0,0.5367448,0.4152352,0.22178775,0.0,2621474,2490402,2621474,2424842,0,0.028681723,0.013261758,0.016774971,0.0,1,1,1,0,50,50,50,0,1,1,1,0,50,50,50,0
86002070,2621474,2490402,2621474,2424842,0,0.7115488,0.432463,0.63083327,0.0,2621474,2490402,2621474,2424842,0,0.054282654,0.0543643,0.020462843,0.0,1,1,1,0,50,50,50,0,1,1,1,0,50,50,50,0
86198023,2621474,2490402,2621474,2424842,0,0.57488966,0.57809114,0.45148915,0.0,2621474,2490402,2621474,2424842,0,0.06181874,0.030582398,0.03168972,0.0,1,1,1,0,50,50,50,0,1,1,1,0,50,50,50,0
86399386,2621474,2490402,2621474,2424842,0,0.7601779,0.6958119,0.2989258,0.0,2621474,2490402,2621474,2424842,0,0.03518521,0.04084366,0.02508591,0.0,1,1,1,0,50,50,50,0,1,1,1,0,50,50,50,0
86600616,2621474,2490402,2621474,2424842,0,0.7104338,0.5937089,0.5811047,0.0,2621474,2490402,2621474,2424842,0,0.025721574,0.05523777,0.039667465,0.0,1,1,1,0,50,50,50,0,1,1,1,0,50,50,50,0
86801901,2621474,2490402,2621474,2424842,0,1.1856307,0.72979355,0.6922002,0.0,2621474,2490402,2621474,2424842,0,0.070192695,0.04218675,0.02857402,0.0,1,1,1,0,50,50,50,0,1,1,1,0,50,50,50,0
86997932,2621474,2490402,2621474,2424842,0,0.3634298,0.4237024,0.459318,0.0,2621474,2490402,2621474,2424842,0,0.044794396,0.04617639,0.025502054,0.0,1,1,1,0,50,50,50,0,1,1,1,0,50,50,50,0
87199175,2621474,2490402,2621474,2424842,0,0.43429515,0.32175624,0.2011308,0.0,2621474,2490402,2621474,2424842,0,0.024039006,0.028704848,0.028623179,0.0,1,1,1,0,50,50,50,0,1,1,1,0,50,50,50,0
87400474,2621474,2490402,2621474,2424842,0,0.9079134,0.5188538,0.4602646,0.0,2621474,2490402,2621474,2424842,0,0.041013423,0.016124379,0.027470347,0.0,1,1,1,0,50,50,50,0,1,1,1,0,50,50,50,0
87601752,2621474,2490402,2621474,2424842,0,0.97481155,0.6044856,0.5256257,0.0,2621474,2490402,2621474,2424842,0,0.054115526,0.04238473,0.018351462,0.0,1,1,1,0,50,50,50,0,1,1,1,0,50,50,50,0
87797734,2621474,2490402,2621474,2424842,0,1.1212591,0.51106584,0.6358164,0.0,2621474,2490402,2621474,2424842,0,0.026991682,0.014614017,0.022536514,0.0,1,1,1,0,50,50,50,0,1,1,1,0,50,50,50,0
87999082,2621474,2490402,2621474,2424842,0,0.80026424,0.431329,0.54631394,0.0,2621474,2490402,2621474,2424842,0,0.022061102,0.022458866,0.008460785,0.0,1,1,1,0,50,50,50,0,1,1,1,0,50,50,50,0
88200309,2621474,2490402,2621474,2424842,0,1.6335196,0.6752329,1.0160502,0.0,2621474,2490402,2621474,2424842,0,0.029653821,0.01867599,0.01172046,0.0,1,1,1,0,50,50,50,0,1,1,1,0,50,50,50,0
88401565,2621474,2490402,2621474,2424842,0,1.2986162,0.79769516,0.54504544,0.0,2621474,2490402,2621474,2424842,0,0.023236133,0.017908707,0.0137430895,0.0,1,1,1,0,50,50,50,0,1,1,1,0,50,50,50,0
88597601,2621474,2490402,2621474,2424842,0,1.571362,0.82533115,0.88822716,0.0,2621474,2490402,2621474,2424842,0,0.052335177,0.024338642,0.02821493,0.0,1,1,1,0,50,50,50,0,1,1,1,0,50,50,50,0
88798875,2621474,2490402,2621474,2424842,0,0.4382056,0.20722383,0.5708967,0.0,2621474,2490402,2621474,2424842,0,0.0356571,0.037181314,0.015330088,0.0,1,1,1,0,50,50,50,0,1,1,1,0,50,50,50,0
89000129,2621474,2490402,2621474,2424842,0,0.47212234,0.4608433,0.3791011,0.0,2621474,2490402,2621474,2424842,0,0.078411706,0.03259435,0.056704786,0.0,1,1,1,0,50,50,50,0,1,1,1,0,50,50,50,0
89201430,2621474,2490402,2621474,2424842,0,1.163781,0.5888092,0.67168224,0.0,2621474,2490402,2621474,2424842,0,0.033854134,0.022416694,0.019486228,0.0,1,1,1,0,50,50,50,0,1,1,1,0,50,50,50,0
89397452,2621474,2490402,2621474,2424842,0,1.1697917,0.5322057,0.6396835,0.0,2621474,2490402,2621474,2424842,0,0.042812005,0.027111446,0.018550767,0.0,1,1,1,0,50,50,50,0,1,1,1,0,50,50,50,0
89598738,2621474,2490402,2621474,2424842,0,1.0611277,0.65350795,0.43808064,0.0,2621474,2490402,2621474,2424842,0,0.033420596,0.01895374,0.018992342,0.0,1,1,1,0,50,50,50,0,1,1,1,0,50,50,50,0
89800023,2621474,2490402,2621474,2424842,0,0.89675546,0.421389,0.55863154,0.0,2621474,2490402,2621474,2424842,0,0.018577486,0.023875669,0.026902046,0.0,1,1,1,0,50,50,50,0,1,1,1,0,50,50,50,0
90001309,2621474,2490402,2621474,2424842,0,0.4653084,0.33739138,0.48290163,0.0,2621474,2490402,2621474,2424842,0,0.03919641,0.0648493,0.05057862,0.0,1,1,1,0,50,50,50,0,1,1,1,0,50,50,50,0
90197366,2621474,2490402,2621474,2424842,0,1.1651738,0.6746653,0.5962394,0.0,2621474,2490402,2621474,2424842,0,0.041680027,0.03482286,0.05614868,0.0,1,1,1,0,50,50,50,0,1,1,1,0,50,50,50,0
90398605,2621474,2490402,2621474,2424842,0,0.90486735,0.6898582,0.35663354,0.0,2621474,2490402,2621474,2424842,0,0.056982838,0.03249419,0.03155586,0.0,1,1,1,0,50,50,50,0,1,1,1,0,50,50,50,0
90599952,2621474,2490402,2621474,2424842,0,0.9920324,0.40601835,0.8971685,0.0,2621474,2490402,2621474,2424842,0,0.06383273,0.0910831,0.03422548,0.0,1,1,1,0,50,50,50,0,1,1,1,0,50,50,50,0
90801144,2621474,2490402,2621474,2424842,0,0.89260095,0.63833773,0.45809898,0.0,2621474,2490402,2621474,2424842,0,0.056576252,0.009977159,0.05416282,0.0,1,1,1,0,50,50,50,0,1,1,1,0,50,50,50,0
91002470,2621474,2490402,2621474,2424842,0,0.7482133,0.541032,0.32358688,0.0,2621474,2490402,2621474,2424842,0,0.04468503,0.016874831,0.030011354,0.0,1,1,1,0,50,50,50,0,1,1,1,0,50,50,50,0
91198555,2621474,2490402,2621474,2424842,0,0.6577737,0.24005662,0.46008256,0.0,2621474,2490402,2621474,2424842,0,0.06937474,0.05247424,0.020355541,0.0,1,1,1,0,50,50,50,0,1,1,1,0,50,50,50,0
91399815,2621474,2490402,2621474,2424842,0,0.3479919,0.65378356,0.50294477,0.0,2621474,2490402,2621474,2424842,0,0.07736951,0.036276676,0.043066762,0.0,1,1,1,0,50,50,50,0,1,1,1,0,50,50,50,0
91601130,2621474,2490402,2621474,2424842,0,1.4098461,0.76092774,0.7172107,0.0,2621474,2490402,2621474,2424842,0,0.03808438,0.03432715,0.016848754,0.0,1,1,1,0,50,50,50,0,1,1,1,0,50,50,50,0
91802342,2621474,2490402,2621474,2424842,0,0.98730475,0.32572392,0.685417,0.0,2621474,2490402,2621474,2424842,0,0.044859134,0.0640231,0.036045227,0.0,1,1,1,0,50,50,50,0,1,1,1,0,50,50,50,0
91998413,2621474,2490402,2621474,2424842,0,0.6440792,0.36448643,0.4818729,0.0,2621474,2490402,2621474,2424842,0,0.05565668,0.037026837,0.021017041,0.0,1,1,1,0,50,50,50,0,1,1,1,0,50,50,50,0
92199785,2621474,2490402,2621474,2424842,0,0.64549017,0.86829925,0.68603003,0.0,2621474,2490402,2621474,2424842,0,0.062205445,0.061042365,0.019052722,0.0,1,1,1,0,50,50,50,0,1,1,1,0,50,50,50,0
92400986,2621474,2490402,2621474,2424842,0,0.9064276,0.59379506,0.51283634,0.0,2621474,2490402,2621474,2424842,0,0.04962949,0.06924684,0.030859493,0.0,1,1,1,0,50,50,50,0,1,1,1,0,50,50,50,0
92602387,2621474,2490402,2621474,2424842,0,0.44635433,0.6485538,0.41304436,0.0,2621474,2490402,2621474,2424842,0,0.096893996,0.04865986,0.049818594,0.0,1,1,1,0,50,50,50,0,1,1,1,0,50,50,50,0
92798256,2621474,2490402,2621474,2424842,0,0.16531324,0.12482038,0.12388904,0.0,2621474,2490402,2621474,2424842,0,0.03187864,0.04449054,0.019161243,0.0,1,1,1,0,50,50,50,0,1,1,1,0,50,50,50,0
92999589,2621474,2490402,2621474,2424842,0,0.5965962,0.3252079,0.46597978,0.0,2621474,2490402,2621474,2424842,0,0.05344272,0.076012336,0.023509216,0.0,1,1,1,0,50,50,50,0,1,1,1,0,50,50,50,0
93200853,2621474,2490402,2621474,2424842,0,1.0249262,0.5791601,0.68804985,0.0,2621474,2490402,2621474,2424842,0,0.0820943,0.03300208,0.049857825,0.0,1,1,1,0,50,50,50,0,1,1,1,0,50,50,50,0
93402110,2621474,2490402,2621474,2424842,0,0.4462352,0.328623,0.34366894,0.0,2621474,2490402,2621474,2424842,0,0.02795968,0.056271307,0.028954038,0.0,1,1,1,0,50,50,50,0,1,1,1,0,50,50,50,0
93598161,2621474,2490402,2621474,2424842,0,1.3957925,0.7700571,0.71214956,0.0,2621474,2490402,2621474,2424842,0,0.060267266,0.06917701,0.022167906,0.0,1,1,1,0,50,50,50,0,1,1,1,0,50,50,50,0
93799356,2621474,2490402,2621474,2424842,0,0.34193283,0.21376383,0.26555562,0.0,2621474,2490402,2621474,2424842,0,0.056105837,0.03126807,0.032328613,0.0,1,1,1,0,50,50,50,0,1,1,1,0,50,50,50,0
94000688,2621474,2490402,2621474,2424842,0,0.59066284,0.60989445,0.14565253,0.0,2621474,2490402,2621474,2424842,0,0.030158347,0.066255815,0.03767192,0.0,1,1,1,0,50,50,50,0,1,1,1,0,50,50,50,0
94201981,2621474,2490402,2621474,2424842,0,0.5598589,0.50298667,0.84144115,0.0,2621474,2490402,2621474,2424842,0,0.030270189,0.049131136,0.06962678,0.0,1,1,1,0,50,50,50,0,1,1,1,0,50,50,50,0
94397893,2621474,2490402,2621474,2424842,0,0.41579235,0.31341603,0.20103303,0.0,2621474,2490402,2621474,2424842,0,0.04245344,0.04102738,0.01368539,0.0,1,1,1,0,50,50,50,0,1,1,1,0,50,50,50,0
94599265,2621474,2490402,2621474,2424842,0,0.8912584,0.37432528,0.5546978,0.0,2621474,2490402,2621474,2424842,0,0.05212978,0.061428618,0.018263057,0.0,1,1,1,0,50,50,50,0,1,1,1,0,50,50,50,0
94800607,2621474,2490402,2621474,2424842,0,0.50076425,0.2800555,0.3147559,0.0,2621474,2490402,2621474,2424842,0,0.028965496,0.083115,0.06743674,0.0,1,1,1,0,50,50,50,0,1,1,1,0,50,50,50,0
95001781,2621474,2490402,2621474,2424842,0,0.55491513,0.3332338,0.5783444,0.0,2621474,2490402,2621474,2424842,0,0.04542501,0.050190087,0.03480878,0.0,1,1,1,0,50,50,50,0,1,1,1,0,50,50,50,0
95197742,2621474,2490402,2621474,2424842,0,0.8812197,0.24682745,0.66968405,0.0,2621474,2490402,2621474,2424842,0,0.025050275,0.042802975,0.045936078,0.0,1,1,1,0,50,50,50,0,1,1,1,0,50,50,50,0
95399073,2621474,2490402,2621474,2424842,0,0.5238576,0.48299664,0.41364977,0.0,2621474,2490402,2621474,2424842,0,0.017748816,0.04023641,0.028003652,0.0,1,1,1,0,50,50,50,0,1,1,1,0,50,50,50,0
95600402,2621474,2490402,2621474,2424842,0,0.665457,0.3807146,0.46517757,0.0,2621474,2490402,2621474,2424842,0,0.034984246,0.032633513,0.014413354,0.0,1,1,1,0,50,50,50,0,1,1,1,0,50,50,50,0
95801665,2621474,2490402,2621474,2424842,0,0.6904943,0.6266529,0.87107813,0.0,2621474,2490402,2621474,2424842,0,0.06073852,0.07915411,0.0210939,0.0,1,1,1,0,50,50,50,0,1,1,1,0,50,50,50,0
95997676,2621474,2490402,2621474,2424842,0,0.71703005,0.28557077,0.82812226,0.0,2621474,2490402,2621474,2424842,0,0.04833086,0.07687152,0.035006758,0.0,1,1,1,0,50,50,50,0,1,1,1,0,50,50,50,0
96198938,2621474,2490402,2621474,2424842,0,0.65481097,0.20023547,0.67792404,0.0,2621474,2490402,2621474,2424842,0,0.11505417,0.09144749,0.029167986,0.0,1,1,1,0,50,50,50,0,1,1,1,0,50,50,50,0
96400256,2621474,2490402,2621474,2424842,0,0.36020225,0.5985665,0.5821225,0.0,2621474,2490402,2621474,2424842,0,0.032071277,0.06824534,0.04511721,0.0,1,1,1,0,50,50,50,0,1,1,1,0,50,50,50,0
96601467,2621474,2490402,2621474,2424842,0,0.5572962,0.7022745,0.63811857,0.0,2621474,2490402,2621474,2424842,0,0.058075547,0.05073985,0.017729392,0.0,1,1,1,0,50,50,50,0,1,1,1,0,50,50,50,0
96797549,2621474,2490402,2621474,2424842,0,0.51918507,0.28751186,0.56936157,0.0,2621474,2490402,2621474,2424842,0,0.06836765,0.06539069,0.020503953,0.0,1,1,1,0,50,50,50,0,1,1,1,0,50,50,50,0
96998801,2621474,2490402,2621474,2424842,0,0.7845753,0.5206197,0.34461364,0.0,2621474,2490402,2621474,2424842,0,0.054156,0.067942776,0.025491681,0.0,1,1,1,0,50,50,50,0,1,1,1,0,50,50,50,0
97200056,2621474,2490402,2621474,2424842,0,0.74849707,0.4347358,0.5738827,0.0,2621474,2490402,2621474,2424842,0,0.053991944,0.017107459,0.03995189,0.0,1,1,1,0,50,50,50,0,1,1,1,0,50,50,50,0
97401405,2621474,2490402,2621474,2424842,0,0.46658304,0.4835817,0.26990837,0.0,2621474,2490402,2621474,2424842,0,0.037686426,0.039660983,0.01718256,0.0,1,1,1,0,50,50,50,0,1,1,1,0,50,50,50,0
97597435,2621474,2490402,2621474,2424842,0,1.2359445,0.5138615,0.753754,0.0,2621474,2490402,2621474,2424842,0,0.0247638,0.056192704,0.033202756,0.0,1,1,1,0,50,50,50,0,1,1,1,0,50,50,50,0
97798696,2621474,2490402,2621474,2424842,0,0.4213741,0.40715808,0.15252495,0.0,2621474,2490402,2621474,2424842,0,0.06031941,0.031049838,0.032728225,0.0,1,1,1,0,50,50,50,0,1,1,1,0,50,50,50,0
97999947,2621474,2490402,2621474,2424842,0,0.6476268,0.38645405,0.3024833,0.0,2621474,2490402,2621474,2424842,0,0.037996173,0.028223254,0.011239248,0.0,1,1,1,0,50,50,50,0,1,1,1,0,50,50,50,0
98201256,2621474,2490402,2621474,2424842,0,0.5490049,0.30367473,0.2839094,0.0,2621474,2490402,2621474,2424842,0,0.037775286,0.064493924,0.038163237,0.0,1,1,1,0,50,50,50,0,1,1,1,0,50,50,50,0
98397359,2621474,2490402,2621474,2424842,0,0.4262399,0.396773,0.061708953,0.0,2621474,2490402,2621474,2424842,0,0.026661582,0.011543349,0.018035483,0.0,1,1,1,0,50,50,50,0,1,1,1,0,50,50,50,0
98598541,2621474,2490402,2621474,2424842,0,0.22037348,0.1341564,0.24944203,0.0,2621474,2490402,2621474,2424842,0,0.037830926,0.037857704,0.010033473,0.0,1,1,1,0,50,50,50,0,1,1,1,0,50,50,50,0
98799810,2621474,2490402,2621474,2424842,0,0.5855652,0.29032212,0.36219102,0.0,2621474,2490402,2621474,2424842,0,0.016318101,0.05236547,0.039626535,0.0,1,1,1,0,50,50,50,0,1,1,1,0,50,50,50,0
99001085,2621474,2490402,2621474,2424842,0,0.63158053,0.25522077,0.50463176,0.0,2621474,2490402,2621474,2424842,0,0.062355086,0.03315634,0.032973353,0.0,1,1,1,0,50,50,50,0,1,1,1,0,50,50,50,0
99202421,2621474,2490402,2621474,2424842,0,1.4464184,0.7709669,0.7286634,0.0,2621474,2490402,2621474,2424842,0,0.047961995,0.04056125,0.020439496,0.0,1,1,1,0,50,50,50,0,1,1,1,0,50,50,50,0
99398444,2621474,2490402,2621474,2424842,0,0.5063629,0.37694117,0.33119673,0.0,2621474,2490402,2621474,2424842,0,0.046845842,0.017279614,0.04837049,0.0,1,1,1,0,50,50,50,0,1,1,1,0,50,50,50,0
99599790,2621474,2490402,2621474,2424842,0,0.39389607,0.37128377,0.7554415,0.0,2621474,2490402,2621474,2424842,0,0.045567647,0.034406837,0.055514235,0.0,1,1,1,0,50,50,50,0,1,1,1,0,50,50,50,0
99801033,2621474,2490402,2621474,2424842,0,0.26895407,0.433512,0.35473713,0.0,2621474,2490402,2621474,2424842,0,0.005342391,0.007439603,0.010597832,0.0,1,1,1,0,50,50,50,0,1,1,1,0,50,50,50,0
100002330,2621474,2490402,2621474,2424842,0,1.085334,0.6542113,0.50149727,0.0,2621474,2490402,2621474,2424842,0,0.07258338,0.07756409,0.07511592,0.0,1,1,1,0,50,50,50,0,1,1,1,0,50,50,50,0
100198362,2621474,2490402,2621474,2424842,0,0.24196215,0.22789516,0.21096472,0.0,2621474,2490402,2621474,2424842,0,0.035469763,0.04459209,0.023063043,0.0,1,1,1,0,50,50,50,0,1,1,1,0,50,50,50,0
100399663,2621474,2490402,2621474,2424842,0,0.1571961,0.45792428,0.32934415,0.0,2621474,2490402,2621474,2424842,0,0.04065645,0.06400129,0.03577427,0.0,1,1,1,0,50,50,50,0,1,1,1,0,50,50,50,0
100600877,2621474,2490402,2621474,2424842,0,0.9642456,0.40429184,0.59593135,0.0,2621474,2490402,2621474,2424842,0,0.05467219,0.08375643,0.038480368,0.0,1,1,1,0,50,50,50,0,1,1,1,0,50,50,50,0
100802144,2621474,2490402,2621474,2424842,0,0.6898064,0.064465955,0.63026726,0.0,2621474,2490402,2621474,2424842,0,0.031467266,0.04756025,0.018569488,0.0,1,1,1,0,50,50,50,0,1,1,1,0,50,50,50,0
100998198,2621474,2490402,2621474,2424842,0,0.9651844,0.3461084,0.67608505,0.0,2621474,2490402,2621474,2424842,0,0.05907364,0.05180006,0.014130611,0.0,1,1,1,0,50,50,50,0,1,1,1,0,50,50,50,0
101199488,2621474,2490402,2621474,2424842,0,0.548241,0.5205399,0.68634564,0.0,2621474,2490402,2621474,2424842,0,0.038419627,0.07142326,0.04136953,0.0,1,1,1,0,50,50,50,0,1,1,1,0,50,50,50,0
101400677,2621474,2490402,2621474,2424842,0,1.5654217,0.35762486,1.2559134,0.0,2621474,2490402,2621474,2424842,0,0.05420022,0.04103945,0.024559671,0.0,1,1,1,0,50,50,50,0,1,1,1,0,50,50,50,0
101602037,2621474,2490402,2621474,2424842,0,0.8295164,0.5259605,0.39630258,0.0,2621474,2490402,2621474,2424842,0,0.013458819,0.022317236,0.0096177785,0.0,1,1,1,0,50,50,50,0,1,1,1,0,50,50,50,0
101797937,2621474,2490402,2621474,2424842,0,0.13443497,0.10969714,0.21530028,0.0,2621474,2490402,2621474,2424842,0,0.04012287,0.044390187,0.055307552,0.0,1,1,1,0,50,50,50,0,1,1,1,0,50,50,50,0
101999297,2621474,2490402,2621474,2424842,0,0.48192567,0.35478666,0.34104264,0.0,2621474,2490402,2621474,2424842,0,0.08735418,0.06594184,0.024653232,0.0,1,1,1,0,50,50,50,0,1,1,1,0,50,50,50,0
102200539,2621474,2490402,2621474,2424842,0,0.24218586,0.22613016,0.302703,0.0,2621474,2490402,2621474,2424842,0,0.068324484,0.09077659,0.027928188,0.0,1,1,1,0,50,50,50,0,1,1,1,0,50,50,50,0
102401806,2621474,2490402,2621474,2424842,0,1.2548587,0.7222726,0.7541928,0.0,2621474,2490402,2621474,2424842,0,0.08963302,0.02786754,0.068152845,0.0,1,1,1,0,50,50,50,0,1,1,1,0,50,50,50,0
102597895,2621474,2490402,2621474,2424842,0,0.23431998,0.43591392,0.60081726,0.0,2621474,2490402,2621474,2424842,0,0.069726795,0.044272035,0.025868246,0.0,1,1,1,0,50,50,50,0,1,1,1,0,50,50,50,0
102799090,2621474,2490402,2621474,2424842,0,0.46718657,0.34930748,0.5761851,0.0,2621474,2490402,2621474,2424842,0,0.059473645,0.039654892,0.034359537,0.0,1,1,1,0,50,50,50,0,1,1,1,0,50,50,50,0
103000435,2621474,2490402,2621474,2424842,0,0.57350343,0.3853786,0.46892476,0.0,2621474,2490402,2621474,2424842,0,0.09233265,0.04237864,0.051010307,0.0,1,1,1,0,50,50,50,0,1,1,1,0,50,50,50,0
103201688,2621474,2490402,2621474,2424842,0,0.5188983,0.6234686,0.5153002,0.0,2621474,2490402,2621474,2424842,0,0.02340092,0.027018469,0.02742557,0.0,1,1,1,0,50,50,50,0,1,1,1,0,50,50,50,0
103397646,2621474,2490402,2621474,2424842,0,1.0124624,0.67769843,0.5098111,0.0,2621474,2490402,2621474,2424842,0,0.021814954,0.038137026,0.059834022,0.0,1,1,1,0,50,50,50,0,1,1,1,0,50,50,50,0
103599001,2621474,2490402,2621474,2424842,0,0.44227538,0.9129104,0.5637343,0.0,2621474,2490402,2621474,2424842,0,0.06677539,0.023611069,0.049574092,0.0,1,1,1,0,50,50,50,0,1,1,1,0,50,50,50,0
103800244,2621474,2490402,2621474,2424842,0,0.44796616,0.3963081,0.6817296,0.0,2621474,2490402,2621474,2424842,0,0.03745047,0.036392536,0.011296511,0.0,1,1,1,0,50,50,50,0,1,1,1,0,50,50,50,0
104001516,2621474,2490402,2621474,2424842,0,0.4703075,0.2784831,0.37280202,0.0,2621474,2490402,2621474,2424842,0,0.05514879,0.02387815,0.03383862,0.0,1,1,1,0,50,50,50,0,1,1,1,0,50,50,50,0
104197560,2621474,2490402,2621474,2424842,0,0.62786114,0.4092993,0.57343304,0.0,2621474,2490402,2621474,2424842,0,0.06885106,0.021028647,0.05182148,0.0,1,1,1,0,50,50,50,0,1,1,1,0,50,50,50,0
104398870,2621474,2490402,2621474,2424842,0,0.60065293,0.479934,0.31146726,0.0,2621474,2490402,2621474,2424842,0,0.04221767,0.024451762,0.019390788,0.0,1,1,1,0,50,50,50,0,1,1,1,0,50,50,50,0
104600165,2621474,2490402,2621474,2424842,0,0.561089,0.12195028,0.4427586,0.0,2621474,2490402,2621474,2424842,0,0.039900325,0.03337823,0.051153872,0.0,1,1,1,0,50,50,50,0,1,1,1,0,50,50,50,0
104801417,2621474,2490402,2621474,2424842,0,0.20617504,0.3121815,0.13745953,0.0,2621474,2490402,2621474,2424842,0,0.0539547,0.053168774,0.0072051557,0.0,1,1,1,0,50,50,50,0,1,1,1,0,50,50,50,0
104997389,2621474,2490402,2621474,2424842,0,1.1803983,0.54101604,0.6771932,0.0,2621474,2490402,2621474,2424842,0,0.050527655,0.05044977,0.045765772,0.0,1,1,1,0,50,50,50,0,1,1,1,0,50,50,50,0
105198735,2621474,2490402,2621474,2424842,0,0.7184623,0.36656457,0.4338612,0.0,2621474,2490402,2621474,2424842,0,0.055349622,0.0143146,0.054546125,0.0,1,1,1,0,50,50,50,0,1,1,1,0,50,50,50,0
105399991,2621474,2490402,2621474,2424842,0,0.6846935,0.25881347,0.45133063,0.0,2621474,2490402,2621474,2424842,0,0.031285066,0.028906655,0.016694851,0.0,1,1,1,0,50,50,50,0,1,1,1,0,50,50,50,0
105601277,2621474,2490402,2621474,2424842,0,0.42259625,0.20476742,0.26238725,0.0,2621474,2490402,2621474,2424842,0,0.020655515,0.029916462,0.017487288,0.0,1,1,1,0,50,50,50,0,1,1,1,0,50,50,50,0
105797334,2621474,2490402,2621474,2424842,0,1.1728607,0.31050542,0.96273,0.0,2621474,2490402,2621474,2424842,0,0.03695168,0.0444309,0.040037464,0.0,1,1,1,0,50,50,50,0,1,1,1,0,50,50,50,0
105998579,2621474,2490402,2621474,2424842,0,1.1731421,0.9126962,0.4650449,0.0,2621474,2490402,2621474,2424842,0,0.028244825,0.039427157,0.015581656,0.0,1,1,1,0,50,50,50,0,1,1,1,0,50,50,50,0
106199905,2621474,2490402,2621474,2424842,0,1.0725434,0.6223237,0.51114357,0.0,2621474,2490402,2621474,2424842,0,0.03941109,0.03464035,0.009618557,0.0,1,1,1,0,50,50,50,0,1,1,1,0,50,50,50,0
106401134,2621474,2490402,2621474,2424842,0,1.128225,0.4389489,0.73213726,0.0,2621474,2490402,2621474,2424842,0,0.048180982,0.033177078,0.016220598,0.0,1,1,1,0,50,50,50,0,1,1,1,0,50,50,50,0
106602474,2621474,2490402,2621474,2424842,0,1.5721728,1.0911635,0.5961459,0.0,2621474,2490402,2621474,2424842,0,0.05111486,0.05472872,0.014024639,0.0,1,1,1,0,50,50,50,0,1,1,1,0,50,50,50,0
106798561,2621474,2490402,2621474,2424842,0,1.1760857,0.94576246,0.234239,0.0,2621474,2490402,2621474,2424842,0,0.061686732,0.044994216,0.038307417,0.0,1,1,1,0,50,50,50,0,1,1,1,0,50,50,50,0
106999795,2621474,2490402,2621474,2424842,0,0.32888922,0.05436795,0.28682446,0.0,2621474,2490402,2621474,2424842,0,0.02398935,0.020450179,0.020475835,0.0,1,1,1,0,50,50,50,0,1,1,1,0,50,50,50,0
107201085,2621474,2490402,2621474,2424842,0,0.051156152,0.050109312,0.100427605,0.0,2621474,2490402,2621474,2424842,0,0.01873736,0.003999004,0.01718928,0.0,1,1,1,0,50,50,50,0,1,1,1,0,50,50,50,0
107402324,2621474,2490402,2621474,2424842,0,7.4847913,4.4582534,11.782955,0.0,2621474,2490402,2621474,2424842,0,0.46439412,0.17122126,0.35393623,0.0,1,1,1,0,50,50,50,0,1,1,1,0,50,50,50,0
107598377,2621474,2490402,2621474,2424842,0,2.5648234,0.38680398,2.8922455,0.0,2621474,2490402,2621474,2424842,0,0.10200733,0.08358429,0.060843606,0.0,1,1,1,0,50,50,50,0,1,1,1,0,50,50,50,0
107802322,2424842,2490402,2621474,2424842,0,0.04622477,0.0306177,0.02069779,0.0,2424842,2490402,2621474,2424842,0,0.0051905187,0.002063449,0.0032751695,0.0,1,1,1,0,50,50,50,0,1,1,1,0,50,50,50,0
