timestamp,timestamp_sample,xyz[0],xyz[1],xyz[2],xyz_derivative[0],xyz_derivative[1],xyz_derivative[2]
80401495,80401175,-0.0153593365,0.047001526,0.0019683337,-2.708633,6.7945304,2.6716359
80402828,80402508,-0.0043036826,0.022871245,0.011458378,-0.21027857,1.2568325,3.54399
80404156,80403840,0.014767912,-0.020889599,-0.001966719,2.9487207,-6.2242785,0.5320324
80405489,80405173,0.016572682,-0.052046016,-0.0068278797,2.5198157,-9.886824,-0.3086143
80406822,80406506,1.8925406e-05,-0.04694725,0.0007354874,-0.7868516,-6.745876,1.0032027
80408202,80407884,-0.016170558,-0.012439227,0.0012446197,-3.255332,0.44710606,0.8179516
80409474,80409153,-0.017031986,0.023334838,-0.012400685,-2.6036468,6.1747885,-1.629564
80410924,80410606,-0.006362021,0.037652448,-0.022178743,-0.28122342,7.1028376,-2.8304203
80412171,80411842,-0.0040964326,0.03294943,-0.011461277,0.13223277,4.7027392,-0.37724653
80413439,80413121,-0.0067560514,0.0033259976,0.009031802,-0.33838797,-1.2712559,3.0483403
80414747,80414432,-0.0061518867,-0.033978593,0.008793547,-0.15380505,-7.0829334,2.2456496
80416080,80415765,0.0008944749,-0.04911415,-0.009817999,1.0387007,-7.9042263,-1.3271918
80417411,80417098,0.005516935,-0.024998328,-0.023933271,1.5538512,-2.102111,-3.2873604
80418751,80418431,-8.7107066e-05,0.01372426,-0.014889359,0.26058593,4.6988354,-1.0355077
80420083,80419765,-0.014106961,0.03856987,-0.0072067506,-2.1183581,7.6773205,0.40120956
80421325,80421008,-0.026231635,0.037439585,-0.015267559,-3.6236422,5.7187696,-1.0422006
80422660,80422340,-0.019163389,0.012665693,-0.018371698,-1.5890918,0.34053874,-1.2609658
80424001,80423686,0.0052575194,-0.019201225,-0.0010636882,2.7920966,-4.9483495,1.8955978
80425334,80425006,0.028394805,-0.03564622,0.012989217,5.942607,-6.487878,3.7157502
80426654,80426339,0.030193001,-0.02657555,-0.004389765,4.842214,-3.4911525,-0.060599912
80427990,80427672,0.012567646,0.0052249716,-0.029681774,0.85390186,2.5446012,-4.132913
80429323,80429007,-0.00083293766,0.03801819,-0.024880972,-1.4782517,7.3344254,-2.3277898
80430652,80430338,-0.0010780122,0.049423065,0.0020173304,-1.1751934,7.51533,2.6085818
80432001,80431671,0.0017013256,0.029011564,0.014673088,-0.45305204,2.3990111,4.020791
80433235,80432921,-0.0007582237,-0.018578535,0.0015784334,-0.8129303,-5.9610825,0.9422103
80434629,80434315,-0.010676198,-0.052384544,-0.001425804,-2.251538,-10.102926,0.35951248
80435903,80435587,-0.012497191,-0.046119303,0.021555915,-2.0169158,-6.7005243,4.067798
80437262,80436945,-0.004989992,-0.0038170791,0.0221906,-0.31717342,1.7732333,3.1460845
80438569,80438253,0.00081663474,0.0346173,-0.005817794,0.6790113,7.622708,-2.1620417
80439905,80439587,0.0026431163,0.04539027,-0.019250736,0.8232062,7.6228952,-3.7811406
80441256,80440940,0.0048831664,0.030656455,-0.0012971149,1.0098603,3.4626663,0.06388238
80504785,80504467,0.0064728074,-0.049169216,-0.014161889,1.426212,-6.846013,-4.46916
80506116,80505800,0.0017160675,-0.020674892,-0.008608805,0.31878787,-0.57676166,-2.5206738
80507457,80507141,-0.0060547814,0.023373246,0.0053062597,-1.0199364,6.7864013,0.3118666
80508783,80508466,-0.009409243,0.04398224,0.008868572,-1.2975346,8.567952,0.77168053
80510139,80509823,-0.004201647,0.023686962,0.00881093,-0.122742385,3.2283812,0.6348489
80511391,80511068,0.009141133,-0.025347667,0.02683534,2.1236358,-5.5724025,3.5086422
80512718,80512399,0.018058129,-0.067176536,0.04091403,3.0597787,-11.162093,4.991057
80514048,80513732,0.008856948,-0.079670124,0.03409934,0.8065548,-10.634776,2.7164204
80515383,80515068,-0.0077356175,-0.045417342,0.009128859,-2.095833,-2.5409307,-2.0283253
80516714,80516398,-0.013951002,0.015414013,-0.017304815,-2.5928996,8.029773,-5.868623
80518069,80517731,-0.0022399507,0.06590715,-0.01894649,-0.041230354,14.467777,-4.7741137
80519410,80519067,0.011832531,0.077804394,-0.01172623,2.2485847,13.108491,-2.5673163
80520743,80520402,0.009899626,0.0363582,-0.012770572,1.3918625,3.271819,-2.2029932
80522149,80521830,-0.0008463478,-0.033226147,-0.01203158,-0.6908181,-8.856562,-1.570794
80523414,80523098,-0.0046716603,-0.07367019,0.005286258,-1.1113993,-13.395981,1.6750082
80524683,80524340,0.014216298,-0.060281258,0.022533689,2.2889497,-8.100222,4.073378
80526012,80525673,0.031186828,-0.0055893087,0.01013567,4.5013595,2.7153325,1.055037
80527341,80527020,0.023489377,0.05466907,-0.008932149,2.1675153,11.967012,-2.2551174
80528674,80528354,0.005122141,0.080804035,-0.0042772857,-1.3216902,13.489732,-0.92833596
80529939,80529596,-0.0014208008,0.05575585,0.0067219753,-2.0466137,6.2977643,1.0465696
80531295,80530929,0.008521586,-0.00020798872,0.0040387185,0.07452957,-4.315515,0.33388352
80532598,80532284,0.018739542,-0.0508,0.0030474677,1.7149783,-11.602808,0.14821075
80533931,80533615,0.015124533,-0.06506471,0.016395507,0.6993689,-11.27881,2.3382175
80535264,80534950,0.0011454109,-0.03945461,0.025582217,-1.7499655,-4.5038896,3.2954843
80536598,80536284,-0.006156116,0.012594873,0.017091865,-2.5361235,5.084396,1.1260073
80537909,80537594,-0.006413175,0.0647859,0.0040364014,-2.029482,12.475218,-1.2242671
80539261,80538945,-0.0073362207,0.07456048,0.016624061,-1.7481064,11.169819,1.2253636
80540509,80540191,-0.010367286,0.02991751,0.048606966,-1.875677,1.2659259,6.1992764
80541841,80541524,-0.017985871,-0.033090062,0.061238423,-2.6982067,-9.333035,6.7989264
80543168,80542852,-0.021236468,-0.072106875,0.042615976,-2.6050615,-13.58801,2.1680644
80544505,80544186,-0.015709862,-0.07033195,0.020056717,-1.0967048,-10.168006,-1.965294
80545877,80545562,-0.0056250654,-0.016799519,0.010100926,0.78568256,0.9905143,-3.1416724
80547175,80546852,-0.002533071,0.051715687,-0.00096885837,1.0800349,11.981007,-4.303302
80548497,80548185,-0.008523892,0.08357547,-0.016576346,-0.17162122,14.4109535,-5.898807
80549850,80549534,-0.009953866,0.05479438,-0.012051431,-0.32738078,6.3397503,-3.7660935
80551187,80550864,0.0024452666,-0.013212757,0.015202147,1.8226033,-6.2752266,1.576828
80552430,80552114,0.019037016,-0.06731475,0.03768774,4.1379952,-13.649854,4.855239
80553759,80553445,0.022914946,-0.07192999,0.034209155,3.7918336,-11.256355,3.1266937
80555099,80554778,0.009707159,-0.032750823,0.016589966,0.76179725,-2.2503211,-0.43821874
80556432,80556116,0.0013614186,0.023287347,0.009651227,-0.72868025,7.458582,-1.438541
80557794,80557473,0.006815439,0.06567367,0.0053623677,0.37811506,12.680969,-1.8488916
80559098,80558778,0.017439777,0.06214616,-0.009475061,2.035948,9.15335,-3.9068885
80560471,80560156,0.016290348,0.012103334,-0.02191172,1.3559376,-1.1859865,-5.048777
80561715,80561398,0.004818947,-0.048768304,-0.016646655,-0.86488044,-10.848552,-3.0357974
80563051,80562731,-0.0132602025,-0.070096835,-0.004415696,-3.6527812,-11.811229,-0.36330813
80564379,80564064,-0.021742571,-0.041778237,-0.0021562944,-4.1667757,-4.4456816,0.024587177
80565715,80565397,-0.008870181,0.012448398,-0.01351522,-1.0630765,5.4493203,-1.8594279
80567157,80566840,0.011645544,0.05541539,-0.018164,2.5297942,11.193177,-2.1673813
80568413,80568093,0.013328792,0.0625775,-0.01635311,2.136676,9.785039,-1.4043792
80569648,80569332,-0.015469322,0.02745211,-0.014922507,-3.1242304,1.7513976,-0.84199595
80570998,80570678,-0.03920706,-0.026775816,-0.007026791,-6.262669,-7.493444,0.65647286
80572327,80572002,-0.027269324,-0.05857561,-0.0022995379,-2.8137937,-10.93073,1.2482212
80573650,80573334,0.011338353,-0.04882682,-0.016172184,4.1576853,-6.784528,-1.3783479
80574991,80574667,0.03433379,-0.0048131854,-0.043934952,6.9141645,1.9924982,-5.6357427
80576320,80576004,0.021167915,0.041606255,-0.054074965,3.1576858,9.112662,-5.9562817
80577647,80577333,-0.0041850302,0.060463935,-0.032376405,-1.6721293,10.08948,-1.0130897
80578981,80578666,-0.008844265,0.03971237,-0.0052473443,-1.9735863,4.319511,3.623286
80580314,80579999,0.010357081,-0.007393223,0.002566248,1.6510057,-4.4064803,4.0398006
80581556,80581241,0.028816221,-0.049892236,0.0003858207,4.2908792,-10.357065,2.8069882
80582890,80582574,0.025531307,-0.059833053,0.004834459,2.75194,-9.578804,2.9423742
80584243,80583927,0.010335561,-0.033228848,0.0057423096,-0.35522845,-2.9944594,2.3996546
80585556,80585240,0.0027146314,0.012058411,-0.009392221,-1.5137439,5.11294,-0.64987993
80586903,80586574,0.0034809439,0.04806478,-0.024107322,-1.0675812,9.845551,-2.885605
80588240,80587925,-7.09719e-05,0.057341952,-0.02257022,-1.456064,9.096287,-1.9528816
80589626,80589309,-0.021528265,0.03410462,-0.014645381,-4.6994686,3.1965246,-0.2386769
80590999,80590678,-0.04718623,-0.008488093,-0.015458837,-7.847017,-4.5220847,-0.37043422
80592246,80591929,-0.048794728,-0.04278312,-0.022773769,-6.28264,-9.09923,-1.4575799
80593487,80593170,-0.018035023,-0.044313174,-0.019968743,0.22688313,-7.228274,-0.65341246
80594820,80594505,0.0180311,-0.016056845,-0.017108474,6.0428214,-0.940572,-0.04736945
80596152,80595837,0.023697361,0.017331403,-0.01389615,5.544546,4.734251,0.49586868
80597495,80597172,0.0017190475,0.039033048,-0.010553511,0.653361,7.2067013,0.92731446
80598818,80598503,-0.023071347,0.035163347,-0.0042204824,-3.4986532,4.8726172,1.8050889
80600155,80599837,-0.013621479,0.006898781,0.01039753,-1.0567806,-0.8731549,3.7981684
80601487,80601168,0.023233734,-0.016735366,0.0068655317,5.252347,-4.5077996,2.290019
80602818,80602502,0.04983865,-0.02608221,-0.017464276,8.367699,-5.000119,-2.2414331
80604150,80603835,0.041660625,-0.019797798,-0.042064425,5.0746474,-2.8163373,-5.753705
80605392,80605077,0.009843452,-0.0068672155,-0.045204043,-1.2861753,-0.07503133,-4.911072
80606724,80606410,-0.01017607,0.0067635067,-0.025071027,-4.1883583,2.1653898,-0.49588314
80608061,80607743,-0.0028752058,0.014448417,-0.00930989,-2.0147421,2.917976,2.1432803
80609394,80609076,0.0129122585,0.014137873,-0.00509201,1.0218079,2.1914244,2.356649
80610723,80610409,0.021649802,0.0044321334,-0.0005077293,2.167851,0.106195845,2.6093323
80612133,80611806,0.015026613,-0.004659425,0.010652275,0.57614964,-1.3919878,3.8973515
80613397,80613083,0.0080248965,-0.011850687,0.02160326,-0.6949556,-2.2689085,4.797704
80614704,80614391,-0.0009985648,-0.014232816,0.009740702,-2.0557702,-2.1500585,1.7132064
80616038,80615723,-0.015746491,-0.0097796,-0.01333039,-4.046939,-0.9141536,-2.4324512
80617370,80617057,-0.033592567,0.0061398824,-0.019865422,-6.1032667,1.9350586,-2.8851779
80618705,80618390,-0.04121218,0.022843624,-0.0052136006,-5.9498086,4.2368693,0.17978255
80620041,80619724,-0.028919302,0.024507562,0.0032104913,-2.574554,3.510861,1.450043
80621300,80620985,-0.004174011,0.0079861805,-0.008495304,2.0817823,-0.00035692158,-0.8195801
80622639,80622323,0.016522283,-0.007808327,-0.0101073375,4.990849,-2.569216,-0.807297
80623951,80623633,0.024376083,-0.01567773,0.010071478,5.1262517,-3.259477,2.7163978
80625280,80624966,0.013949974,-0.008299494,0.02377525,2.2440903,-1.2843388,4.311951
80626650,80626326,-0.00026328512,0.00297095,0.022873469,-0.5502708,0.82467514,3.197126
80627954,80627632,-0.0039101103,0.0043190727,0.024277296,-0.986104,0.8299498,2.7573247
80629281,80628965,-0.0034282065,0.0045289136,0.029900841,-0.6926464,0.6934694,3.0713992
80630644,80630324,0.0009997442,0.0026306838,0.023640575,0.19662,0.2054107,1.3018548
80631898,80631567,0.007131354,-0.0058066566,0.0020295058,1.1518612,-1.2301124,-2.5423892
80633217,80632900,0.010410119,-0.00993536,-0.007448374,1.4206377,-1.5976368,-3.4686728
80634661,80634315,0.00428865,-0.0023283367,0.0029688014,0.07924652,0.02949149,-0.9671742
80635899,80635581,-0.00848289,0.009920316,0.0060032066,-2.048517,2.0195072,-0.32287547
80637209,80636889,-0.02016332,0.013181115,-0.0038351156,-3.496562,2.0716774,-1.8598025
80638568,80638222,-0.022139747,0.010996483,0.0042332197,-3.0168164,1.2776436,-0.039596315
80639900,80639556,-0.017605439,0.014408529,0.028527297,-1.6012255,1.5734121,3.9509268
80641240,80640894,-0.016539013,0.010591377,0.039102394,-1.1064786,0.5446482,4.746319
80642571,80642223,-0.024255684,-0.011904219,0.034030892,-2.1738145,-3.31317,2.857088
80643877,80643554,-0.033280004,-0.030404959,0.028966922,-3.1690612,-5.5515313,1.3971556
80645203,80644887,-0.041228693,-0.02087669,0.019354902,-3.7818549,-2.6801956,-0.51613265
80646470,80646129,-0.040402077,0.0021789887,0.0008654432,-2.7612383,1.7077277,-3.4555657
80647810,80647462,-0.025012322,0.022848587,-0.019260075,0.41649216,4.69797,-5.9969273
80649110,80648795,0.0009809772,0.027158938,-0.028992284,4.591066,4.2965913,-6.229484
80650446,80650128,0.019624125,0.011233328,-0.023856895,6.590567,0.66539544,-3.9851146
80651784,80651461,0.03004919,-0.024118176,-0.022831015,6.847842,-5.325498,-2.9889972
80653113,80652797,0.033314534,-0.05109776,-0.033094514,5.8754516,-8.483437,-4.023385
80654447,80654127,0.030652858,-0.044365853,-0.028184123,4.130785,-5.4034247,-2.258135
80655897,80655547,0.018810729,-0.011100717,-0.008361928,1.2464579,1.2853594,1.4862752
80657189,80656857,0.0049170433,0.023870341,-0.002314055,-1.2968638,6.7050743,2.0862231
80658414,80658099,0.0015382968,0.037123796,-0.019202724,-1.5090648,7.3164806,-1.2042657
80659749,80659433,0.01219316,0.020567643,-0.03860417,0.60897386,2.9161289,-4.086411
80661104,80660765,0.026122075,-0.011127075,-0.043292064,2.7487438,-2.926188,-3.932431
80662438,80662098,0.023888681,-0.033829805,-0.049338784,1.6784239,-5.944859,-4.0951514
80663770,80663431,-0.0031640597,-0.029117228,-0.060719438,-3.1696792,-3.7807045,-5.0500937
80665039,80664722,-0.022934776,-0.0069223386,-0.061609667,-5.6609144,0.72773486,-4.047776
80666346,80666007,-0.02608371,0.025001857,-0.05815947,-4.890906,5.8187766,-2.6046712
80667681,80667341,-0.023488417,0.047192972,-0.055776827,-3.418487,8.106104,-1.650067
80669066,80668723,-0.02731325,0.03743985,-0.045408167,-3.3079617,4.6173134,0.4802672
80670308,80669965,-0.023501005,0.0022926815,-0.017272517,-1.9171706,-2.2061164,5.0427384
80671638,80671302,-0.0061048614,-0.032715663,0.008881254,1.3999627,-7.416213,8.169389
80672976,80672631,0.016042525,-0.046804063,0.0019081254,4.7005014,-8.0259285,5.09753
80674313,80673968,0.025055794,-0.035397243,-0.03131163,5.0957985,-4.31967,-1.5010417
80675638,80675321,0.024646219,-0.0057693264,-0.05314861,3.8712635,1.5252135,-4.6525173
80676970,80676654,0.020420518,0.028010782,-0.038467105,2.3301294,6.7146535,-1.1108007
80678419,80678102,0.021860845,0.04315521,-0.017684909,2.072001,7.638577,2.4685097
80679665,80679349,0.020573672,0.029325804,-0.02297513,1.389689,3.583994,1.0129575
80680908,80680593,0.018299911,-0.0145229865,-0.019017689,0.72619224,-4.443105,1.5450013
80682244,80681930,0.014856807,-0.052346613,0.007625551,-0.012073968,-9.589102,5.608053
80683573,80683259,0.010014109,-0.055432297,0.02606525,-0.7954935,-7.8705087,7.3347206
80684911,80684589,0.0056657353,-0.023076996,0.024444327,-1.3410771,-0.74377066,5.402353
80686256,80685940,0.00091579335,0.025577882,0.013937175,-1.8275973,7.4127955,2.5078344
80687500,80687184,-0.014639797,0.058483735,0.009340527,-4.0236845,11.085653,1.230805
80688833,80688518,-0.03460588,0.05034761,0.013837135,-6.405244,7.1756115,1.7078396
80690163,80689849,-0.043947954,0.00857134,0.015729869,-6.464854,-1.3301166,1.6177375
80691508,80691182,-0.028065199,-0.03773042,0.008739434,-2.378987,-8.585564,0.07450834
80692831,80692515,-0.014832504,-0.053346135,-0.009005199,0.25070655,-9.146417,-2.8748677
80694163,80693849,-0.02441596,-0.03490461,-0.023972083,-1.4672567,-4.004691,-4.6596355
80695517,80695203,-0.046590056,0.0084403865,-0.023523023,-4.777482,4.0376835,-3.5002716
80696841,80696524,-0.05315734,0.051031,-0.0026689647,-4.7120857,10.104235,0.74945945
80698177,80697860,-0.02727958,0.06518288,0.023424925,0.67905873,10.081299,4.8304906
80699440,80699122,0.010316745,0.040301483,0.028158097,6.690848,3.657992,4.472519
80700752,80700434,0.03177919,-0.015266001,0.01919862,8.6703005,-6.3294263,2.019567
80702125,80701806,0.031053916,-0.06390645,0.020562846,6.5914655,-12.844419,1.8559812
80703442,80703121,0.021748453,-0.07346902,0.03312291,3.6096396,-11.425677,3.5140345
80704751,80704434,0.017902179,-0.0359261,0.031882055,2.1976242,-2.6435637,2.4620707
80706086,80705767,0.013778197,0.017230295,0.015139141,1.0354246,6.66796,-0.83065987
80707438,80707121,0.011304657,0.05631765,0.015962146,0.41053584,11.539259,-0.40722787
80708749,80708432,0.010255914,0.0628941,0.04020708,0.1675654,9.96791,3.6975272
80710082,80709767,0.015489049,0.02831185,0.060672678,1.0135392,1.9642262,6.1836057
80711445,80711123,0.017013263,-0.029871665,0.058660544,1.0137281,-8.041416,4.4336767
80712693,80712374,0.0037639327,-0.07256875,0.049250405,-1.4533749,-13.156083,1.9286453
80714020,80713706,-0.027009392,-0.061870582,0.045185022,-6.241157,-8.320925,0.8573412
80715354,80715038,-0.055185728,-0.012199292,0.04533549,-9.438162,1.7113922,0.6985234
80716692,80716372,-0.054177508,0.03298343,0.041844893,-7.0947137,8.677584,-0.046598945
80718021,80717705,-0.035463087,0.04907149,0.038814336,-2.4390585,9.3022585,-0.5045955
80719358,80719038,-0.01649817,0.03322946,0.043894935,1.201812,4.5651355,0.45967832
80720690,80720371,-0.006179029,-0.0025623008,0.04377645,2.590439,-2.3477623,0.28968802
80721933,80721614,0.0014235198,-0.034052093,0.031072542,3.2644517,-6.938951,-1.890112
80723387,80723069,0.007682491,-0.038959224,0.015893487,3.548424,-6.121809,-3.959289
80724647,80724333,0.006844064,-0.017304543,0.00787683,2.6081684,-1.1607901,-4.3790226
80725967,80725644,-0.00433313,0.010147711,0.0025608204,0.1861436,3.5696273,-4.3013034
80727314,80726982,-0.012909011,0.021613235,-0.0070632203,-1.2080604,4.598021,-4.9437857
80728549,80728234,-0.0039335163,0.013185451,-0.007233817,0.5942665,2.1566029,-3.8283143
80729887,80729568,0.028775208,-0.008514473,0.009154968,5.874527,-1.9027388,-0.264564
80731267,80730943,0.06050151,-0.035917826,0.025125243,9.725177,-5.9789877,2.379298
80732548,80732234,0.06948824,-0.0513201,0.024814392,8.965157,-7.1148944,1.7369982
80733889,80733567,0.045032885,-0.032001987,0.010197199,2.900683,-2.2830837,-1.0589231
80735216,80734898,0.013874005,0.004719957,0.00019706995,-2.7984276,4.2459707,-2.432424
80736546,80736232,-0.0003404261,0.029624637,-0.0009474142,-4.445532,7.3312297,-2.064761
80737885,80737567,0.0028818173,0.024965676,0.00037693878,-2.9269145,4.8736143,-1.4074908
80739216,80738898,0.002156261,-0.005058743,-0.005335311,-2.4477947,-1.1925207,-2.067663
80740550,80740232,-0.010199685,-0.04628079,-0.01502041,-3.9878068,-7.680993,-3.19847
80741839,80741523,-0.029567922,-0.05569484,-0.017776655,-6.284408,-7.3824053,-2.91664
80743128,80742808,-0.029428137,-0.020912807,-0.011516888,-4.7899613,0.050647117,-1.2313415
80744461,80744143,-0.005549917,0.031127313,-0.009956054,0.2286026,8.591919,-0.7531861
80745873,80745558,0.010828597,0.06693805,-0.022979232,2.7802265,12.4723215,-2.7746902
80747154,80746832,-0.006502119,0.057077616,-0.03650788,-0.7811272,7.9506702,-4.3324413
80748452,80748133,-0.041968614,0.0037336708,-0.024659347,-6.4407973,-2.640044,-1.3494555
80749787,80749470,-0.052252024,-0.053916596,-0.007100667,-6.584311,-11.468127,1.7729853
80751121,80750797,-0.026344623,-0.081339516,-0.01608686,-0.806368,-13.323034,-0.19309172
80752447,80752132,0.0050877314,-0.06840372,-0.047055576,4.4915166,-8.15481,-5.25659
80753780,80753466,0.00847609,-0.022650946,-0.06376763,3.9551759,1.2272921,-6.7398434
80755118,80754799,-0.0076798024,0.037951533,-0.055828676,0.42211264,10.905994,-3.919323
80756357,80756042,-0.015947605,0.073109075,-0.056153394,-0.976595,14.125663,-3.193886
80757690,80757375,-0.002815428,0.049423758,-0.07139277,1.465143,6.9319015,-4.99604
80759026,80758709,0.021123372,-0.021577483,-0.07209681,5.0823927,-6.3054647,-3.9429853
80760356,80760041,0.027529882,-0.08505908,-0.056681927,4.933858,-15.239176,-0.53386617
80761697,80761374,0.001069202,-0.09371499,-0.048622664,-0.55928653,-13.108655,0.84762955
80763021,80762707,-0.030100578,-0.052900527,-0.052951522,-5.492074,-3.4457593,-0.06549045
80764360,80764040,-0.032610618,0.009468038,-0.05341321,-4.57291,7.581257,-0.09012495
80765690,80765373,-0.0080661755,0.061683554,-0.040986534,0.5124479,14.399294,2.008682
80767151,80766824,0.013733591,0.071490265,-0.023935685,3.9150927,12.68469,4.366133
80768414,80768094,0.012416338,0.031430118,-0.011365366,2.762675,3.2035475,5.468166
80769688,80769371,-0.003094672,-0.026801266,0.004464993,-0.42289287,-7.0225496,6.8999047
80770975,80770654,-0.01716459,-0.05544664,0.023216082,-2.6177182,-10.040587,8.455995
80772263,80771947,-0.020096129,-0.04105525,0.028627561,-2.5043252,-5.3450956,7.4220247
80773594,80773279,-0.017188558,0.0015753494,0.01493651,-1.4552419,2.8582628,3.5121083
80774926,80774612,-0.011435227,0.045869112,0.002598512,-0.19309,9.462097,0.7591705
80776292,80775977,-0.008316777,0.066159636,0.008003107,0.37413523,10.588401,1.5502697
80777591,80777277,-0.0034442989,0.045869373,0.025605503,1.1082543,4.803644,4.106866
80778929,80778611,0.0060070874,-0.0019769787,0.03924089,2.455515,-4.151507,5.4246078
80780291,80779946,0.024899777,-0.045708925,0.0449475,5.040013,-10.341567,5.15598
80781621,80781277,0.040887613,-0.052937407,0.049395364,6.52643,-9.12266,4.7715135
80782958,80782610,0.044639297,-0.022235481,0.05604911,5.666816,-1.9642761,4.8190155
80784174,80783853,0.03212907,0.03177046,0.0553327,2.334474,7.3533607,3.601003
80785507,80785185,0.014381076,0.06908973,0.042854406,-1.0835803,11.757988,0.73630273
80786866,80786519,0.004920544,0.059777766,0.03219633,-2.347114,7.491407,-1.1318251
80788195,80787854,0.0099449735,0.010988241,0.04285737,-0.9757539,-2.2363055,0.9412344
80789507,80789185,0.019735657,-0.03640466,0.062026277,0.82512915,-9.448151,3.845108
80790937,80790613,0.015899358,-0.04666954,0.056773875,-0.045812313,-8.937341,2.0421474
80792181,80791866,0.0033248947,-0.018534888,0.038960177,-2.0976396,-2.2638083,-1.3071824
80793515,80793196,-0.0010418715,0.03380789,0.037213568,-2.2979124,6.8557005,-1.239853
80794846,80794528,0.008209267,0.0781735,0.045850877,-0.24672462,12.545051,0.4362253
80796108,80795769,0.017029777,0.07350621,0.043135893,1.2177105,8.836946,-0.15890168
80797418,80797102,0.0101268,0.016719552,0.03250654,-0.24460645,-2.5087497,-1.8652173
80798749,80798435,-0.0042625815,-0.04475833,0.030530512,-2.5531085,-11.955018,-1.7382373
80800086,80799770,-0.008478019,-0.06299094,0.036746886,-2.6275403,-12.154709,-0.33276334
80801420,80801101,0.005866958,-0.032496363,0.030419793,0.34754264,-4.374171,-1.3731825
80802754,80802435,0.022291169,0.01905547,0.0052448846,2.9524052,5.0137944,-5.233436
80804160,80803812,0.025667574,0.053874325,-0.015985295,2.796162,9.528824,-7.514854
80805371,80805055,0.012970063,0.056397397,-0.011878901,0.06226035,7.7282896,-5.095358
80806708,80806389,0.008984019,0.02098506,0.010959375,-0.5373402,0.11917004,-0.22333531
80808037,80807722,0.02768715,-0.035171203,0.021033289,2.7050037,-9.107387,1.395725
80809398,80809053,0.048547998,-0.07064612,0.014084314,5.491366,-12.786381,-0.064305894
80810724,80810386,0.042807214,-0.058958504,0.01599602,3.220324,-7.904191,0.3259423
80812176,80811842,0.009969393,-0.012065435,0.027053978,-2.9248915,1.5772324,2.0592394
80813422,80813107,-0.028257942,0.033813156,0.022905147,-8.52658,8.690115,0.8551358
80814687,80814349,-0.04380482,0.04734437,0.00435315,-9.099853,8.868026,-2.389128
80816021,80815682,-0.03554212,0.026067125,-0.0019247609,-5.695478,3.326003,-2.8122396
80817344,80817029,-0.013748733,-0.018834438,0.010556165,-0.8558453,-4.8180885,-0.13901216
80818693,80818378,0.00022565527,-0.05539763,0.005754235,1.5535709,-9.683795,-1.0061644
80819960,80819622,-0.0060561085,-0.061639857,-0.023821529,0.11814402,-8.4717455,-5.6705623
80821307,80820994,-0.024487555,-0.029322198,-0.040950578,-2.9348178,-1.1666819,-7.148207
80822625,80822311,-0.038792185,0.028300248,-0.040254317,-4.6183844,8.575763,-5.4619474
80823955,80823635,-0.052896228,0.0714364,-0.055255227,-5.929871,13.644763,-6.815044
80825282,80824968,-0.0667612,0.059600268,-0.08231176,-6.9030185,8.507163,-9.737184
80826639,80826323,-0.064060576,0.0052837185,-0.083217554,-4.8557816,-2.347001,-7.636404
80827894,80827565,-0.033213604,-0.04238071,-0.060167823,1.3351153,-9.55543,-2.1701746
80829215,80828898,0.00015103677,-0.054998685,-0.056997783,6.4699,-9.4155655,-1.3001444
80830544,80830231,0.0038901414,-0.039032627,-0.08758859,5.548932,-4.669026,-6.1115985
80831895,80831563,-0.011239426,-0.007919446,-0.115257815,1.8483586,1.5051888,-9.211588
80833318,80832950,-0.02083241,0.035077892,-0.10143556,-0.10036743,8.248413,-4.7838335
80834653,80834337,-0.014002921,0.06313993,-0.061142813,1.0913446,10.919547,2.8963442
80835899,80835583,-0.002103363,0.037060324,-0.033591524,2.8050697,4.044805,6.7128644
80837176,80836859,0.007926409,-0.03195014,-0.024532791,3.8257186,-8.220555,6.698311
80838474,80838157,0.008872022,-0.08600782,-0.011533589,3.1140132,-15.1453905,7.4090137
80839809,80839493,0.007431185,-0.08714287,0.0061654737,2.1970885,-11.820711,8.679949
80841163,80840850,0.0035431627,-0.03873375,0.0118409265,1.0650159,-1.1582091,7.655824
80842495,80842156,-0.002384573,0.028334053,0.0079915235,-0.1449962,10.099933,5.356427
80843837,80843491,-0.006698183,0.07195362,0.01579783,-0.78639424,14.889544,5.525872
80845166,80844849,0.005700691,0.056457568,0.03777901,1.4882742,8.878355,7.950512
80846495,80846155,0.021033615,0.0035935172,0.054601174,3.6506994,-1.7892246,8.921821
80847802,80847489,0.022952594,-0.046468142,0.060548063,3.1197367,-9.567477,7.9308476
80849166,80848848,0.006362737,-0.06982937,0.0708493,-0.3472312,-11.177642,7.91513
80850416,80850100,-0.01609183,-0.0471906,0.078909986,-3.9425159,-4.851272,7.4504585
80851750,80851425,-0.029248303,0.014327232,0.07199364,-5.1682224,6.369963,4.6465816
80853094,80852756,-0.01156233,0.0643378,0.06523015,-1.0216713,13.058142,2.54981
80854405,80854089,0.021016771,0.07174633,0.0731815,4.5387034,11.276463,3.3407235
80855735,80855422,0.034966197,0.046628464,0.08873767,5.7368617,4.612658,5.1610293
80857159,80856843,0.021437218,0.0058019455,0.09666126,2.1946805,-3.1351225,5.294096
80858406,80858092,0.002771252,-0.033041596,0.09285996,-1.3087255,-8.773024,3.4639273
80859736,80859419,-0.0014353022,-0.03939041,0.077497825,-1.6690755,-7.750916,0.15312393
80860976,80860660,0.0032289051,-0.0052503664,0.056735646,-0.5327074,-0.3425565,-3.286658
80862309,80861994,0.005588677,0.043134462,0.04016707,-0.04798124,7.663586,-5.2582664
80863640,80863327,0.0075703533,0.0662425,0.03583517,0.2924009,9.657235,-4.7672586
80864975,80864659,0.019280309,0.049150947,0.04355294,2.1861157,4.622747,-2.4362714
80866309,80865993,0.041315854,0.005302216,0.048418973,5.324314,-3.6167915,-1.1473575
80867646,80867330,0.055456918,-0.033019982,0.034588132,6.4190645,-9.043157,-3.2280772
80870310,80869992,0.01673488,-0.026070062,0.0044298987,-2.1104393,-3.792359,-6.1429324
80871651,80871325,-0.008410588,0.0076871947,0.00040236505,-5.758588,2.590024,-5.4634695
80872978,80872658,-0.017854296,0.029021379,-0.008053863,-5.970256,5.4257936,-5.6734242
80874312,80873996,-0.012454252,0.01971638,-0.014266812,-3.7430701,2.5818665,-5.4160643
80875604,80875286,0.0010722093,-0.020853098,-0.0034767438,-0.6724568,-4.7171855,-2.4072433
80876892,80876571,0.013073605,-0.06091942,0.0062417723,1.4177101,-10.210879,-0.34397522
80878266,80877942,0.01793069,-0.07459825,-0.0072186235,1.8866345,-10.092116,-2.5486453
80879629,80879314,0.012743916,-0.04528687,-0.028777655,0.57271636,-2.9202213,-5.5049024
80880900,80880581,-0.0024163367,0.009383228,-0.03745338,-2.0427728,6.72664,-5.670649
80882202,80881887,-0.015663292,0.04964384,-0.036508977,-3.7582254,11.764208,-4.26282
80883538,80883223,-0.016746493,0.053257983,-0.033169247,-3.034967,9.65124,-2.7794504
80884869,80884553,-0.0022151389,0.024735993,-0.03154152,0.030479318,2.7750888,-1.9166594
80886203,80885887,0.009297438,-0.020061443,-0.023190245,1.9109219,-5.2220244,-0.07530392
80887537,80887220,0.014802781,-0.058271114,-0.0073951604,2.3644233,-10.272571,2.5079618
80888892,80888574,0.011108331,-0.05501469,-0.0104675405,1.2379512,-7.3262672,1.3764838
80890133,80889817,0.011966728,-0.0132272765,-0.026102792,1.1301593,1.2275555,-1.4938508
80891474,80891151,0.021874681,0.037567694,-0.033597082,2.5403745,9.2817335,-2.350839
80892796,80892482,0.027422832,0.07014704,-0.031243695,2.8417854,12.512368,-1.4364235
80894135,80893815,0.018277537,0.061910253,-0.029583469,0.69571626,8.240625,-0.869279
80895470,80895150,0.0035760524,0.008534005,-0.035201002,-1.8810157,-2.4240975,-1.6208194
80896803,80896481,-0.009014925,-0.04274954,-0.04018849,-3.5017996,-10.2328825,-2.0523574
80898129,80897814,-0.012162706,-0.05973845,-0.0342769,-3.229999,-10.633382,-0.6043759
80899468,80899147,-0.011432634,-0.034273017,-0.025632083,-2.4085734,-3.9941816,0.9561912
80900705,80900390,-0.013506273,0.011499478,-0.010304533,-2.2173135,4.4135327,3.2884536
80902113,80901798,-0.008916498,0.045555845,0.0064084493,-0.95646155,8.943483,5.287767
80903406,80903084,-0.004318719,0.04893831,0.008063024,0.0031922197,7.41658,4.3378835
80904691,80904374,-0.0049102725,0.017079541,-0.00024696995,-0.110923104,0.43391725,2.0257573
80906020,80905706,-0.011546492,-0.032722995,0.00023642392,-1.2002347,-7.821498,1.7098557
80907359,80907039,-0.022567928,-0.0582341,0.011949767,-2.761214,-10.177144,3.277845
80908689,80908372,-0.030443275,-0.054522302,0.017319871,-3.4252617,-7.2342234,3.371748
80910020,80909705,-0.0320674,-0.026334794,-0.0036196301,-2.932498,-0.94924664,-0.8722511
80911360,80911037,-0.031037262,0.014557259,-0.02293598,-2.0991154,5.9956264,-3.770799
80912690,80912371,-0.023204252,0.047923118,-0.0069634393,-0.32450557,10.068195,-0.20492335
80914018,80913704,-0.012277998,0.051149484,0.024626123,1.5275332,8.257567,5.0151076
80915354,80915037,-0.0021751553,0.013047861,0.040175118,2.8599176,0.058960415,6.384393
80916596,80916281,0.0060437303,-0.04078473,0.03651289,3.5589952,-8.751693,4.3574305
80917935,80917618,0.0046519972,-0.066263445,0.036972206,2.5290267,-10.854928,3.5308282
80919261,80918946,-0.0016512575,-0.041101187,0.041718453,0.9210575,-4.154314,3.4993393
80920593,80920279,-0.015745936,0.0222049,0.030953929,-1.6011212,7.208547,0.905976
80921965,80921647,-0.01725949,0.07528121,0.012973102,-1.4553894,14.214428,-2.2286777
80923389,80923071,-0.0023282834,0.08251798,0.012653784,1.3484561,12.114478,-1.706223
80924656,80924334,0.016580818,0.04809876,0.02661158,4.159274,3.691035,0.94762594
80925926,80925609,0.021926962,-0.007434176,0.026804192,4.0696626,-6.253874,0.71612835
80927234,80926909,0.011841495,-0.047994684,0.021085557,1.5081046,-11.421627,-0.353349
80928566,80928242,0.0029563592,-0.04402136,0.027210237,-0.26592633,-8.074895,0.76155245
80929922,80929576,0.004281253,0.0069904225,0.030887533,0.03933715,2.177512,1.1543756
80931271,80930948,0.015187486,0.062419176,0.018099755,1.8282129,10.732158,-1.257399
80932512,80932198,0.02050272,0.08117264,0.004091371,2.247031,11.282696,-3.2268143
80933846,80933531,0.010940497,0.051238783,0.01578153,0.15647502,3.7486098,-0.5162681
80935179,80934864,-0.00020408817,-0.007220156,0.03202065,-1.6929666,-6.709871,2.209474
80936511,80936197,0.0005530589,-0.054426525,0.02048563,-1.1271241,-12.882593,-0.26218745
80937851,80937530,0.019097695,-0.06710104,-0.004585639,2.2149456,-12.001207,-4.3202868
80939186,80938865,0.04312071,-0.032756936,-0.018221103,5.649045,-3.5777647,-5.555369
80940511,80940196,0.047950413,0.029602936,-0.025858311,5.122645,7.450485,-5.614643
80941849,80941532,0.031578407,0.069501884,-0.04211699,1.2364064,12.210995,-7.065002
80944426,80944109,0.012059321,-0.0043119225,-0.013794613,-1.5114458,-4.270828,0.50954765
80945758,80945442,0.037131604,-0.06119722,0.009064896,2.98068,-12.607951,4.055779
80947138,80946817,0.055344682,-0.085432485,-0.0008993026,5.2479544,-13.659985,1.4300791
80949757,80949440,0.009017203,0.013187358,-0.03952142,-3.9880295,6.907283,-4.458143
80951127,80950773,-0.0117744645,0.0668406,-0.038378276,-6.466701,14.067401,-3.2824996
80952442,80952105,-0.00471175,0.06784257,-0.03753695,-3.8084087,10.953507,-2.437847
80953753,80953438,0.015211121,0.020547142,-0.03938775,0.30894688,0.6856831,-2.2063231
80955115,80954771,0.020761658,-0.035876103,-0.03569038,1.0782937,-8.672879,-1.0856608
80956350,80956014,-6.421073e-05,-0.06126109,-0.030086119,-2.6280446,-10.800839,0.05407529
80957684,80957346,-0.025873866,-0.043337464,-0.03852104,-6.2691393,-5.340278,-1.4061885
80959018,80958680,-0.035942655,0.01188769,-0.06007063,-6.4771886,4.973359,-4.638099
80960381,80960015,-0.025253933,0.06656781,-0.06508613,-3.2616563,12.768346,-4.345911
80961686,80961346,-0.011321793,0.07871222,-0.044788558,-0.27299428,11.790674,-0.0036137863
80963018,80962700,-0.009717704,0.039069086,-0.02453489,0.007384157,2.541447,3.2646296
80964349,80964033,-0.02146443,-0.026743535,-0.023082348,-1.9276434,-8.835477,2.749957
80965682,80965366,-0.026520554,-0.07160455,-0.02041886,-2.2858937,-14.120438,2.611995
80966952,80966608,-0.013234914,-0.06502196,-0.018720206,0.4349448,-9.76836,2.2729077
80968298,80967984,0.002846439,-0.01403955,-0.04137331,2.9454257,0.83438104,-2.0420175
80969629,80969314,0.0037698825,0.043423705,-0.07210965,2.3944502,10.036797,-6.5840826
80971006,80970677,-0.010503768,0.07549969,-0.07149836,-0.48511893,12.970191,-4.9164696
80972265,80971950,-0.01958535,0.059382018,-0.04048192,-1.831717,7.316025,1.2932811
80973572,80973258,-0.015632827,0.00202817,-0.021746494,-0.7369726,-3.7824845,3.9823163
80974908,80974591,-0.0045240717,-0.06139725,-0.024214575,1.2438389,-13.30826,2.68504
80976262,80975948,0.0070561375,-0.09028118,-0.018804321,2.8606348,-14.957561,3.0395496
80977573,80977259,0.0064916033,-0.061092477,-0.005601247,2.07954,-6.701545,4.525647
80978904,80978591,-0.005686214,0.005144768,-0.008151864,-0.37179032,5.666743,3.0366445
80980242,80979925,-0.01683809,0.057073947,-0.024208538,-2.101916,12.831377,-0.26310527
80981488,80981168,-0.017444365,0.06601607,-0.02024237,-1.6905494,11.334239,0.5642913
80982814,80982500,-0.004748064,0.037382156,0.0060251304,0.7746542,4.0638466,4.75641
80984149,80983835,0.008136594,-0.015002187,0.012124118,2.6932154,-5.47386,4.6082673
80985484,80985167,0.009976325,-0.06341558,-0.0023276077,2.3481243,-12.120587,1.2093229
80986820,80986500,-0.002035627,-0.06692874,-0.009280332,-0.16390385,-9.852941,-0.13234282
80988149,80987833,-0.016698917,-0.017720105,-0.0017083231,-2.5109553,0.5134758,1.1543182
80989504,80989166,-0.020731462,0.048147105,0.0025012915,-2.5677776,11.165726,1.5724893
80990877,80990561,-0.008171839,0.0826388,0.0036316693,0.10373604,14.215156,1.4069782
80992176,80991848,0.009654724,0.068772964,0.009159056,2.9805946,8.681201,2.0454822
80993417,80993101,0.016180879,0.022976553,0.02459848,3.3584871,-0.81012964,4.1359873
80994749,80994434,0.011569999,-0.030270496,0.031209473,1.8283801,-9.327432,4.264857
80996106,80995789,0.003563327,-0.056347817,0.023603082,0.12885652,-11.420353,2.0590606
80997416,80997101,0.0071042404,-0.039593607,0.015595055,0.7123497,-6.031964,0.31009388
80998747,80998433,0.017332152,0.0054652584,0.008693637,2.22402,2.7310467,-0.89062524
81000081,80999766,0.021977548,0.04908032,0.003194626,2.4645805,9.229389,-1.5900322
81001414,81001099,0.014345172,0.062173497,5.5353972e-05,0.6227129,9.228486,-1.7461327
81002758,81002438,-0.0017040179,0.03797927,0.008310344,-2.1577117,3.1207404,0.035022948
81003996,81003681,-0.010472336,-0.01008513,0.01834238,-3.0639358,-5.498459,1.6470358
81005328,81005014,-0.004499819,-0.053213105,0.016559808,-1.3630023,-11.305365,0.9544431
81006667,81006349,0.011362677,-0.063149884,0.0076849367,1.5428616,-10.31235,-0.71178687
81007993,81007679,0.01627019,-0.031739153,0.0043781376,1.9447094,-2.7934034,-1.0705718
81009327,81009013,0.0068336437,0.012142893,0.0049976236,-0.08430428,5.013355,-0.726576
81010660,81010346,-0.011762836,0.03901085,0.0045416667,-3.1204708,8.233471,-0.6493371
81012001,81011679,-0.014642946,0.033315748,0.004214401,-2.840953,5.390778,-0.5463967
81013373,81013054,-0.0029526807,0.0006944378,0.00865441,-0.266467,-1.2239183,0.32059485
81014648,81014334,0.016921522,-0.045838524,0.017117986,3.0438666,-8.602169,1.6279496
81017281,81016964,0.0095644165,-0.05032409,0.0071653146,0.4185887,-4.7346754,-0.73125595
81018642,81018327,-0.00014229119,0.010371057,-0.004936548,-1.2379146,6.328953,-2.5227873
81019946,81019629,0.0080217,0.06257146,-0.0012264065,0.4274753,13.426971,-1.3045797
81021277,81020962,0.025692768,0.07733028,0.010681106,3.2352643,12.748691,0.92472094
81022638,81022322,0.032611325,0.044024646,0.0112991985,3.5921881,4.325762,0.77087426
81023886,81023566,0.018006738,-0.019408343,0.00020101201,0.34529445,-7.0687766,-1.2410176
81025257,81024941,-4.379032e-05,-0.06492431,-0.0136922505,-2.67888,-12.850264,-3.2319784
81026548,81026232,-0.002299125,-0.053066492,-0.018479124,-2.3926668,-7.867236,-3.2761126
81027885,81027564,0.014203316,0.0066012423,-0.023754355,0.8460748,3.752363,-3.4504154
81029222,81028897,0.01647834,0.06852303,-0.033768725,0.9609967,13.014045,-4.328468
81030543,81030229,-0.0020784934,0.089226745,-0.040458042,-2.3390293,13.370311,-4.47202
81031890,81031563,-0.024509385,0.052679863,-0.04442774,-5.4585,4.247128,-4.124769
81033210,81032896,-0.021725297,-0.018278798,-0.04206239,-3.709773,-8.357858,-2.8129947
81034679,81034358,-0.0009020129,-0.06447452,-0.03594551,0.5350953,-13.943788,-1.177141
81035890,81035567,0.014671212,-0.06101538,-0.036583886,2.9232547,-10.183026,-1.0862894
81037185,81036862,0.0017148622,-0.025608042,-0.055098478,0.034367282,-2.0613644,-3.911856
81038458,81038142,-0.02888355,0.02261253,-0.058494378,-4.970887,6.3140044,-3.5042317
81039792,81039477,-0.03758365,0.060693163,-0.03901585,-5.2048144,11.108998,0.4796528
81041124,81040808,-0.019675186,0.056903403,-0.032196254,-1.0658938,7.868852,1.4086931
81042459,81042144,-0.003363928,0.0038883877,-0.042636402,1.7916651,-2.6713998,-0.623453
81043790,81043474,-0.0068965545,-0.0626371,-0.035003617,0.7786402,-12.977131,0.87405956
81045133,81044809,-0.014790634,-0.09483271,0.0002655342,-0.6600227,-15.255033,6.5192957
81046458,81046140,-0.014079137,-0.068139166,0.02547669,-0.35060075,-7.353175,9.113344
81047698,81047382,-0.0036177866,-0.0041147536,0.009689336,1.4749388,4.8095307,4.4073596
81049043,81048723,0.0026342545,0.05076085,-0.012388333,2.151518,12.665921,-0.10051383
81050368,81050049,-0.0010480026,0.06858938,-0.0011872065,1.042992,12.69334,1.8674265
81051708,81051381,-0.011544275,0.048415992,0.020740133,-0.9309438,6.4853773,5.031832
81053037,81052723,-0.017131628,-0.00015461294,0.029458264,-1.6005611,-2.9599528,5.3276224
81054379,81054047,-0.0068782773,-0.049387082,0.035677508,0.45829406,-10.329078,5.1993566
81055697,81055381,0.0049702707,-0.06130728,0.04463264,2.2610228,-9.8358965,5.5269275
81057151,81056837,0.0023133424,-0.026437812,0.04897675,1.2797006,-1.8480375,5.0037684
81058398,81058083,-0.00572351,0.025671048,0.04415708,-0.3146299,7.105918,3.0834632
81059651,81059334,-0.007255813,0.060986385,0.037811585,-0.4460179,11.239543,1.393983
81060972,81060657,0.0029737735,0.06210675,0.043713316,1.3770833,8.820514,2.0979192
81062305,81061990,0.013893612,0.029733075,0.05219686,2.861258,1.4711434,3.0070465
81063636,81063323,0.01598039,-0.0201833,0.049893476,2.5491436,-7.0562263,1.9283879
81064973,81064655,0.008781861,-0.05551943,0.041622367,0.7722837,-11.196601,0.15637833
81066311,81065990,-0.002045045,-0.047794096,0.038273178,-1.1702442,-7.311031,-0.40424374
81067667,81067322,-0.0049208486,-0.005976967,0.038401846,-1.3590736,1.214522,-0.2890245
81069000,81068655,-0.00040084636,0.039374407,0.036636755,-0.31612462,8.361829,-0.5268088
81070258,81069942,0.0043475023,0.059162408,0.03528484,0.51009214,9.650356,-0.6155889
81071553,81071230,0.004820564,0.03577678,0.044290587,0.44400808,3.56464,1.0465544
81072906,81072563,0.0025800292,-0.015077896,0.060959224,-0.007301604,-5.5841537,3.5332723
81074238,81073896,0.012825513,-0.05617306,0.054276224,1.7209462,-11.019207,1.5489535
81075572,81075229,0.024357457,-0.055299036,0.029685762,3.2297,-8.304237,-2.8076494
81076912,81076563,0.02662693,-0.013738278,0.020934513,2.869169,0.3953869,-3.5694623
81078244,81077917,0.010897952,0.03025181,0.018550258,-0.3877674,7.462533,-3.1913142
81079627,81079310,-0.013189546,0.048283312,0.009933301,-4.247105,8.680854,-3.927583
81080898,81080581,-0.02369113,0.035193972,0.0031483578,-4.9734755,4.531331,-4.144108
81082153,81081836,-0.011410446,-0.007758167,0.008907103,-1.8106837,-3.560877,-2.2612572
81083486,81083155,0.0057724523,-0.045498356,0.018528298,1.3769426,-8.898902,-0.19763157
81084842,81084527,0.012949408,-0.05459238,0.016711624,2.214453,-8.322765,-0.52195066
81086140,81085825,0.0075818896,-0.029065056,0.0016719152,0.7996062,-2.207828,-2.8861527
81087476,81087158,-0.0012595186,0.015604969,-0.006582124,-0.80383694,5.637325,-3.571217
81088802,81088487,-0.0041637355,0.049801335,-0.011505433,-1.1090205,9.939648,-3.6240895
81090136,81089820,-0.01083548,0.04802804,-0.022007862,-1.9696482,7.332642,-4.5390296
81091477,81091153,-0.018657304,0.00791324,-0.02341406,-2.8248072,-0.9505751,-3.740738
81092822,81092486,-0.026032977,-0.037799146,-0.02145651,-3.3958342,-8.212978,-2.6104193
81094156,81093819,-0.026807526,-0.058899976,-0.031247035,-2.752565,-9.7792425,-3.7065115
81095386,81095066,-0.018931996,-0.04370143,-0.054388296,-0.8233855,-5.0477667,-6.69746
81096712,81096395,-0.003629313,-0.0014396079,-0.066521436,1.872205,3.0604248,-7.155411
81098048,81097728,0.008605021,0.043473266,-0.05786532,3.4262276,9.708854,-4.103007
81099400,81099061,0.008845877,0.05512103,-0.0451547,2.6709425,9.360828,-1.1556826
81100736,81100394,-0.00013014837,0.022447199,-0.046772577,0.59581643,1.8240876,-1.2069262
81102161,81101838,-0.004751742,-0.03354826,-0.047342062,-0.23464496,-7.766493,-0.99119806
81103416,81103096,0.006621939,-0.06497955,-0.035721775,1.7224258,-11.069865,1.1441967
81104705,81104343,0.015809601,-0.047775563,-0.029684775,2.843314,-5.684992,1.8452235
81106016,81105675,0.015953083,-0.0044799587,-0.034044996,2.2187493,2.6872988,0.6986093
81107360,81107008,0.009747081,0.034196913,-0.041552007,0.71831656,8.402117,-0.66797256
81108707,81108391,0.0034785306,0.051872794,-0.03646974,-0.4791945,9.377874,0.3741416
81109977,81109663,0.0034616007,0.037511244,-0.013837173,-0.3504198,4.8437123,4.0500383
81111368,81111039,0.00988599,-0.006582673,0.0066183414,0.7790168,-3.5059924,6.4753833
81112622,81112308,0.013072992,-0.052286595,0.012261382,1.1203502,-10.19367,5.9421754
81113956,81113643,0.0024450645,-0.06739281,0.010005915,-0.91775143,-10.300864,4.261173
81115312,81114997,-0.015208056,-0.038638312,0.01072246,-3.5988855,-3.1971593,3.461194
81116605,81116291,-0.022751607,0.015376929,0.012174243,-4.0281224,6.385175,2.9321408
81117944,81117624,-0.025137518,0.05860942,0.01373633,-3.5407608,11.992661,2.5577066
81119272,81118958,-0.029637435,0.062487245,0.021793688,-3.5136514,9.864224,3.3558786
81120607,81120290,-0.031127436,0.026230112,0.036789265,-2.9368722,1.6567638,5.086347
81121943,81121624,-0.019782888,-0.025801763,0.042175867,-0.3750905,-7.230847,4.78634
81123180,81122866,-0.0059261136,-0.053327125,0.02686932,1.9546046,-10.039483,1.1720016
81124652,81124313,-0.005843873,-0.039389666,0.010917628,1.4690957,-5.4369073,-1.6565639
81125930,81125612,-0.010312371,0.0026937665,0.012076285,0.39761633,2.704379,-1.0497459
81127180,81126858,-0.012826854,0.047037642,0.02119628,-0.09326054,9.354676,0.66951656
81128501,81128188,-0.008516636,0.06487034,0.02088394,0.66155803,10.112189,0.43225098
81129850,81129522,-0.0019565036,0.04000006,0.01313078,1.6198304,3.6948147,-0.9328242
81131177,81130854,0.0058345157,-0.008105753,0.014784638,2.5651948,-5.029475,-0.42374444
81132569,81132254,0.010677952,-0.043719128,0.01907004,2.7793808,-9.689358,0.35620004
81133838,81133522,0.011454515,-0.04518591,0.012681916,2.2645776,-7.6987214,-0.8165034
81135166,81134851,0.010762801,-0.01808697,-0.007493677,1.6375217,-1.5029505,-3.981821
81136508,81136190,0.0065911254,0.018569762,-0.024975471,0.56154627,4.850765,-5.9424872
81137747,81137433,-0.0037176895,0.046742,-0.03455164,-1.2630116,8.36711,-6.2017403
81139084,81138764,-0.019693483,0.04825547,-0.044829722,-3.6189334,6.661187,-6.538742
81140416,81140099,-0.031500734,0.01594044,-0.04521399,-4.6955023,-0.18884955,-5.104766
81141748,81141430,-0.01792533,-0.030896049,-0.025765838,-1.3499296,-7.8577905,-0.7382806
81143088,81142766,0.018050566,-0.06180794,-0.006782841,4.8866234,-11.094732,2.4829192
81144417,81144097,0.0410744,-0.05236124,-0.021391226,7.4575443,-6.978506,-0.61385894
81145759,81145430,0.013230395,-0.011596883,-0.063093826,1.082808,1.3028082,-7.312285
81147130,81146807,-0.03790961,0.028779225,-0.065014035,-7.5235066,7.5931473,-5.8124714
81148463,81148148,-0.054717958,0.04815471,-0.018851297,-8.44387,9.025071,3.1085248
81151046,81150723,0.01793719,-0.021195918,-0.014841439,5.5564,-5.4210877,1.1611607
81152376,81152058,0.011396625,-0.07383279,-0.053829066,3.1134124,-12.817285,-5.410337
81153708,81153391,-0.024485087,-0.08925837,-0.04701545,-3.4819036,-12.3529825,-2.9428713
81155039,81154722,-0.041722596,-0.049705774,-0.016785642,-5.4198804,-3.0019271,2.6504292
81156370,81156055,-0.015498055,0.01693891,-0.018369166,0.19097942,8.60136,1.6555654
81157614,81157297,0.021074224,0.0567614,-0.048776586,6.107902,13.100021,-3.708223
81158945,81158630,0.019095365,0.041768786,-0.052300427,4.279635,7.5847616,-3.3087566
81160290,81159975,-0.026672779,-0.0131654665,-0.01176701,-4.2467246,-3.1714194,4.1618185
81161611,81161296,-0.05872573,-0.06723355,0.01746815,-8.432315,-11.278297,7.894128
81162951,81162629,-0.04088737,-0.0800909,-0.0051924256,-3.5087528,-10.746222,2.286904
81164280,81163964,0.0023304075,-0.049901545,-0.042126015,4.352044,-3.3144135,-4.207589
81165611,81165295,0.018291015,0.007085072,-0.039613277,5.883951,6.8037667,-2.7041817
81166946,81166628,0.00075104006,0.05336172,-0.001663923,1.670674,12.800881,4.15059
81168406,81168089,-0.013914878,0.0571751,0.020296099,-1.0281607,10.44675,6.736427
81169662,81169342,-0.00034298305,0.013336169,0.016956372,1.511696,0.8309432,4.684776
81170971,81170649,0.026909191,-0.046224125,0.023384424,5.635277,-9.096078,4.794347
81172243,81171927,0.03141029,-0.08439791,0.049362093,5.0227675,-13.231998,8.03623
81173552,81173232,0.0025192888,-0.0728055,0.06478117,-0.92388093,-8.247063,8.715869
81174890,81174566,-0.033430923,-0.016386665,0.046099544,-6.563925,2.9059818,3.6377652
81176238,81175922,-0.042795505,0.044142243,0.01955081,-6.5622444,12.127208,-1.4603046
81177484,81177164,-0.03158633,0.0685157,0.028070098,-3.2342472,13.295269,0.39983568
81178812,81178497,-0.017167239,0.041599732,0.061202418,-0.17376548,5.809556,5.747545
81180146,81179831,-0.013230881,-0.015666844,0.06915598,0.47801712,-4.9124403,5.657842
81181481,81181163,-0.011999168,-0.06627442,0.047035933,0.5848926,-12.056847,0.73907316
81182812,81182497,-0.0072639296,-0.074156545,0.03196421,1.2437645,-10.509163,-1.8314266
81184145,81183829,-0.0068822317,-0.02453019,0.032198478,0.9880523,0.11181324,-1.3740581
81185479,81185163,-0.021880675,0.0480717,0.02006406,-1.7579682,11.97476,-3.1455967
81186812,81186495,-0.052121937,0.086032465,0.0006530022,-6.3604326,15.429062,-5.6058035
81188144,81187829,-0.064282164,0.07296997,0.011285712,-6.8496523,9.723902,-2.5019414
81189524,81189208,-0.038099304,0.028992884,0.04144861,-0.9348754,0.32940748,2.9836497
81190874,81190560,0.003969927,-0.018316604,0.047911312,6.1760683,-7.4944215,3.2555137
81192161,81191831,0.032703664,-0.05274793,0.020323502,9.457531,-11.43977,-2.0555456
81193399,81193084,0.041532718,-0.054825686,-0.008208627,8.769458,-9.123194,-6.2252164
81194730,81194416,0.03546232,-0.010849014,-0.011411087,5.803445,0.25043488,-5.320071
81196063,81195748,0.0094769895,0.056707013,-0.01324365,0.18589543,11.27983,-4.5077133
81197400,81197082,-0.024102978,0.085608445,-0.02619731,-5.3359227,13.310674,-5.6312304
81198729,81198414,-0.035705388,0.035151105,-0.010741931,-5.948538,1.8779083,-1.7209231
81200062,81199747,-0.015082968,-0.046124253,0.026799155,-1.2041999,-11.85687,4.792779
81201395,81201079,0.002928851,-0.09213682,0.024891686,1.9402337,-16.618681,3.2288268
81202639,81202323,-0.012789065,-0.07941095,-0.025131531,-1.184415,-10.696409,-5.760139
81203972,81203656,-0.047198318,-0.025496116,-0.058727153,-6.5815372,0.59436435,-9.854845
81205341,81205026,-0.066481926,0.035161156,-0.04452439,-8.1954565,10.374074,-5.245289
81206639,81206323,-0.052924387,0.05800046,-0.024530098,-4.083495,11.655666,-0.89762384
81207977,81207653,-0.03622999,0.022821624,-0.037626583,-0.5033181,3.1237261,-2.9426796
81209306,81208987,-0.04181002,-0.05132937,-0.052830487,-1.3706517,-9.780681,-4.7140284
81210639,81210324,-0.051598154,-0.10606563,-0.040238738,-2.6407175,-16.44914,-1.5413132
81211976,81211653,-0.041264437,-0.09254477,-0.021726772,-0.29360756,-10.379098,1.7975241
81213383,81213059,-0.012206386,-0.024693156,-0.023360226,4.5534973,3.143513,1.0690854
81214671,81214337,0.011192289,0.047285818,-0.031051693,7.355931,14.201321,-0.39722997
81215897,81215581,0.021536754,0.0791894,-0.022318406,7.39079,16.150515,1.190175
81217265,81216940,0.020963863,0.054764133,0.0005515113,5.6892505,8.397562,4.7044563
81218560,81218245,0.02699221,-0.014835568,0.02097886,5.46084,-4.9588723,6.9935794
81219932,81219604,0.039421223,-0.08254751,0.032592062,6.3101583,-14.899497,7.338597
81221251,81220911,0.047170825,-0.10311178,0.034212753,6.157941,-14.831636,5.9498134
81222587,81222244,0.035309874,-0.0756604,0.025427807,2.793154,-6.9382896,3.2058647
81223897,81223577,0.010090338,-0.020421999,0.034928843,-1.9426341,3.695111,4.1741867
81225228,81224911,-0.00079908944,0.036403067,0.074231476,-3.2153811,12.169179,9.765628
81226559,81226243,0.014022766,0.058784228,0.10176677,-0.014243457,13.003053,12.033103
81227827,81227485,0.03053035,0.027809279,0.09360463,2.6479647,4.912739,7.968349
81229135,81228818,0.023959864,-0.027852634,0.07771948,0.8798501,-5.270794,3.6415226
81230477,81230151,-0.0065304628,-0.053355712,0.06725317,-4.381033,-8.154024,1.1325902
81231807,81231484,-0.040487185,-0.038258366,0.051042944,-8.969179,-3.7694468,-1.8149724
81233131,81232817,-0.05528138,0.0006341249,0.024561247,-9.353083,3.491608,-5.7809606
81234468,81234150,-0.04612852,0.039349858,0.005135267,-5.736529,9.024087,-7.6335874
81235885,81235559,-0.021870222,0.047040645,0.014813053,-0.49355507,8.18443,-4.281601
81237215,81236866,-0.0026803622,0.022138981,0.039631434,2.7168074,2.2185316,0.7305292
81238425,81238110,0.012256193,-0.014718366,0.04466311,4.5829825,-4.313678,1.2888113
81239759,81239444,0.028055808,-0.03646408,0.03200563,6.195445,-6.8408604,-1.0645969
81241116,81240776,0.042567417,-0.024083478,0.03226297,7.2087245,-3.2018359,-0.7242745
81243792,81243445,0.03090828,0.033290464,0.027644856,2.3884356,6.1380477,-1.6185584
81245113,81244774,0.019082837,0.028825207,0.0017303434,-0.052388508,3.9642239,-5.4996457
81246438,81246124,0.015692249,0.009360582,-6.944389e-05,-0.57649994,-0.11180259,-4.4708314
81247702,81247366,0.019386698,-0.011393964,0.024531936,0.18100841,-3.4867501,0.58697563
81249055,81248720,0.02786476,-0.0326612,0.039022747,1.5354846,-6.2081056,2.7477233
81250380,81250068,0.030889168,-0.044906896,0.028036823,1.6590607,-6.7751665,0.28988683
81251723,81251402,0.022846391,-0.032807082,0.023983443,-0.051912032,-3.235921,-0.35738972
81252991,81252651,0.01731103,-0.0074408688,0.039699737,-0.93975425,1.6394413,2.3133214
81254313,81254002,0.011940057,0.014841817,0.04545781,-1.6467638,4.885531,2.689848
81255646,81255335,-0.0043110107,0.019850083,0.033166103,-3.9973047,4.570319,0.0331955
81256986,81256671,-0.03583131,0.012644705,0.010476195,-8.346444,2.372935,-3.6978948
81258398,81258082,-0.074236214,-0.004209771,-0.0008179755,-12.801263,-0.91545504,-4.688388
81259651,81259339,-0.097537085,-0.024260202,0.0006257277,-13.769169,-3.9819183,-3.398716
81260968,81260656,-0.09392549,-0.033153944,-0.0018491709,-10.024029,-4.552228,-3.1082063
81262303,81261990,-0.05656834,-0.030765504,-0.02843204,-1.6139954,-3.1511147,-6.902567
81263634,81263322,-0.020067686,-0.014933027,-0.07471057,4.640133,0.16927311,-12.970832
81264889,81264572,-0.017475631,0.019511934,-0.09505884,3.957066,5.8203273,-13.325195
81266207,81265896,-0.029761354,0.046587575,-0.06890138,1.1138461,8.946377,-5.9814444
81267542,81267229,-0.022870323,0.038686886,-0.030361738,2.0896986,5.5735817,1.6070099
81268892,81268572,0.0062787402,-0.0004512315,-0.013267579,6.4589067,-2.1170394,3.9840128
81270207,81269895,0.037490085,-0.043301515,-0.011296646,10.110162,-8.654562,3.4161973
81271548,81271229,0.039377473,-0.06410595,-0.007803889,8.076745,-10.103344,3.255044
81272878,81272564,0.010381535,-0.0550946,-0.008505699,1.4889337,-6.308249,2.3890777
81274273,81273953,-0.020949475,-0.0141436495,-0.018020527,-3.9044282,1.8783032,0.29559672
81275507,81275194,-0.019452097,0.031483356,-0.020521095,-2.6822128,8.899695,-0.13712113
81276844,81276527,0.0073906984,0.042650577,-0.009630676,2.3556638,8.614474,1.7245643
81278188,81277876,0.02756142,8.6867774e-05,0.006560523,5.0722075,-0.4229945,3.997009
81279509,81279195,0.012579695,-0.06365192,0.018909398,1.3732537,-10.775525,5.1389546
81280862,81280548,-0.026906017,-0.09227358,0.027068296,-5.4217467,-12.933597,5.3391514
81282143,81281825,-0.06275752,-0.06318752,0.030663164,-10.066125,-5.144558,4.741601
81283435,81283122,-0.07828314,0.0012471603,0.030453688,-10.344126,6.600991,3.667238
81284800,81284486,-0.07863946,0.056251813,0.035106175,-8.090797,14.073944,3.6564894
81286151,81285838,-0.068804376,0.060825918,0.049438998,-4.683261,11.543258,5.2385693
81287434,81287121,-0.060138598,0.018062383,0.061872337,-2.243869,1.875879,6.084102
81288727,81288413,-0.04310959,-0.045552272,0.0536321,1.0919917,-8.991007,3.3164747
81290087,81289771,-0.0145127885,-0.08634558,0.02917966,5.563875,-13.5445385,-1.4291945
81291440,81291119,0.010345693,-0.06678143,0.018400189,8.383906,-7.160402,-2.8100295
81292724,81292411,0.019694867,-0.002812733,0.026939468,8.019911,4.9929767,-0.76949173
81294058,81293745,0.01640516,0.06061218,0.022252731,5.6974106,14.2117405,-1.4589849
81295436,81295119,0.014507669,0.07506367,-0.0015794991,4.1718683,13.26297,-5.0573306
81296677,81296361,0.027274381,0.034820184,0.00084309373,5.403134,3.618577,-3.3883777
81298007,81297694,0.05119445,-0.023233201,0.047160298,8.161264,-6.692857,5.0479937
81299350,81299028,0.063368514,-0.063838474,0.08462917,8.270865,-11.7758,9.941278
81300679,81300362,0.04332818,-0.06395213,0.066718556,3.0756936,-9.08823,4.652604
81302009,81301695,0.0102259405,-0.026969416,0.023500832,-3.0318124,-0.910133,-3.449357
81303375,81303056,-0.008982862,0.033111494,0.006648237,-5.4354415,9.169199,-5.322784
81304640,81304329,0.000150342,0.07518572,0.017139154,-2.6590166,13.935427,-2.4113438
81305949,81305636,0.022479681,0.06435322,0.019318419,1.5809234,8.912532,-1.5822343
81307282,81306963,0.031925555,0.0046745837,0.00820803,2.7070632,-2.941696,-3.0768497
81308607,81308296,0.016199877,-0.05650483,0.0015107357,-0.5465945,-12.242888,-3.4677508
81309944,81309629,-0.01828569,-0.068233944,0.008613359,-6.145843,-11.263935,-1.494297
81311285,81310962,-0.05496943,-0.013957566,0.024886686,-10.776254,0.29309645,1.493906
81312607,81312295,-0.06805389,0.061501,0.023579028,-10.471447,12.560388,0.8560234
81313941,81313628,-0.050071448,0.09159253,-0.00014016556,-5.126932,14.520356,-3.2558541
81315278,81314964,-0.02220614,0.055680335,-0.016180499,0.535043,5.2671347,-5.101049
81316608,81316295,-0.0061746575,-0.0120283505,-0.006657908,3.0238056,-7.026761,-2.3552787
81317849,81317536,0.0108036725,-0.06611952,0.00026591436,5.14516,-14.25793,-0.7820016
81319183,81318870,0.02733238,-0.081541486,-0.01785354,6.717564,-13.514853,-3.6446064
81320518,81320203,0.036886804,-0.051339835,-0.031627376,6.763815,-5.436489,-5.0174074
81321858,81321536,0.032795876,0.013876357,-0.01605517,4.5840173,6.518076,-1.2923443
81323182,81322868,0.025724415,0.06919395,-0.0050363266,2.4267807,14.043074,0.71018016
81324625,81324313,0.02198684,0.071192876,-0.01677176,1.2969216,11.077276,-1.4035991
81325897,81325579,0.023699192,0.019294402,-0.016548472,1.315768,0.013851818,-0.96815395
81327149,81326833,0.027665434,-0.04265007,0.0069103246,1.6899315,-10.122314,3.1299815
81328463,81328153,0.026679507,-0.075298615,0.01990588,1.131792,-13.12408,4.4775414
81329835,81329520,0.016597228,-0.06489208,0.0037887152,-0.76613075,-8.424697,0.7776298
81331144,81330819,0.012659886,-0.023558306,-0.01662608,-1.1920742,0.2743409,-2.6897101
81332467,81332153,0.02162824,0.027540663,-0.0126349665,0.5752908,8.592525,-1.3679954
81333834,81333519,0.024699563,0.061183933,-0.001868496,0.8903418,12.118695,0.67621964
81335085,81334761,0.011938054,0.042380817,-0.0019725647,-1.44462,6.192324,0.47638875
81336405,81336094,-0.01265368,-0.010322833,-0.0031551053,-5.1866536,-3.8224444,0.2081285
81337741,81337427,-0.030087916,-0.041103512,0.0070482334,-6.8633347,-7.904816,1.8598585
81339079,81338760,-0.040846735,-0.030901201,0.011285733,-7.132408,-4.3797464,2.090689
81340407,81340094,-0.050683126,0.005511076,-0.0033280845,-7.1538844,2.5738835,-0.8215714
81341738,81341425,-0.048337318,0.034829237,-0.02264208,-5.137907,6.7489605,-3.7893915
81343084,81342765,-0.025508478,0.043265652,-0.030697677,-0.19740878,6.570057,-4.245931
81344412,81344097,-0.0014041029,0.028564665,-0.030648258,3.7492018,2.652656,-3.2878404
81345741,81345426,0.006807445,-0.001862685,-0.023693828,4.239845,-2.959698,-1.4027039
81346986,81346668,0.0069037154,-0.03451168,-0.010713562,3.3202686,-7.6108303,1.0570568
81348370,81348059,0.015101067,-0.04288421,0.012621462,3.9863343,-7.2160153,4.6927156
81349646,81349334,0.03332318,-0.023599105,0.032879487,6.105724,-2.3881042,6.9265904
81350986,81350667,0.042405404,0.007511994,0.029525055,6.208802,3.235056,4.7778835
81352315,81352000,0.033972114,0.026424384,0.013337097,3.423525,5.5639963,1.0711471
81353648,81353334,0.017489301,0.023717258,0.00801126,-0.019115852,3.8306284,0.0212284
81354981,81354666,0.009057183,0.0051924773,0.015519088,-1.3523048,-0.07781286,1.2531092
81356311,81355999,0.012005684,-0.014419015,0.0138695855,-0.5314084,-3.27782,0.66436076
81357647,81357333,0.026633857,-0.03088345,0.004097028,2.002449,-5.2271776,-1.0841781
81359005,81358665,0.038328283,-0.03211113,0.0015580341,3.4464464,-4.206181,-1.2130779
81360335,81359999,0.034885913,-0.010134782,0.012099079,2.04561,0.4004183,0.81694627
81361556,81361242,0.014162967,0.021542978,0.026040055,-1.8384393,5.504947,2.9129133
81362921,81362575,-0.010922531,0.040520765,0.03674927,-5.571376,7.32915,4.0311103
81364245,81363922,-0.025118526,0.032991253,0.050204497,-6.6003046,4.3848248,5.360715
81365559,81365241,-0.020763788,0.00901475,0.05217945,-4.4252954,-0.5058563,4.4375796
81366920,81366573,-0.022607988,-0.0027166451,0.039436117,-3.7914772,-2.2437787,1.3631353
81368243,81367919,-0.029120209,0.0033426092,0.027857546,-4.02382,-0.700722,-0.83891445
81369636,81369315,-0.030445749,0.018342864,0.013356103,-3.3125825,1.9285295,-3.0437691
81370974,81370653,-0.011326789,0.02868581,-0.0010512713,0.6107713,3.1416497,-4.738043
81372234,81371919,0.013525584,0.024546407,-0.017063282,4.509207,1.7433335,-6.3451014
81373481,81373160,0.017346244,0.015961554,-0.035298556,4.0472984,-0.057185836,-7.9386296
81374806,81374493,0.0028667506,0.004107101,-0.04498002,0.77704984,-1.9936019,-7.749103
81376143,81375827,-0.00016137515,-0.0058655553,-0.042017702,0.19022608,-3.1424315,-5.541973
81377475,81377159,0.017126568,0.0043760976,-0.04083865,3.0471025,-0.70285416,-4.1722846
81378808,81378492,0.028745556,0.023177242,-0.05347275,4.198695,2.5138264,-5.3741746
81380140,81379825,0.010955497,0.027702322,-0.07084614,0.2657462,2.6199753,-7.035681
81381478,81381158,-0.020317001,0.010342924,-0.078670084,-4.9399605,-0.8524523,-6.74075
81382805,81382492,-0.032594405,-0.007129553,-0.079419926,-5.761481,-3.4914703,-5.3776693
81384141,81383825,-0.011769465,-0.01915775,-0.08408511,-0.97535884,-4.682064,-5.013176
81385495,81385158,0.01378876,-0.029017732,-0.10768598,3.3939776,-5.263763,-7.8488555
81386715,81386400,0.0096207755,-0.03134956,-0.13534968,1.8339537,-4.4778543,-10.642887
81388049,81387733,-0.028083375,-0.02184366,-0.13568057,-4.8478675,-1.8826296,-8.219491
81389380,81389066,-0.06279588,0.0033003606,-0.08987666,-9.386664,2.6713185,1.2503809
81390713,81390399,-0.061240092,0.020466829,-0.033143666,-6.9390264,4.836085,10.190825
81392120,81391797,-0.04244955,0.005703238,-0.025276821,-2.3371909,1.251884,9.073385
