timestamp,timestamp_sample,q[0],q[1],q[2],q[3],delta_q_reset[0],delta_q_reset[1],delta_q_reset[2],delta_q_reset[3],quat_reset_counter
80889447,80889094,0.99735224,0.0062182937,-0.0016388766,-0.07243709,0.9999107,4.088229e-10,-1.9570447e-10,0.013367227,2
81393161,81389356,0.99733645,0.005510013,-0.001828609,-0.0727079,0.9999107,4.088229e-10,-1.9570447e-10,0.013367227,2
81889433,81889068,0.9973699,0.005432518,-0.0018373779,-0.07225263,0.9999107,4.088229e-10,-1.9570447e-10,0.013367227,2
82389458,82389286,0.99735904,0.0060194945,-0.0012437595,-0.0723684,0.9999107,4.088229e-10,-1.9570447e-10,0.013367227,2
82889405,82889068,0.9973649,0.0058985106,-0.0012581256,-0.072297886,0.9999107,4.088229e-10,-1.9570447e-10,0.013367227,2
83389419,83389068,0.9973699,0.005964133,-0.0009378172,-0.07222805,0.9999107,4.088229e-10,-1.9570447e-10,0.013367227,2
83889441,83889193,0.9973873,0.0057733404,-0.0012475767,-0.07199839,0.9999107,4.088229e-10,-1.9570447e-10,0.013367227,2
84389413,84389088,0.9973565,0.005870221,-0.0010706172,-0.07241988,0.9999107,4.088229e-10,-1.9570447e-10,0.013367227,2
84893159,84889528,0.9974041,0.0058002383,-0.0010621651,-0.071765564,0.9999107,4.088229e-10,-1.9570447e-10,0.013367227,2
85389396,85389193,0.9974066,0.008764971,-0.018690502,-0.068948254,0.9999107,4.088229e-10,-1.9570447e-10,0.013367227,2
85893516,85889229,0.99764025,-0.021652423,0.003864813,-0.06504087,0.9999107,4.088229e-10,-1.9570447e-10,0.013367227,2
86389399,86389069,0.99760777,0.04255208,0.026179222,-0.047777895,0.9999107,4.088229e-10,-1.9570447e-10,0.013367227,2
86889403,86889075,0.9992589,0.0127137145,-0.020788422,-0.0297977,0.9999107,4.088229e-10,-1.9570447e-10,0.013367227,2
87389430,87389070,0.997888,-0.028397074,-0.029089818,-0.050665796,0.9999107,4.088229e-10,-1.9570447e-10,0.013367227,2
87889400,87889068,0.99486583,-0.018511677,-0.047293633,-0.08753756,0.9999107,4.088229e-10,-1.9570447e-10,0.013367227,2
88389395,88389193,0.99386597,-0.019154469,-0.061810248,-0.08968374,0.9999107,4.088229e-10,-1.9570447e-10,0.013367227,2
88889395,88889068,0.99182236,0.042001743,-0.009007966,-0.12018016,0.9999107,4.088229e-10,-1.9570447e-10,0.013367227,2
89393128,89389284,0.98677087,0.07751152,0.012747899,-0.14181992,0.9999107,4.088229e-10,-1.9570447e-10,0.013367227,2
89889399,89889194,0.98537076,-0.014036136,0.028541151,-0.16743019,0.9999107,4.088229e-10,-1.9570447e-10,0.013367227,2
90393472,90389258,0.98218834,0.042972,-0.058071427,-0.17345686,0.9999107,4.088229e-10,-1.9570447e-10,0.013367227,2
90889400,90889193,0.97951806,-0.05730741,0.00086356513,-0.19302739,0.9999107,4.088229e-10,-1.9570447e-10,0.013367227,2
91389393,91389068,0.97937506,0.039461862,-0.020194389,-0.19712809,0.9999107,4.088229e-10,-1.9570447e-10,0.013367227,2
91889399,91889193,0.977761,0.025093932,-0.06583114,-0.19753493,0.9999107,4.088229e-10,-1.9570447e-10,0.013367227,2
92389400,92389193,0.9787806,0.0066417763,-0.012564944,-0.2044174,0.9999107,4.088229e-10,-1.9570447e-10,0.013367227,2
92893139,92889375,0.9758104,-0.007745152,-0.0062462697,-0.21839204,0.9999107,4.088229e-10,-1.9570447e-10,0.013367227,2
93389396,93389069,0.9742495,0.058566414,-0.04339853,-0.21336462,0.9999107,4.088229e-10,-1.9570447e-10,0.013367227,2
93889500,93889280,0.97462016,0.02672725,-0.025892073,-0.22075047,0.9999107,4.088229e-10,-1.9570447e-10,0.013367227,2
94389398,94389194,0.9765416,-0.006503418,-0.04081119,-0.21132642,0.9999107,4.088229e-10,-1.9570447e-10,0.013367227,2
94889394,94889068,0.9765389,0.063814744,-0.006416402,-0.20556824,0.9999107,4.088229e-10,-1.9570447e-10,0.013367227,2
95389456,95389194,0.9729105,0.053717047,-0.0146268895,-0.22437853,0.9999107,4.088229e-10,-1.9570447e-10,0.013367227,2
95889426,95889068,0.9708354,0.03271188,0.04736798,-0.23273373,0.9999107,4.088229e-10,-1.9570447e-10,0.013367227,2
96393140,96389431,0.97066283,0.039316244,-0.039119225,-0.23396087,0.9999107,4.088229e-10,-1.9570447e-10,0.013367227,2
96889396,96889193,0.9700222,-0.026555933,-0.042068176,-0.23787,0.9999107,4.088229e-10,-1.9570447e-10,0.013367227,2
97393107,97389270,0.96331096,0.025550062,-0.03572273,-0.26477012,0.9999107,4.088229e-10,-1.9570447e-10,0.013367227,2
97889399,97889069,0.9612581,-0.016405188,-0.061263654,-0.2682545,0.9999107,4.088229e-10,-1.9570447e-10,0.013367227,2
98389432,98389211,0.954365,0.100089625,0.036686428,-0.27896887,0.9999107,4.088229e-10,-1.9570447e-10,0.013367227,2
98889442,98889193,0.9609324,-4.8761347e-05,-0.012708375,-0.27649137,0.9999107,4.088229e-10,-1.9570447e-10,0.013367227,2
99389428,99389079,0.94999874,-0.023043364,-0.056485493,-0.30623648,0.9999107,4.088229e-10,-1.9570447e-10,0.013367227,2
99893121,99889552,0.9449456,0.06791536,0.0016911922,-0.32009786,0.9999107,4.088229e-10,-1.9570447e-10,0.013367227,2
100389469,100389068,0.9469295,0.013967382,0.01689753,-0.32069293,0.9999107,4.088229e-10,-1.9570447e-10,0.013367227,2
100893202,100889443,0.95212257,0.039302845,0.013602403,-0.30287457,0.9999107,4.088229e-10,-1.9570447e-10,0.013367227,2
101389400,101389193,0.9543134,0.028920244,-0.044769567,-0.29401574,0.9999107,4.088229e-10,-1.9570447e-10,0.013367227,2
101889431,101889105,0.95800376,-0.03649425,0.00067319634,-0.2844233,0.9999107,4.088229e-10,-1.9570447e-10,0.013367227,2
102389426,102389193,0.949712,0.05652322,-0.06766,-0.30045706,0.9999107,4.088229e-10,-1.9570447e-10,0.013367227,2
102889401,102889073,0.9480087,0.0096619595,-0.030173648,-0.31666338,0.9999107,4.088229e-10,-1.9570447e-10,0.013367227,2
103389388,103389194,0.94971615,0.037460286,-0.0050006155,-0.31082305,0.9999107,4.088229e-10,-1.9570447e-10,0.013367227,2
103889397,103889068,0.93877864,0.023938373,-0.059347875,-0.33852574,0.9999107,4.088229e-10,-1.9570447e-10,0.013367227,2
104393138,104389496,0.9417047,-0.0055018836,-0.016662706,-0.3359827,0.9999107,4.088229e-10,-1.9570447e-10,0.013367227,2
104889395,104889070,0.9401396,0.037765637,-0.01958657,-0.3381238,0.9999107,4.088229e-10,-1.9570447e-10,0.013367227,2
105393507,105389288,0.9330367,0.078771695,0.032765787,-0.34951985,0.9999107,4.088229e-10,-1.9570447e-10,0.013367227,2
105889395,105889193,0.93387824,0.00059169694,-0.064228036,-0.3517753,0.9999107,4.088229e-10,-1.9570447e-10,0.013367227,2
106389399,106389068,0.92390233,-0.039845586,-0.013239953,-0.38031766,0.9999107,4.088229e-10,-1.9570447e-10,0.013367227,2
106889435,106889194,0.92543244,0.0035258075,0.04786057,-0.37586153,0.9999107,4.088229e-10,-1.9570447e-10,0.013367227,2
107389400,107389069,0.6998505,-0.5235401,0.44874513,-0.18639477,0.9999107,4.088229e-10,-1.9570447e-10,0.013367227,2
