timestamp,timestamp_sample,q[0],q[1],q[2],q[3],delta_q_reset[0],delta_q_reset[1],delta_q_reset[2],delta_q_reset[3],quat_reset_counter
80397707,80397176,0.99751115,0.0056584547,0.00066623476,-0.070279345,0.99999756,-0.00025172863,0.0017616232,0.0013075777,3
80403094,80402508,0.99751437,0.005616404,0.00071838143,-0.070235774,0.99999756,-0.00025172863,0.0017616232,0.0013075777,3
80551423,80550864,0.997551,0.0055789906,0.00049925526,-0.06971792,0.99999756,-0.00025172863,0.0017616232,0.0013075777,3
80599031,80598503,0.9975315,0.0055209086,0.0006711291,-0.070000865,0.99999756,-0.00025172863,0.0017616232,0.0013075777,3
80652151,80651461,0.9975317,0.00556624,0.0005338175,-0.06999502,0.99999756,-0.00025172863,0.0017616232,0.0013075777,3
80699726,80699122,0.9975104,0.005544869,0.0006614864,-0.07029962,0.99999756,-0.00025172863,0.0017616232,0.0013075777,3
80752694,80752132,0.9975232,0.005517705,0.00035066056,-0.07012155,0.99999756,-0.00025172863,0.0017616232,0.0013075777,3
80800322,80799770,0.9975458,0.005547986,0.0003823407,-0.06979764,0.99999756,-0.00025172863,0.0017616232,0.0013075777,3
80848046,80847489,0.9975248,0.005466151,0.00030544345,-0.07010323,0.99999756,-0.00025172863,0.0017616232,0.0013075777,3
80900952,80900390,0.99754196,0.0056003206,0.00047250418,-0.06984553,0.99999756,-0.00025172863,0.0017616232,0.0013075777,3
80948672,80948108,0.99754953,0.0057722707,0.0003960086,-0.069725186,0.99999756,-0.00025172863,0.0017616232,0.0013075777,3
81001626,81001099,0.9975206,0.005666878,0.0006747214,-0.07014235,0.99999756,-0.00025172863,0.0017616232,0.0013075777,3
81049273,81048723,0.9975005,0.0056806416,0.00061957433,-0.070429884,0.99999756,-0.00025172863,0.0017616232,0.0013075777,3
81102364,81101838,0.9975218,0.00559469,0.00037515085,-0.07013497,0.99999756,-0.00025172863,0.0017616232,0.0013075777,3
81150102,81149390,0.9975204,0.005509174,0.0005154974,-0.07016057,0.99999756,-0.00025172863,0.0017616232,0.0013075777,3
81197645,81197082,0.9975274,0.005178743,0.00056274177,-0.07008504,0.99999756,-0.00025172863,0.0017616232,0.0013075777,3
81250687,81250068,0.997561,0.005250378,6.719712e-05,-0.069603294,0.99999756,-0.00025172863,0.0017616232,0.0013075777,3
81298252,81297694,0.99757916,0.0048961183,-0.00011560312,-0.069368,0.99999756,-0.00025172863,0.0017616232,0.0013075777,3
81351226,81350667,0.9975767,0.00498059,5.1338207e-05,-0.069396086,0.99999756,-0.00025172863,0.0017616232,0.0013075777,3
81398906,81398398,0.99753094,0.0047203447,0.000108980195,-0.070069864,0.99999756,-0.00025172863,0.0017616232,0.0013075777,3
81451901,81451320,0.9975768,0.005219428,0.00025424638,-0.06937809,0.99999756,-0.00025172863,0.0017616232,0.0013075777,3
81499685,81499036,0.99757785,0.0049833828,0.0004582579,-0.069378555,0.99999756,-0.00025172863,0.0017616232,0.0013075777,3
81552481,81551973,0.9975692,0.0047837747,0.00041180255,-0.06951672,0.99999756,-0.00025172863,0.0017616232,0.0013075777,3
81600164,81599655,0.9975686,0.0052008196,0.00047320477,-0.06949555,0.99999756,-0.00025172863,0.0017616232,0.0013075777,3
81647881,81647328,0.9975106,0.0050976537,0.000485068,-0.07033099,0.99999756,-0.00025172863,0.0017616232,0.0013075777,3
81700881,81700319,0.99753225,0.0050587244,3.9931947e-05,-0.07002836,0.99999756,-0.00025172863,0.0017616232,0.0013075777,3
81748634,81748089,0.99754745,0.004942832,-4.128179e-05,-0.0698195,0.99999756,-0.00025172863,0.0017616232,0.0013075777,3
81801508,81800967,0.99757266,0.0049301535,7.055178e-05,-0.06945983,0.99999756,-0.00025172863,0.0017616232,0.0013075777,3
81849153,81848610,0.997585,0.004880526,-3.9610186e-05,-0.069285154,0.99999756,-0.00025172863,0.0017616232,0.0013075777,3
81902162,81901610,0.99756676,0.004730987,-8.87874e-05,-0.069557674,0.99999756,-0.00025172863,0.0017616232,0.0013075777,3
81950188,81949314,0.99759233,0.0048067775,4.3056873e-05,-0.06918395,0.99999756,-0.00025172863,0.0017616232,0.0013075777,3
81997478,81996940,0.99759483,0.0050049657,0.00021453148,-0.06913441,0.99999756,-0.00025172863,0.0017616232,0.0013075777,3
82050425,82049873,0.9975748,0.004854912,0.00032223336,-0.069432735,0.99999756,-0.00025172863,0.0017616232,0.0013075777,3
82098167,82097573,0.997585,0.0048990217,0.00047348096,-0.06928182,0.99999756,-0.00025172863,0.0017616232,0.0013075777,3
82151180,82150675,0.9975833,0.004683895,0.0008018655,-0.069317766,0.99999756,-0.00025172863,0.0017616232,0.0013075777,3
82198750,82198225,0.99753726,0.005067878,0.00082511484,-0.06995104,0.99999756,-0.00025172863,0.0017616232,0.0013075777,3
82251771,82251182,0.9975334,0.005121355,0.0006266264,-0.07000344,0.99999756,-0.00025172863,0.0017616232,0.0013075777,3
82299659,82298831,0.99755174,0.005299312,0.00077302544,-0.069726944,0.99999756,-0.00025172863,0.0017616232,0.0013075777,3
82352422,82351832,0.9975407,0.005361992,0.00054079137,-0.06988326,0.99999756,-0.00025172863,0.0017616232,0.0013075777,3
82400062,82399514,0.99754953,0.005421921,0.0005554144,-0.069751754,0.99999756,-0.00025172863,0.0017616232,0.0013075777,3
82447670,82447146,0.9975511,0.005376806,0.0005372176,-0.069733284,0.99999756,-0.00025172863,0.0017616232,0.0013075777,3
82500775,82500178,0.9975618,0.005299758,0.0007548592,-0.0695826,0.99999756,-0.00025172863,0.0017616232,0.0013075777,3
82548425,82547833,0.99754417,0.005363977,0.00059755443,-0.069831915,0.99999756,-0.00025172863,0.0017616232,0.0013075777,3
82601314,82600794,0.997535,0.005354823,0.000857447,-0.0699618,0.99999756,-0.00025172863,0.0017616232,0.0013075777,3
82649077,82648485,0.99755454,0.0053725448,0.00075726403,-0.06968191,0.99999756,-0.00025172863,0.0017616232,0.0013075777,3
82702044,82701472,0.9975422,0.005342428,0.0006214212,-0.069861814,0.99999756,-0.00025172863,0.0017616232,0.0013075777,3
82749681,82749075,0.99754095,0.0051821168,0.00082169246,-0.0698905,0.99999756,-0.00025172863,0.0017616232,0.0013075777,3
82797409,82796862,0.997535,0.005104622,0.00071350194,-0.069981724,0.99999756,-0.00025172863,0.0017616232,0.0013075777,3
82850306,82849785,0.9975521,0.0051691425,0.00045274096,-0.06973557,0.99999756,-0.00025172863,0.0017616232,0.0013075777,3
82897965,82897428,0.9975495,0.0051445635,0.00059112324,-0.06977302,0.99999756,-0.00025172863,0.0017616232,0.0013075777,3
82951075,82950401,0.99754006,0.005148496,0.0003893636,-0.069908924,0.99999756,-0.00025172863,0.0017616232,0.0013075777,3
82998645,82998131,0.9975436,0.0050087054,0.00028328967,-0.06986999,0.99999756,-0.00025172863,0.0017616232,0.0013075777,3
83051547,83051028,0.9975533,0.0050892024,0.00061173656,-0.06972204,0.99999756,-0.00025172863,0.0017616232,0.0013075777,3
83099356,83098760,0.9975733,0.005062741,0.00033879388,-0.06943846,0.99999756,-0.00025172863,0.0017616232,0.0013075777,3
83152334,83151828,0.99756986,0.0051678135,0.0005630371,-0.06947918,0.99999756,-0.00025172863,0.0017616232,0.0013075777,3
83199852,83199337,0.9975631,0.0051452806,0.00055059924,-0.06957877,0.99999756,-0.00025172863,0.0017616232,0.0013075777,3
83252836,83252297,0.9975679,0.005261555,0.0005275765,-0.06950109,0.99999756,-0.00025172863,0.0017616232,0.0013075777,3
83300528,83299994,0.9975612,0.005325212,0.0006704409,-0.06959027,0.99999756,-0.00025172863,0.0017616232,0.0013075777,3
83348256,83347669,0.9975403,0.0052565658,0.0007103047,-0.06989476,0.99999756,-0.00025172863,0.0017616232,0.0013075777,3
83401198,83400658,0.9975424,0.005229187,0.0006378808,-0.06986703,0.99999756,-0.00025172863,0.0017616232,0.0013075777,3
83448873,83448325,0.9975461,0.0051005585,0.00076561904,-0.0698234,0.99999756,-0.00025172863,0.0017616232,0.0013075777,3
83501940,83501349,0.9975324,0.0051019397,0.0004983183,-0.0700211,0.99999756,-0.00025172863,0.0017616232,0.0013075777,3
83549608,83548960,0.9975318,0.0049700183,0.00042112515,-0.0700397,0.99999756,-0.00025172863,0.0017616232,0.0013075777,3
83602460,83601939,0.9975416,0.004822564,0.00031657095,-0.06991042,0.99999756,-0.00025172863,0.0017616232,0.0013075777,3
83650223,83649662,0.9975746,0.0049634688,0.00025678147,-0.06942852,0.99999756,-0.00025172863,0.0017616232,0.0013075777,3
83697853,83697319,0.997633,0.0050291503,0.00029194026,-0.06858001,0.99999756,-0.00025172863,0.0017616232,0.0013075777,3
83750868,83750270,0.9976072,0.0048606745,0.00045063056,-0.06896538,0.99999756,-0.00025172863,0.0017616232,0.0013075777,3
83798605,83798060,0.9975452,0.0048845313,0.00023014436,-0.06985499,0.99999756,-0.00025172863,0.0017616232,0.0013075777,3
83851466,83850904,0.99755776,0.0049391184,0.0004718693,-0.06967089,0.99999756,-0.00025172863,0.0017616232,0.0013075777,3
83899088,83898571,0.99757147,0.004970384,0.00035169866,-0.069472395,0.99999756,-0.00025172863,0.0017616232,0.0013075777,3
83952163,83951563,0.99756896,0.00472123,0.0002897944,-0.06952638,0.99999756,-0.00025172863,0.0017616232,0.0013075777,3
83999855,83999312,0.99757415,0.004471725,0.0004685435,-0.069467634,0.99999756,-0.00025172863,0.0017616232,0.0013075777,3
84052735,84052214,0.99758816,0.004689186,0.00038511527,-0.06925223,0.99999756,-0.00025172863,0.0017616232,0.0013075777,3
84100506,84099950,0.9976204,0.004698172,0.00028346962,-0.06878661,0.99999756,-0.00025172863,0.0017616232,0.0013075777,3
84148184,84147569,0.99760336,0.0047565578,0.0004091448,-0.069027916,0.99999756,-0.00025172863,0.0017616232,0.0013075777,3
84201061,84200546,0.99758947,0.004949287,0.00032592358,-0.06921542,0.99999756,-0.00025172863,0.0017616232,0.0013075777,3
84248841,84248221,0.9975447,0.004923487,0.00053957856,-0.06985736,0.99999756,-0.00025172863,0.0017616232,0.0013075777,3
84301715,84301184,0.9975543,0.004917397,0.0004240324,-0.06972167,0.99999756,-0.00025172863,0.0017616232,0.0013075777,3
84350004,84348819,0.9975474,0.004977252,0.00047495877,-0.06981552,0.99999756,-0.00025172863,0.0017616232,0.0013075777,3
84402372,84401828,0.9975061,0.004951638,0.00014019765,-0.07040647,0.99999756,-0.00025172863,0.0017616232,0.0013075777,3
84450089,84449528,0.9975344,0.004932516,9.348507e-05,-0.070007,0.99999756,-0.00025172863,0.0017616232,0.0013075777,3
84497681,84497161,0.9976147,0.0047766953,-0.000111539965,-0.06886389,0.99999756,-0.00025172863,0.0017616232,0.0013075777,3
84550776,84550128,0.9976158,0.004555179,-0.00027211584,-0.06886128,0.99999756,-0.00025172863,0.0017616232,0.0013075777,3
84598391,84597789,0.99761105,0.0045797694,-0.0003032914,-0.06892793,0.99999756,-0.00025172863,0.0017616232,0.0013075777,3
84651388,84650799,0.99758244,0.0049289395,9.748749e-05,-0.06931798,0.99999756,-0.00025172863,0.0017616232,0.0013075777,3
84698994,84698456,0.9975836,0.004773426,6.557202e-05,-0.06931328,0.99999756,-0.00025172863,0.0017616232,0.0013075777,3
84752019,84751392,0.99758863,0.0046736635,0.00030346125,-0.06924652,0.99999756,-0.00025172863,0.0017616232,0.0013075777,3
84799702,84799119,0.99755794,0.004944953,0.00019668667,-0.06966851,0.99999756,-0.00025172863,0.0017616232,0.0013075777,3
84852632,84852050,0.99757445,0.0049111815,0.000111120564,-0.06943512,0.99999756,-0.00025172863,0.0017616232,0.0013075777,3
84900257,84899742,0.99756277,0.0049139927,0.00023047726,-0.06960186,0.99999756,-0.00025172863,0.0017616232,0.0013075777,3
84948005,84947432,0.99757487,0.0047804224,0.00019702673,-0.069437176,0.99999756,-0.00025172863,0.0017616232,0.0013075777,3
85000968,85000390,0.9975673,0.0049664327,0.00013809293,-0.06953267,0.99999756,-0.00025172863,0.0017616232,0.0013075777,3
85048639,85048111,0.9975739,0.004801513,0.00024399081,-0.06944966,0.99999756,-0.00025172863,0.0017616232,0.0013075777,3
85101613,85101065,0.99755824,0.0048640077,-3.5607434e-05,-0.06967033,0.99999756,-0.00025172863,0.0017616232,0.0013075777,3
85149281,85148747,0.99755985,0.0047547505,0.00010278836,-0.069655515,0.99999756,-0.00025172863,0.0017616232,0.0013075777,3
85202183,85201635,0.9975842,0.0048520863,-0.000115475006,-0.06929747,0.99999756,-0.00025172863,0.0017616232,0.0013075777,3
85249911,85249331,0.9976144,0.0052074846,-0.001291413,-0.06882494,0.99999756,-0.00025172863,0.0017616232,0.0013075777,3
85297580,85297059,0.9976161,0.004770512,-0.0026753107,-0.06879187,0.99999756,-0.00025172863,0.0017616232,0.0013075777,3
85350536,85349995,0.99741095,0.0061561815,-0.018678984,-0.06917094,0.99999756,-0.00025172863,0.0017616232,0.0013075777,3
85398288,85397692,0.9976134,0.0074902805,-0.015070975,-0.06696562,0.99999756,-0.00025172863,0.0017616232,0.0013075777,3
85451210,85450680,0.99763334,-0.004040241,0.0033036468,-0.0685598,0.99999756,-0.00025172863,0.0017616232,0.0013075777,3
85498837,85498320,0.99755263,-0.004688429,0.00022225594,-0.069762066,0.99999756,-0.00025172863,0.0017616232,0.0013075777,3
85551966,85551351,0.9978625,0.006650708,-0.00013008073,-0.065010026,0.99999756,-0.00025172863,0.0017616232,0.0013075777,3
85599671,85598995,0.99774265,0.0043839263,0.0008731274,-0.06700483,0.99999756,-0.00025172863,0.0017616232,0.0013075777,3
85652432,85651919,0.9977445,0.012248714,0.0044895103,-0.06584666,0.99999756,-0.00025172863,0.0017616232,0.0013075777,3
85700106,85699561,0.99779046,-0.0019842777,0.009385874,-0.06574392,0.99999756,-0.00025172863,0.0017616232,0.0013075777,3
85747750,85747234,0.99788606,-0.008421118,0.006600815,-0.06410154,0.99999756,-0.00025172863,0.0017616232,0.0013075777,3
85800802,85800239,0.9978403,0.020500509,0.0030945581,-0.062329054,0.99999756,-0.00025172863,0.0017616232,0.0013075777,3
85848542,85847925,0.9980726,0.0013300158,0.0026646603,-0.06198667,0.99999756,-0.00025172863,0.0017616232,0.0013075777,3
85901396,85900885,0.99772197,-0.019857187,0.0042507793,-0.06433169,0.99999756,-0.00025172863,0.0017616232,0.0013075777,3
85949088,85948572,0.99773395,0.01706967,0.0013458544,-0.065067805,0.99999756,-0.00025172863,0.0017616232,0.0013075777,3
86002143,86001556,0.997795,0.010644401,0.0019088368,-0.06548526,0.99999756,-0.00025172863,0.0017616232,0.0013075777,3
86050015,86049188,0.99707186,-0.039817963,0.012029528,-0.064168476,0.99999756,-0.00025172863,0.0017616232,0.0013075777,3
86097402,86096890,0.997492,-0.027678221,0.020139398,-0.061951704,0.99999756,-0.00025172863,0.0017616232,0.0013075777,3
86150395,86149849,0.997678,0.031875223,0.024057085,-0.055170897,0.99999756,-0.00025172863,0.0017616232,0.0013075777,3
86198085,86197520,0.99781567,0.023718856,0.03193811,-0.05273907,0.99999756,-0.00025172863,0.0017616232,0.0013075777,3
86251169,86250560,0.99806935,-0.026005223,0.012248069,-0.055057526,0.99999756,-0.00025172863,0.0017616232,0.0013075777,3
86298718,86298180,0.9985018,0.0062435726,-0.0023891465,-0.05431017,0.99999756,-0.00025172863,0.0017616232,0.0013075777,3
86351716,86351168,0.99692965,0.06101157,0.007733554,-0.048468087,0.99999756,-0.00025172863,0.0017616232,0.0013075777,3
86399797,86398828,0.99809074,0.02774843,0.029284602,-0.04676963,0.99999756,-0.00025172863,0.0017616232,0.0013075777,3
86452354,86451831,0.9982957,-0.030958911,0.017978886,-0.046087492,0.99999756,-0.00025172863,0.0017616232,0.0013075777,3
86499958,86499429,0.9990047,0.0010696895,0.0088768955,-0.04370125,0.99999756,-0.00025172863,0.0017616232,0.0013075777,3
86547698,86547150,0.99821377,0.04391802,0.0035385133,-0.040348914,0.99999756,-0.00025172863,0.0017616232,0.0013075777,3
86600688,86600115,0.99901074,0.0025389637,-0.010230448,-0.043203652,0.99999756,-0.00025172863,0.0017616232,0.0013075777,3
86648299,86647735,0.9986039,-0.022672605,-0.014573018,-0.04543025,0.99999756,-0.00025172863,0.0017616232,0.0013075777,3
86701334,86700764,0.9986227,0.034301348,-0.0064284,-0.039178148,0.99999756,-0.00025172863,0.0017616232,0.0013075777,3
86748935,86748418,0.997979,0.05255036,0.017058518,-0.0313946,0.99999756,-0.00025172863,0.0017616232,0.0013075777,3
86801937,86801373,0.9993272,-0.00079131173,0.015603031,-0.033184674,0.99999756,-0.00025172863,0.0017616232,0.0013075777,3
86849711,86849066,0.999152,-0.025828924,-0.016651906,-0.027404446,0.99999756,-0.00025172863,0.0017616232,0.0013075777,3
86897369,86896855,0.99924964,0.021749021,-0.016625755,-0.02740192,0.99999756,-0.00025172863,0.0017616232,0.0013075777,3
86950237,86949720,0.9984232,0.051040996,0.003867815,-0.02304372,0.99999756,-0.00025172863,0.0017616232,0.0013075777,3
86997972,86997423,0.9995579,0.009554806,0.002443724,-0.028049905,0.99999756,-0.00025172863,0.0017616232,0.0013075777,3
87050956,87050345,0.9994065,-0.018853968,-0.0010107288,-0.028812291,0.99999756,-0.00025172863,0.0017616232,0.0013075777,3
87098680,87098082,0.9991745,0.025567489,0.009323064,-0.03016486,0.99999756,-0.00025172863,0.0017616232,0.0013075777,3
87151633,87151087,0.99888283,0.031485245,0.006658906,-0.0346034,0.99999756,-0.00025172863,0.0017616232,0.0013075777,3
87199233,87198692,0.9989255,-0.01082227,-0.010171452,-0.043901153,0.99999756,-0.00025172863,0.0017616232,0.0013075777,3
87252237,87251638,0.998911,0.010876135,-0.011021021,-0.044011433,0.99999756,-0.00025172863,0.0017616232,0.0013075777,3
87299906,87299329,0.99816555,0.041188985,-0.008039992,-0.043638363,0.99999756,-0.00025172863,0.0017616232,0.0013075777,3
87352785,87352269,0.9986131,-0.002308215,-0.017695026,-0.049532693,0.99999756,-0.00025172863,0.0017616232,0.0013075777,3
87400539,87399972,0.9980291,-0.027656158,-0.028442323,-0.048621763,0.99999756,-0.00025172863,0.0017616232,0.0013075777,3
87448214,87447621,0.99843293,0.011666463,-0.025823807,-0.048257086,0.99999756,-0.00025172863,0.0017616232,0.0013075777,3
87501106,87500592,0.9983372,0.026304184,-0.014389037,-0.049233757,0.99999756,-0.00025172863,0.0017616232,0.0013075777,3
87548886,87548327,0.998162,-0.012477712,-0.021903576,-0.055110928,0.99999756,-0.00025172863,0.0017616232,0.0013075777,3
87601791,87601231,0.99738,-0.0150183225,-0.03407027,-0.062022824,0.99999756,-0.00025172863,0.0017616232,0.0013075777,3
87649548,87648939,0.9968804,0.015962,-0.02914596,-0.071590126,0.99999756,-0.00025172863,0.0017616232,0.0013075777,3
87702438,87701889,0.9960898,0.0008854469,-0.025344577,-0.0846291,0.99999756,-0.00025172863,0.0017616232,0.0013075777,3
87750495,87749598,0.99480456,-0.009017008,-0.04224933,-0.09218275,0.99999756,-0.00025172863,0.0017616232,0.0013075777,3
87797767,87797252,0.99391097,0.020431217,-0.05083721,-0.0955998,0.99999756,-0.00025172863,0.0017616232,0.0013075777,3
87850895,87850228,0.99382144,0.0099655315,-0.047028936,-0.10003989,0.99999756,-0.00025172863,0.0017616232,0.0013075777,3
87898549,87897937,0.9923964,-0.024165759,-0.04345162,-0.112594284,0.99999756,-0.00025172863,0.0017616232,0.0013075777,3
87951413,87950884,0.9933553,-0.007035204,-0.035818767,-0.10914594,0.99999756,-0.00025172863,0.0017616232,0.0013075777,3
87999117,87998571,0.9933992,-0.0086425785,-0.04182998,-0.10645954,0.99999756,-0.00025172863,0.0017616232,0.0013075777,3
88052113,88051514,0.99220115,-0.02876717,-0.055292208,-0.10794496,0.99999756,-0.00025172863,0.0017616232,0.0013075777,3
88099818,88099299,0.9917832,-0.012893609,-0.059505906,-0.11251237,0.99999756,-0.00025172863,0.0017616232,0.0013075777,3
88152716,88152174,0.99122864,-0.014798396,-0.06240659,-0.11555207,0.99999756,-0.00025172863,0.0017616232,0.0013075777,3
88200345,88199831,0.99148875,-0.013001286,-0.062287573,-0.113584824,0.99999756,-0.00025172863,0.0017616232,0.0013075777,3
88248023,88247481,0.9924683,0.003841489,-0.048873458,-0.112265185,0.99999756,-0.00025172863,0.0017616232,0.0013075777,3
88301093,88300555,0.99241763,-0.01126172,-0.059951007,-0.10670763,0.99999756,-0.00025172863,0.0017616232,0.0013075777,3
88348665,88348143,0.99144894,-0.017138187,-0.07490142,-0.105475314,0.99999756,-0.00025172863,0.0017616232,0.0013075777,3
88401601,88401079,0.99249214,-0.020766823,-0.054612704,-0.10745052,0.99999756,-0.00025172863,0.0017616232,0.0013075777,3
88449694,88448843,0.99309886,-0.005183716,-0.049385883,-0.10624949,0.99999756,-0.00025172863,0.0017616232,0.0013075777,3
88502367,88501848,0.9935362,0.0027446484,-0.03566593,-0.10773259,0.99999756,-0.00025172863,0.0017616232,0.0013075777,3
88549933,88549422,0.9939974,0.0071360557,-0.025420766,-0.10617012,0.99999756,-0.00025172863,0.0017616232,0.0013075777,3
88597639,88597091,0.99339145,0.011586367,-0.023344742,-0.11177751,0.99999756,-0.00025172863,0.0017616232,0.0013075777,3
88650679,88650055,0.992625,0.011256441,-0.028221583,-0.117357,0.99999756,-0.00025172863,0.0017616232,0.0013075777,3
88698355,88697762,0.9922275,0.013731745,-0.023378417,-0.1214473,0.99999756,-0.00025172863,0.0017616232,0.0013075777,3
88751259,88750721,0.99211884,0.022908071,-0.01589241,-0.122159965,0.99999756,-0.00025172863,0.0017616232,0.0013075777,3
88798913,88798394,0.9915634,0.03209622,-0.0027478808,-0.12555689,0.99999756,-0.00025172863,0.0017616232,0.0013075777,3
88851951,88851341,0.9903499,0.03917809,-0.0015765242,-0.13292776,0.99999756,-0.00025172863,0.0017616232,0.0013075777,3
88899662,88899044,0.9898081,0.038894136,-0.008833887,-0.13670836,0.99999756,-0.00025172863,0.0017616232,0.0013075777,3
88952531,88952020,0.9902165,0.028612388,-0.016328294,-0.13559519,0.99999756,-0.00025172863,0.0017616232,0.0013075777,3
89000196,88999649,0.98997265,0.033058364,-0.019707596,-0.13591577,0.99999756,-0.00025172863,0.0017616232,0.0013075777,3
89047922,89047403,0.989679,0.019102411,-0.010365981,-0.14164452,0.99999756,-0.00025172863,0.0017616232,0.0013075777,3
89100938,89100367,0.9888866,0.03224155,-0.0042697196,-0.14507098,0.99999756,-0.00025172863,0.0017616232,0.0013075777,3
89148609,89148060,0.98884135,0.025545582,-0.002093271,-0.14675136,0.99999756,-0.00025172863,0.0017616232,0.0013075777,3
89201472,89200948,0.98851436,0.030028908,-0.0032007778,-0.14807868,0.99999756,-0.00025172863,0.0017616232,0.0013075777,3
89249145,89248631,0.987046,0.056284424,-0.01706876,-0.14926782,0.99999756,-0.00025172863,0.0017616232,0.0013075777,3
89302209,89301629,0.9874448,0.017741961,-0.011959771,-0.15650831,0.99999756,-0.00025172863,0.0017616232,0.0013075777,3
89350162,89349352,0.9866838,0.03480977,0.003596051,-0.15884098,0.99999756,-0.00025172863,0.0017616232,0.0013075777,3
89397492,89396972,0.9838898,0.08418713,0.01908568,-0.15655443,0.99999756,-0.00025172863,0.0017616232,0.0013075777,3
89450592,89449988,0.98372275,0.07080411,0.052365303,-0.15663463,0.99999756,-0.00025172863,0.0017616232,0.0013075777,3
89498179,89497615,0.98595446,0.02238511,0.045419578,-0.15915354,0.99999756,-0.00025172863,0.0017616232,0.0013075777,3
89551180,89550652,0.9857187,0.03883621,0.004217437,-0.16380683,0.99999756,-0.00025172863,0.0017616232,0.0013075777,3
89598797,89598246,0.9823347,0.08199746,-0.022413893,-0.16671114,0.99999756,-0.00025172863,0.0017616232,0.0013075777,3
89651805,89651266,0.98353446,0.053220898,-0.023560783,-0.17109188,0.99999756,-0.00025172863,0.0017616232,0.0013075777,3
89699762,89698905,0.98351574,0.014926969,-0.00912315,-0.17997468,0.99999756,-0.00025172863,0.0017616232,0.0013075777,3
89752469,89751922,0.9819607,0.053733304,0.00015245719,-0.1812896,0.99999756,-0.00025172863,0.0017616232,0.0013075777,3
89800058,89799536,0.9816382,0.05819958,0.016450465,-0.1809109,0.99999756,-0.00025172863,0.0017616232,0.0013075777,3
89847766,89847238,0.9826184,0.0008759843,0.03358877,-0.18257096,0.99999756,-0.00025172863,0.0017616232,0.0013075777,3
89900768,89900174,0.98255455,-0.0038627908,0.028772036,-0.183695,0.99999756,-0.00025172863,0.0017616232,0.0013075777,3
89948547,89947922,0.98072314,0.060307477,0.014184955,-0.1853211,0.99999756,-0.00025172863,0.0017616232,0.0013075777,3
90001345,90000826,0.9799608,0.07583476,0.02246533,-0.18281528,0.99999756,-0.00025172863,0.0017616232,0.0013075777,3
90049178,90048571,0.9809183,0.014431639,0.040048085,-0.18970296,0.99999756,-0.00025172863,0.0017616232,0.0013075777,3
90102089,90101523,0.9798122,-0.0075187264,0.056664504,-0.19157422,0.99999756,-0.00025172863,0.0017616232,0.0013075777,3
90150748,90149163,0.97997236,0.040746316,0.042301945,-0.19027515,0.99999756,-0.00025172863,0.0017616232,0.0013075777,3
90197408,90196862,0.979812,0.057799716,0.023484945,-0.18993744,0.99999756,-0.00025172863,0.0017616232,0.0013075777,3
90250376,90249846,0.9810504,-0.015332208,0.008725294,-0.1929482,0.99999756,-0.00025172863,0.0017616232,0.0013075777,3
90298042,90297458,0.9794494,-0.050924387,-0.016344393,-0.19446953,0.99999756,-0.00025172863,0.0017616232,0.0013075777,3
90351071,90350447,0.9792882,0.0063042887,-0.04932883,-0.19626895,0.99999756,-0.00025172863,0.0017616232,0.0013075777,3
90398642,90398120,0.97854525,0.04490095,-0.05488795,-0.19344366,0.99999756,-0.00025172863,0.0017616232,0.0013075777,3
90451629,90451057,0.97862035,0.0046581733,-0.03501707,-0.2026189,0.99999756,-0.00025172863,0.0017616232,0.0013075777,3
90499371,90498793,0.9778546,-0.00070216245,-0.022616653,-0.20805854,0.99999756,-0.00025172863,0.0017616232,0.0013075777,3
90552344,90551799,0.9769053,0.058200102,-0.024771955,-0.20409638,0.99999756,-0.00025172863,0.0017616232,0.0013075777,3
90600015,90599443,0.977802,0.058411196,-0.009287815,-0.20101029,0.99999756,-0.00025172863,0.0017616232,0.0013075777,3
90652897,90652369,0.97957987,-0.023551881,0.0070595825,-0.1995466,0.99999756,-0.00025172863,0.0017616232,0.0013075777,3
90700598,90700030,0.97917986,-0.05098131,-0.004048626,-0.19644693,0.99999756,-0.00025172863,0.0017616232,0.0013075777,3
90748303,90747708,0.9791647,0.0005092586,-0.023584327,-0.20169315,0.99999756,-0.00025172863,0.0017616232,0.0013075777,3
90801182,90800667,0.97798115,0.038579613,-0.029716883,-0.2029321,0.99999756,-0.00025172863,0.0017616232,0.0013075777,3
90848896,90848379,0.9781706,-0.013653257,-0.01565462,-0.20676292,0.99999756,-0.00025172863,0.0017616232,0.0013075777,3
90902002,90901363,0.9754681,-0.05871046,0.0061908187,-0.21207722,0.99999756,-0.00025172863,0.0017616232,0.0013075777,3
90949640,90949014,0.9767773,-0.008139538,0.00960393,-0.21388695,0.99999756,-0.00025172863,0.0017616232,0.0013075777,3
91002508,91001990,0.9754393,0.05028953,0.002147873,-0.21443984,0.99999756,-0.00025172863,0.0017616232,0.0013075777,3
91050245,91049704,0.9766287,0.014285702,0.012145362,-0.21411383,0.99999756,-0.00025172863,0.0017616232,0.0013075777,3
91097870,91097352,0.9757849,-0.048834328,0.013711806,-0.21277028,0.99999756,-0.00025172863,0.0017616232,0.0013075777,3
91150918,91150322,0.9764265,-0.021045202,-0.004929832,-0.21476546,0.99999756,-0.00025172863,0.0017616232,0.0013075777,3
91198587,91198043,0.9761997,0.016626423,-0.01676696,-0.21558437,0.99999756,-0.00025172863,0.0017616232,0.0013075777,3
91251513,91250993,0.9748115,-0.020278748,-0.011902985,-0.22178726,0.99999756,-0.00025172863,0.0017616232,0.0013075777,3
91299179,91298660,0.97465646,-0.00587276,-0.019328652,-0.22279301,0.99999756,-0.00025172863,0.0017616232,0.0013075777,3
91352174,91351588,0.97442377,0.050330155,-0.030737013,-0.21684186,0.99999756,-0.00025172863,0.0017616232,0.0013075777,3
91399849,91399342,0.9755957,0.029687133,-0.01563852,-0.21699592,0.99999756,-0.00025172863,0.0017616232,0.0013075777,3
91452807,91452266,0.97545946,-0.0055802977,-0.0016240928,-0.22010253,0.99999756,-0.00025172863,0.0017616232,0.0013075777,3
91500509,91499973,0.9757265,0.04055448,-0.005173319,-0.21514282,0.99999756,-0.00025172863,0.0017616232,0.0013075777,3
91548150,91547590,0.97566974,0.0673257,0.014913145,-0.20811921,0.99999756,-0.00025172863,0.0017616232,0.0013075777,3
91601167,91600580,0.97682446,0.016746905,0.04133414,-0.2093447,0.99999756,-0.00025172863,0.0017616232,0.0013075777,3
91648775,91648259,0.9773851,-0.010198074,0.031466957,-0.20886397,0.99999756,-0.00025172863,0.0017616232,0.0013075777,3
91701785,91701247,0.97631365,0.046884913,0.0022048526,-0.21120767,0.99999756,-0.00025172863,0.0017616232,0.0013075777,3
91750006,91748893,0.9754982,0.06688595,-0.00968776,-0.2093697,0.99999756,-0.00025172863,0.0017616232,0.0013075777,3
91802385,91801861,0.97682875,0.00044632255,-0.017904967,-0.21327177,0.99999756,-0.00025172863,0.0017616232,0.0013075777,3
91850047,91849525,0.97577477,-0.018980043,-0.04231482,-0.21380563,0.99999756,-0.00025172863,0.0017616232,0.0013075777,3
91897755,91897162,0.9737178,0.03741183,-0.06936466,-0.21368836,0.99999756,-0.00025172863,0.0017616232,0.0013075777,3
91950804,91950184,0.973092,0.07331847,-0.07133521,-0.2064648,0.99999756,-0.00025172863,0.0017616232,0.0013075777,3
91998485,91997873,0.9750166,0.020466443,-0.04959018,-0.21555677,0.99999756,-0.00025172863,0.0017616232,0.0013075777,3
92051393,92050818,0.9740052,-0.020341309,-0.014127786,-0.2251678,0.99999756,-0.00025172863,0.0017616232,0.0013075777,3
92099048,92098488,0.97456175,0.023819013,-0.0013851603,-0.22284551,0.99999756,-0.00025172863,0.0017616232,0.0013075777,3
92152050,92151467,0.97336215,0.0659203,0.0016113078,-0.21958607,0.99999756,-0.00025172863,0.0017616232,0.0013075777,3
92199845,92199150,0.97477,0.018802205,0.013483298,-0.22200908,0.99999756,-0.00025172863,0.0017616232,0.0013075777,3
92252609,92252092,0.9741036,-0.03774971,0.014193104,-0.2224762,0.99999756,-0.00025172863,0.0017616232,0.0013075777,3
92300353,92299791,0.97507447,-0.0004193158,-0.0061981822,-0.22179094,0.99999756,-0.00025172863,0.0017616232,0.0013075777,3
92348092,92347483,0.974975,0.040800218,-0.017664373,-0.21782373,0.99999756,-0.00025172863,0.0017616232,0.0013075777,3
92401082,92400443,0.97474647,-0.007494647,-0.010449787,-0.2229439,0.99999756,-0.00025172863,0.0017616232,0.0013075777,3
92448593,92448082,0.9731601,-0.037240177,-0.012552529,-0.22674893,0.99999756,-0.00025172863,0.0017616232,0.0013075777,3
92501670,92501081,0.973317,0.027647132,-0.031010572,-0.22567233,0.99999756,-0.00025172863,0.0017616232,0.0013075777,3
92549354,92548781,0.971107,0.077584155,-0.04300819,-0.22154504,0.99999756,-0.00025172863,0.0017616232,0.0013075777,3
92602423,92601833,0.97383904,0.024115087,-0.030135585,-0.22393711,0.99999756,-0.00025172863,0.0017616232,0.0013075777,3
92649919,92649377,0.97243494,-0.04407186,-0.011348277,-0.22868991,0.99999756,-0.00025172863,0.0017616232,0.0013075777,3
92697576,92697054,0.9729634,-0.027033018,-0.0065757358,-0.22927766,0.99999756,-0.00025172863,0.0017616232,0.0013075777,3
92750723,92750072,0.97176576,0.04750069,-0.016051706,-0.23055872,0.99999756,-0.00025172863,0.0017616232,0.0013075777,3
92798325,92797745,0.9720316,0.041193336,-0.011007665,-0.23094733,0.99999756,-0.00025172863,0.0017616232,0.0013075777,3
92851206,92850675,0.97217137,-0.019404354,-0.00056164904,-0.2334655,0.99999756,-0.00025172863,0.0017616232,0.0013075777,3
92898946,92898391,0.9721776,0.0048784767,-0.008045474,-0.2340562,0.99999756,-0.00025172863,0.0017616232,0.0013075777,3
92951901,92951325,0.9709435,0.056414366,-0.023867575,-0.23133625,0.99999756,-0.00025172863,0.0017616232,0.0013075777,3
92999623,92999024,0.9718664,0.021291673,-0.017554533,-0.23391095,0.99999756,-0.00025172863,0.0017616232,0.0013075777,3
93052529,93051991,0.9697224,-0.03629406,-0.011961835,-0.24120142,0.99999756,-0.00025172863,0.0017616232,0.0013075777,3
93100133,93099615,0.9704639,0.0058627967,-0.02043155,-0.2403086,0.99999756,-0.00025172863,0.0017616232,0.0013075777,3
93153141,93152569,0.9687183,0.077675715,-0.028791552,-0.23392826,0.99999756,-0.00025172863,0.0017616232,0.0013075777,3
93200917,93200304,0.9705978,0.06515832,-0.00633152,-0.23163383,0.99999756,-0.00025172863,0.0017616232,0.0013075777,3
93248597,93248050,0.97281367,0.002596122,0.0033765293,-0.23155014,0.99999756,-0.00025172863,0.0017616232,0.0013075777,3
93301455,93300939,0.9722958,0.020001935,-0.018753199,-0.23214056,0.99999756,-0.00025172863,0.0017616232,0.0013075777,3
93349124,93348571,0.96968836,0.070698105,-0.042544544,-0.22999205,0.99999756,-0.00025172863,0.0017616232,0.0013075777,3
93402175,93401618,0.9714485,0.043817736,-0.03915003,-0.22985907,0.99999756,-0.00025172863,0.0017616232,0.0013075777,3
93450221,93449328,0.9709408,-0.029459804,-0.025242368,-0.23615429,0.99999756,-0.00025172863,0.0017616232,0.0013075777,3
93497449,93496913,0.97173494,-0.01864534,-0.02237201,-0.23427147,0.99999756,-0.00025172863,0.0017616232,0.0013075777,3
93550506,93549953,0.9730685,0.03358461,-0.017911918,-0.22735228,0.99999756,-0.00025172863,0.0017616232,0.0013075777,3
93598199,93597580,0.9732792,0.015588726,-0.003022509,-0.22907521,0.99999756,-0.00025172863,0.0017616232,0.0013075777,3
93651198,93650674,0.9721993,-0.007069819,-0.032601364,-0.23176648,0.99999756,-0.00025172863,0.0017616232,0.0013075777,3
93698701,93698181,0.9710153,0.033884816,-0.061984364,-0.22833987,0.99999756,-0.00025172863,0.0017616232,0.0013075777,3
93751669,93751146,0.9713783,0.021099783,-0.052161112,-0.2307775,0.99999756,-0.00025172863,0.0017616232,0.0013075777,3
93799723,93798837,0.97004503,-0.014259898,-0.02572097,-0.24113879,0.99999756,-0.00025172863,0.0017616232,0.0013075777,3
93852375,93851848,0.9702914,0.02243514,-0.021358412,-0.23994827,0.99999756,-0.00025172863,0.0017616232,0.0013075777,3
93900035,93899488,0.97122365,0.019588351,-0.02319686,-0.23622656,0.99999756,-0.00025172863,0.0017616232,0.0013075777,3
93947752,93947217,0.97065353,-0.029780317,-0.024227163,-0.23739825,0.99999756,-0.00025172863,0.0017616232,0.0013075777,3
94000730,94000154,0.9713751,0.009145909,-0.041413486,-0.2337342,0.99999756,-0.00025172863,0.0017616232,0.0013075777,3
94048432,94047830,0.97209454,0.06727468,-0.03606648,-0.22182328,0.99999756,-0.00025172863,0.0017616232,0.0013075777,3
94101349,94100836,0.97431666,0.05062109,0.0012215943,-0.2194156,0.99999756,-0.00025172863,0.0017616232,0.0013075777,3
94149006,94148487,0.9749325,-0.0008154576,0.01044534,-0.22225414,0.99999756,-0.00025172863,0.0017616232,0.0013075777,3
94202049,94201460,0.97392684,0.0298482,-0.0068089217,-0.22478715,0.99999756,-0.00025172863,0.0017616232,0.0013075777,3
94249706,94249121,0.9713885,0.070625566,-0.02151919,-0.22572865,0.99999756,-0.00025172863,0.0017616232,0.0013075777,3
94297408,94296864,0.9736634,0.02657932,-0.022495456,-0.22531588,0.99999756,-0.00025172863,0.0017616232,0.0013075777,3
94350282,94349734,0.97306865,-0.03423337,-0.027962811,-0.22623834,0.99999756,-0.00025172863,0.0017616232,0.0013075777,3
94397926,94397413,0.9731147,0.007438554,-0.04169426,-0.22639355,0.99999756,-0.00025172863,0.0017616232,0.0013075777,3
94451020,94450409,0.9719272,0.07816303,-0.034438115,-0.21923058,0.99999756,-0.00025172863,0.0017616232,0.0013075777,3
94498646,94498098,0.97402346,0.0616461,0.0051120273,-0.21783507,0.99999756,-0.00025172863,0.0017616232,0.0013075777,3
94551561,94551028,0.97468007,-0.023290716,0.03786599,-0.2191404,0.99999756,-0.00025172863,0.0017616232,0.0013075777,3
94599299,94598760,0.9742662,-0.027234046,0.041630875,-0.21984254,0.99999756,-0.00025172863,0.0017616232,0.0013075777,3
94652353,94651810,0.9724745,0.04960969,0.027557231,-0.22599317,0.99999756,-0.00025172863,0.0017616232,0.0013075777,3
94699880,94699343,0.9725156,0.05105097,0.026068315,-0.2256715,0.99999756,-0.00025172863,0.0017616232,0.0013075777,3
94752821,94752302,0.97454035,-0.02196443,0.02522644,-0.2217031,0.99999756,-0.00025172863,0.0017616232,0.0013075777,3
94800642,94800048,0.9753774,-0.013225964,0.006961723,-0.2200357,0.99999756,-0.00025172863,0.0017616232,0.0013075777,3
94848221,94847651,0.97338384,0.056560554,-0.011724871,-0.22178222,0.99999756,-0.00025172863,0.0017616232,0.0013075777,3
94901152,94900634,0.9734661,0.05466096,-0.0024765134,-0.22219303,0.99999756,-0.00025172863,0.0017616232,0.0013075777,3
94948903,94948355,0.9735949,0.002169183,0.017137112,-0.2276285,0.99999756,-0.00025172863,0.0017616232,0.0013075777,3
95001817,95001280,0.97313863,0.037826695,0.02394505,-0.22582543,0.99999756,-0.00025172863,0.0017616232,0.0013075777,3
95049585,95048954,0.9708394,0.08428159,0.037036285,-0.22135022,0.99999756,-0.00025172863,0.0017616232,0.0013075777,3
95102495,95101958,0.9733015,0.049877413,0.062013235,-0.21529284,0.99999756,-0.00025172863,0.0017616232,0.0013075777,3
95150178,95149661,0.97525615,0.009988452,0.034174208,-0.21819241,0.99999756,-0.00025172863,0.0017616232,0.0013075777,3
95197805,95197257,0.97395957,0.020162353,-0.028756244,-0.22398543,0.99999756,-0.00025172863,0.0017616232,0.0013075777,3
95250968,95250348,0.9716374,0.012970787,-0.051569827,-0.23041949,0.99999756,-0.00025172863,0.0017616232,0.0013075777,3
95298573,95298056,0.9716017,-0.01128153,-0.023255462,-0.23520625,0.99999756,-0.00025172863,0.0017616232,0.0013075777,3
95351513,95350929,0.97045636,0.032940764,-0.0056310208,-0.23895147,0.99999756,-0.00025172863,0.0017616232,0.0013075777,3
95399114,95398571,0.96970737,0.051847924,-0.0148494085,-0.23824155,0.99999756,-0.00025172863,0.0017616232,0.0013075777,3
95452152,95451583,0.9718743,-0.0064002723,-0.01897344,-0.23464726,0.99999756,-0.00025172863,0.0017616232,0.0013075777,3
95499852,95499310,0.9713644,-0.0045405696,-0.035866484,-0.23482822,0.99999756,-0.00025172863,0.0017616232,0.0013075777,3
95552750,95552218,0.96868,0.0597073,-0.04269651,-0.2372155,0.99999756,-0.00025172863,0.0017616232,0.0013075777,3
95600444,95599921,0.969842,0.057745952,-0.017935688,-0.23611477,0.99999756,-0.00025172863,0.0017616232,0.0013075777,3
95648157,95647559,0.9707937,0.010657973,0.01280747,-0.23933657,0.99999756,-0.00025172863,0.0017616232,0.0013075777,3
95701121,95700596,0.9694889,0.044861138,0.026288649,-0.23955722,0.99999756,-0.00025172863,0.0017616232,0.0013075777,3
95748706,95748180,0.965945,0.09363322,0.025836958,-0.23982382,0.99999756,-0.00025172863,0.0017616232,0.0013075777,3
95801747,95801159,0.96819717,0.053048138,0.044603076,-0.240397,0.99999756,-0.00025172863,0.0017616232,0.0013075777,3
95849725,95848881,0.96863467,0.0073296675,0.057775464,-0.24156816,0.99999756,-0.00025172863,0.0017616232,0.0013075777,3
95902312,95901795,0.9679972,0.052690968,0.044144504,-0.24136387,0.99999756,-0.00025172863,0.0017616232,0.0013075777,3
95950200,95949469,0.9664977,0.086836554,0.038749404,-0.2384118,0.99999756,-0.00025172863,0.0017616232,0.0013075777,3
95997709,95997194,0.9695613,0.039790116,0.04634197,-0.23710814,0.99999756,-0.00025172863,0.0017616232,0.0013075777,3
96050708,96050087,0.9717838,-0.024634724,0.01505642,-0.23409963,0.99999756,-0.00025172863,0.0017616232,0.0013075777,3
96098411,96097816,0.9709145,0.013051212,-0.033292934,-0.23674105,0.99999756,-0.00025172863,0.0017616232,0.0013075777,3
96151298,96150772,0.9667093,0.079381466,-0.07098793,-0.23266377,0.99999756,-0.00025172863,0.0017616232,0.0013075777,3
96198974,96198453,0.9691176,0.05548291,-0.06762565,-0.23056346,0.99999756,-0.00025172863,0.0017616232,0.0013075777,3
96252014,96251417,0.97006226,-0.021598313,-0.05488289,-0.23558594,0.99999756,-0.00025172863,0.0017616232,0.0013075777,3
96299649,96299049,0.9697637,0.0018269153,-0.05902301,-0.2367942,0.99999756,-0.00025172863,0.0017616232,0.0013075777,3
96352578,96352056,0.9688221,0.05725997,-0.056796826,-0.23426321,0.99999756,-0.00025172863,0.0017616232,0.0013075777,3
96400292,96399750,0.9702983,0.026101915,-0.028387897,-0.2388185,0.99999756,-0.00025172863,0.0017616232,0.0013075777,3
96447962,96447429,0.9686865,-0.02860408,0.002295745,-0.24662332,0.99999756,-0.00025172863,0.0017616232,0.0013075777,3
96500990,96500401,0.9684436,0.0125770895,0.013186458,-0.24856587,0.99999756,-0.00025172863,0.0017616232,0.0013075777,3
96548671,96548146,0.9674237,0.062903404,0.011976876,-0.24493097,0.99999756,-0.00025172863,0.0017616232,0.0013075777,3
96601505,96600986,0.9694582,0.011642536,0.027539263,-0.24342723,0.99999756,-0.00025172863,0.0017616232,0.0013075777,3
96649292,96648720,0.9694524,-0.033472326,0.021142354,-0.24206366,0.99999756,-0.00025172863,0.0017616232,0.0013075777,3
96702205,96701630,0.97014695,0.026941296,-0.0077712596,-0.24089158,0.99999756,-0.00025172863,0.0017616232,0.0013075777,3
96750393,96749342,0.96920353,0.07126185,-0.014614776,-0.23527184,0.99999756,-0.00025172863,0.0017616232,0.0013075777,3
96797587,96797044,0.97148585,0.020706663,-0.0036205137,-0.23616417,0.99999756,-0.00025172863,0.0017616232,0.0013075777,3
96850656,96850026,0.970611,-0.04764214,-0.014543855,-0.23544222,0.99999756,-0.00025172863,0.0017616232,0.0013075777,3
96898250,96897692,0.97061723,-0.012746378,-0.043704487,-0.23628318,0.99999756,-0.00025172863,0.0017616232,0.0013075777,3
96951231,96950656,0.96965307,0.021696303,-0.06490733,-0.23471081,0.99999756,-0.00025172863,0.0017616232,0.0013075777,3
96998839,96998320,0.96871513,-0.028354144,-0.05934708,-0.23930088,0.99999756,-0.00025172863,0.0017616232,0.0013075777,3
97051778,97051234,0.9687962,-0.033965565,-0.055269804,-0.23921882,0.99999756,-0.00025172863,0.0017616232,0.0013075777,3
97099605,97098958,0.9714298,0.018084442,-0.046448667,-0.2320338,0.99999756,-0.00025172863,0.0017616232,0.0013075777,3
97152452,97151933,0.97263485,0.011342245,-0.010406643,-0.23182872,0.99999756,-0.00025172863,0.0017616232,0.0013075777,3
97200094,97199580,0.97062665,-0.00039462253,-0.014659762,-0.2401433,0.99999756,-0.00025172863,0.0017616232,0.0013075777,3
97247840,97247297,0.9668729,0.011824664,-0.06278457,-0.2471342,0.99999756,-0.00025172863,0.0017616232,0.0013075777,3
97300823,97300265,0.9632999,-0.02099664,-0.08705762,-0.2530486,0.99999756,-0.00025172863,0.0017616232,0.0013075777,3
97348541,97347923,0.9644643,-0.02105722,-0.050726883,-0.25844178,0.99999756,-0.00025172863,0.0017616232,0.0013075777,3
97401443,97400908,0.9648591,0.04690838,-0.025262743,-0.25730988,0.99999756,-0.00025172863,0.0017616232,0.0013075777,3
97449095,97448571,0.9643112,0.06472671,-0.005092678,-0.25668788,0.99999756,-0.00025172863,0.0017616232,0.0013075777,3
97502099,97501521,0.9670546,-0.007521009,0.017415252,-0.2538613,0.99999756,-0.00025172863,0.0017616232,0.0013075777,3
97550051,97549161,0.9674138,-0.038333572,0.0036634651,-0.25025532,0.99999756,-0.00025172863,0.0017616232,0.0013075777,3
97597475,97596939,0.9682394,0.012420849,-0.022235462,-0.24872461,0.99999756,-0.00025172863,0.0017616232,0.0013075777,3
97650334,97649813,0.968489,0.05039293,-0.013728902,-0.24351855,0.99999756,-0.00025172863,0.0017616232,0.0013075777,3
97698170,97697569,0.9691791,0.014656412,0.007150145,-0.24581683,0.99999756,-0.00025172863,0.0017616232,0.0013075777,3
97751136,97750561,0.96840566,-0.0037979567,-0.011604906,-0.24908134,0.99999756,-0.00025172863,0.0017616232,0.0013075777,3
97798729,97798180,0.96530586,0.042117532,-0.049041122,-0.25299355,0.99999756,-0.00025172863,0.0017616232,0.0013075777,3
97851651,97851119,0.9638167,0.030386424,-0.066454925,-0.25635523,0.99999756,-0.00025172863,0.0017616232,0.0013075777,3
97899607,97898769,0.9632387,-0.017124416,-0.04775263,-0.26381364,0.99999756,-0.00025172863,0.0017616232,0.0013075777,3
97952389,97951831,0.96329594,0.02020476,-0.03348169,-0.26557827,0.99999756,-0.00025172863,0.0017616232,0.0013075777,3
97999982,97999436,0.9628313,0.060999338,-0.014779493,-0.26271012,0.99999756,-0.00025172863,0.0017616232,0.0013075777,3
98047671,98047153,0.9654797,0.025084656,0.011240184,-0.25902393,0.99999756,-0.00025172863,0.0017616232,0.0013075777,3
98100767,98100086,0.96610266,-0.003023787,-0.01160824,-0.25787932,0.99999756,-0.00025172863,0.0017616232,0.0013075777,3
98148354,98147796,0.962456,0.034706663,-0.043113813,-0.265735,0.99999756,-0.00025172863,0.0017616232,0.0013075777,3
98201291,98200766,0.961349,0.033835165,-0.041773498,-0.27003407,0.99999756,-0.00025172863,0.0017616232,0.0013075777,3
98248934,98248385,0.9602592,-0.021429261,-0.011962212,-0.278029,0.99999756,-0.00025172863,0.0017616232,0.0013075777,3
98301989,98301414,0.959736,-0.0017399997,0.015156388,-0.28048906,0.99999756,-0.00025172863,0.0017616232,0.0013075777,3
98349668,98349056,0.9571653,0.07387118,0.021839704,-0.27910712,0.99999756,-0.00025172863,0.0017616232,0.0013075777,3
98397396,98396857,0.9544439,0.10392587,0.052750304,-0.2746884,0.99999756,-0.00025172863,0.0017616232,0.0013075777,3
98450232,98449717,0.9576528,0.04759741,0.08820183,-0.26991898,0.99999756,-0.00025172863,0.0017616232,0.0013075777,3
98497926,98497405,0.961557,0.0036161013,0.06833751,-0.26594207,0.99999756,-0.00025172863,0.0017616232,0.0013075777,3
98551011,98550382,0.96159095,0.040364526,0.012510348,-0.2712139,0.99999756,-0.00025172863,0.0017616232,0.0013075777,3
98598577,98598058,0.9604907,0.043247428,-0.026428774,-0.27365834,0.99999756,-0.00025172863,0.0017616232,0.0013075777,3
98651536,98651013,0.9593759,-0.020268137,-0.025470935,-0.28024673,0.99999756,-0.00025172863,0.0017616232,0.0013075777,3
98699186,98698647,0.9598811,-0.0026969733,-0.012826282,-0.28010094,0.99999756,-0.00025172863,0.0017616232,0.0013075777,3
98752225,98751663,0.9609935,0.050846852,0.005484975,-0.2718013,0.99999756,-0.00025172863,0.0017616232,0.0013075777,3
98799847,98799331,0.96133345,0.035814103,0.040715408,-0.26999554,0.99999756,-0.00025172863,0.0017616232,0.0013075777,3
98852861,98852314,0.9628237,-0.010158213,0.032361444,-0.2679929,0.99999756,-0.00025172863,0.0017616232,0.0013075777,3
98900469,98899937,0.96184385,0.015559036,-0.019412668,-0.2724654,0.99999756,-0.00025172863,0.0017616232,0.0013075777,3
98948228,98947631,0.95795494,0.04325548,-0.06726632,-0.27554777,0.99999756,-0.00025172863,0.0017616232,0.0013075777,3
99001123,99000580,0.9558671,0.0007894006,-0.06507823,-0.2865001,0.99999756,-0.00025172863,0.0017616232,0.0013075777,3
99048819,99048302,0.95581883,0.0025265217,-0.026523547,-0.29274663,0.99999756,-0.00025172863,0.0017616232,0.0013075777,3
99101779,99101215,0.95418143,0.06632051,-0.012155374,-0.2915336,0.99999756,-0.00025172863,0.0017616232,0.0013075777,3
99149530,99148904,0.9549166,0.061772093,0.000719682,-0.29037574,0.99999756,-0.00025172863,0.0017616232,0.0013075777,3
99202460,99201939,0.9578889,-0.011867896,0.008499445,-0.2867678,0.99999756,-0.00025172863,0.0017616232,0.0013075777,3
99250116,99249571,0.95705086,-0.013602075,-0.021564241,-0.2887967,0.99999756,-0.00025172863,0.0017616232,0.0013075777,3
99297780,99297267,0.953531,0.033302322,-0.062432565,-0.29286793,0.99999756,-0.00025172863,0.0017616232,0.0013075777,3
99350802,99350186,0.95233715,0.010370169,-0.07420939,-0.29570168,0.99999756,-0.00025172863,0.0017616232,0.0013075777,3
99398526,99397896,0.9522836,-0.021894211,-0.044411413,-0.3011715,0.99999756,-0.00025172863,0.0017616232,0.0013075777,3
99451372,99450850,0.9523065,0.03594923,-0.02286933,-0.30215394,0.99999756,-0.00025172863,0.0017616232,0.0013075777,3
99499093,99498571,0.9500514,0.08158171,0.0005721391,-0.3012418,0.99999756,-0.00025172863,0.0017616232,0.0013075777,3
99552094,99551488,0.9535509,0.033785988,0.0455825,-0.29584044,0.99999756,-0.00025172863,0.0017616232,0.0013075777,3
99599825,99599318,0.95606005,-0.017021434,0.039601706,-0.2899848,0.99999756,-0.00025172863,0.0017616232,0.0013075777,3
99652696,99652179,0.9543316,0.021671942,-0.009721603,-0.297804,0.99999756,-0.00025172863,0.0017616232,0.0013075777,3
99700395,99699828,0.95011944,0.056687158,-0.052540872,-0.30215752,0.99999756,-0.00025172863,0.0017616232,0.0013075777,3
99748069,99747475,0.9492921,0.013669356,-0.05759606,-0.30877236,0.99999756,-0.00025172863,0.0017616232,0.0013075777,3
99801068,99800558,0.94885504,-0.009977701,-0.030181937,-0.31410766,0.99999756,-0.00025172863,0.0017616232,0.0013075777,3
99848722,99848132,0.9486178,0.045905434,-0.017243784,-0.3126012,0.99999756,-0.00025172863,0.0017616232,0.0013075777,3
99901665,99901148,0.94838184,0.06144002,0.018403728,-0.31057742,0.99999756,-0.00025172863,0.0017616232,0.0013075777,3
99949955,99948795,0.9502991,0.008030068,0.045385305,-0.3079081,0.99999756,-0.00025172863,0.0017616232,0.0013075777,3
100002365,100001828,0.9506084,0.011392739,0.025161317,-0.3091617,0.99999756,-0.00025172863,0.0017616232,0.0013075777,3
100050224,100049431,0.9485585,0.06369191,-0.016046511,-0.3097139,0.99999756,-0.00025172863,0.0017616232,0.0013075777,3
100097646,100097126,0.9487132,0.04947831,-0.027673677,-0.31101352,0.99999756,-0.00025172863,0.0017616232,0.0013075777,3
100150769,100150066,0.94807726,-0.004620852,-0.01669922,-0.31756768,0.99999756,-0.00025172863,0.0017616232,0.0013075777,3
100198404,100197834,0.9486667,0.024130857,-0.017303824,-0.31488085,0.99999756,-0.00025172863,0.0017616232,0.0013075777,3
100251302,100250712,0.9503361,0.04532533,0.011862431,-0.30767885,0.99999756,-0.00025172863,0.0017616232,0.0013075777,3
100298951,100298413,0.9504072,0.00037257024,0.050664496,-0.30685395,0.99999756,-0.00025172863,0.0017616232,0.0013075777,3
100351965,100351336,0.95093715,-0.027671998,0.049119875,-0.30420405,0.99999756,-0.00025172863,0.0017616232,0.0013075777,3
100399701,100399065,0.9501261,0.02796047,0.011578038,-0.3103945,0.99999756,-0.00025172863,0.0017616232,0.0013075777,3
100452600,100452018,0.9478648,0.053449694,-0.026930504,-0.3130022,0.99999756,-0.00025172863,0.0017616232,0.0013075777,3
100500172,100499656,0.94983363,-0.008645914,-0.031330653,-0.31106216,0.99999756,-0.00025172863,0.0017616232,0.0013075777,3
100547884,100547335,0.94904745,-0.034117717,-0.035104435,-0.31130797,0.99999756,-0.00025172863,0.0017616232,0.0013075777,3
100600945,100600383,0.9506789,0.02939018,-0.041175418,-0.30602372,0.99999756,-0.00025172863,0.0017616232,0.0013075777,3
100648628,100648100,0.95237035,0.06082537,-0.00023233934,-0.29881594,0.99999756,-0.00025172863,0.0017616232,0.0013075777,3
100701529,100700986,0.9524005,0.01769183,0.056779962,-0.2989923,0.99999756,-0.00025172863,0.0017616232,0.0013075777,3
100749169,100748657,0.9524882,-0.019759584,0.06939508,-0.29590568,0.99999756,-0.00025172863,0.0017616232,0.0013075777,3
100802215,100801654,0.95275134,0.036782514,0.03864387,-0.2990294,0.99999756,-0.00025172863,0.0017616232,0.0013075777,3
100849913,100849329,0.9519616,0.07610972,0.018552694,-0.29602772,0.99999756,-0.00025172863,0.0017616232,0.0013075777,3
100897569,100896999,0.9554276,0.027510196,0.01667136,-0.2934678,0.99999756,-0.00025172863,0.0017616232,0.0013075777,3
100950536,100949989,0.9560926,-0.007830872,-0.015614739,-0.29254353,0.99999756,-0.00025172863,0.0017616232,0.0013075777,3
100998233,100997623,0.95517194,0.03873338,-0.051812753,-0.28889748,0.99999756,-0.00025172863,0.0017616232,0.0013075777,3
101051202,101050707,0.9565993,0.047983766,-0.050468635,-0.2829636,0.99999756,-0.00025172863,0.0017616232,0.0013075777,3
101098752,101098239,0.9565645,-0.016889304,-0.022950703,-0.29012522,0.99999756,-0.00025172863,0.0017616232,0.0013075777,3
101151792,101151204,0.95515585,-0.034863316,0.0034570324,-0.29402387,0.99999756,-0.00025172863,0.0017616232,0.0013075777,3
101199522,101198925,0.95642567,0.03140972,-1.6489545e-05,-0.2902817,0.99999756,-0.00025172863,0.0017616232,0.0013075777,3
101252463,101251919,0.9568795,0.061159424,0.008349625,-0.28385141,0.99999756,-0.00025172863,0.0017616232,0.0013075777,3
101300120,101299576,0.9589157,0.00661568,0.019109733,-0.2829693,0.99999756,-0.00025172863,0.0017616232,0.0013075777,3
101347709,101347191,0.95885956,-0.009730467,-0.005265854,-0.28366518,0.99999756,-0.00025172863,0.0017616232,0.0013075777,3
101400773,101400183,0.95593864,0.037211284,-0.05005709,-0.2868639,0.99999756,-0.00025172863,0.0017616232,0.0013075777,3
101448549,101447920,0.9559133,0.01328461,-0.06526063,-0.2859973,0.99999756,-0.00025172863,0.0017616232,0.0013075777,3
101501363,101500847,0.9540875,-0.05775224,-0.06827923,-0.28586677,0.99999756,-0.00025172863,0.0017616232,0.0013075777,3
101549116,101548572,0.95433,-0.02873587,-0.08453211,-0.28510123,0.99999756,-0.00025172863,0.0017616232,0.0013075777,3
101602103,101601519,0.95535696,0.053623315,-0.08603995,-0.27751523,0.99999756,-0.00025172863,0.0017616232,0.0013075777,3
101649947,101649118,0.9594715,0.056249034,-0.044198472,-0.272575,0.99999756,-0.00025172863,0.0017616232,0.0013075777,3
101697402,101696858,0.9611121,-0.013083124,-0.0021621187,-0.27584022,0.99999756,-0.00025172863,0.0017616232,0.0013075777,3
101750369,101749822,0.9607588,-0.023650184,0.006434483,-0.27630013,0.99999756,-0.00025172863,0.0017616232,0.0013075777,3
101797995,101797453,0.96055526,0.022616152,-0.004287629,-0.27713493,0.99999756,-0.00025172863,0.0017616232,0.0013075777,3
101851200,101850584,0.9606794,-0.00954765,0.004949679,-0.2774517,0.99999756,-0.00025172863,0.0017616232,0.0013075777,3
101898636,101898098,0.9602027,-0.034271467,0.0007565168,-0.27719265,0.99999756,-0.00025172863,0.0017616232,0.0013075777,3
101951596,101951069,0.95999205,0.033930894,-0.017720638,-0.27739894,0.99999756,-0.00025172863,0.0017616232,0.0013075777,3
101999661,101998760,0.95954436,0.062497653,-0.009789031,-0.27435905,0.99999756,-0.00025172863,0.0017616232,0.0013075777,3
102052319,102051796,0.9596157,0.008429738,0.011157052,-0.28096673,0.99999756,-0.00025172863,0.0017616232,0.0013075777,3
102099930,102099409,0.958829,0.0051814825,0.0077247955,-0.28383172,0.99999756,-0.00025172863,0.0017616232,0.0013075777,3
102152921,102152376,0.9565873,0.055678938,-0.019865481,-0.2853874,0.99999756,-0.00025172863,0.0017616232,0.0013075777,3
102200607,102200038,0.95698124,0.030654043,-0.03255451,-0.28668362,0.99999756,-0.00025172863,0.0017616232,0.0013075777,3
102248278,102247715,0.954482,-0.046363283,-0.03434345,-0.29263496,0.99999756,-0.00025172863,0.0017616232,0.0013075777,3
102301260,102300719,0.9532084,-0.044124622,-0.04829124,-0.2951524,0.99999756,-0.00025172863,0.0017616232,0.0013075777,3
102348903,102348378,0.9524272,0.028213874,-0.06888557,-0.2955353,0.99999756,-0.00025172863,0.0017616232,0.0013075777,3
102401877,102401309,0.9526588,0.0505414,-0.05659779,-0.2944208,0.99999756,-0.00025172863,0.0017616232,0.0013075777,3
102449698,102449033,0.95249546,-0.0031227511,-0.009918606,-0.30437514,0.99999756,-0.00025172863,0.0017616232,0.0013075777,3
102501263,102496852,0.95123154,-0.0027993037,0.036047995,-0.30635166,0.99999756,-0.00025172863,0.0017616232,0.0013075777,3
102550239,102549712,0.9487827,0.07585029,0.054137144,-0.30187327,0.99999756,-0.00025172863,0.0017616232,0.0013075777,3
102597928,102597383,0.94591093,0.1027612,0.08359077,-0.29615086,0.99999756,-0.00025172863,0.0017616232,0.0013075777,3
102650911,102650307,0.9513928,0.0415139,0.10228505,-0.28751728,0.99999756,-0.00025172863,0.0017616232,0.0013075777,3
102698581,102698059,0.9554832,-0.007401297,0.049197115,-0.2908209,0.99999756,-0.00025172863,0.0017616232,0.0013075777,3
102751519,102750970,0.95430213,-0.0010721721,-0.041123543,-0.29599854,0.99999756,-0.00025172863,0.0017616232,0.0013075777,3
102799127,102798614,0.9498978,-0.013643,-0.07277391,-0.30366433,0.99999756,-0.00025172863,0.0017616232,0.0013075777,3
102852155,102851562,0.94996595,-0.026781889,-0.043919243,-0.30808866,0.99999756,-0.00025172863,0.0017616232,0.0013075777,3
102899907,102899333,0.9505355,0.02203198,-0.02563857,-0.30877128,0.99999756,-0.00025172863,0.0017616232,0.0013075777,3
102952738,102952215,0.94976354,0.046442434,-0.0070983698,-0.30942214,0.99999756,-0.00025172863,0.0017616232,0.0013075777,3
103000492,102999923,0.9501375,-0.007365953,0.012935623,-0.31147587,0.99999756,-0.00025172863,0.0017616232,0.0013075777,3
103048160,103047568,0.94989467,-0.03235874,0.003926873,-0.31086612,0.99999756,-0.00025172863,0.0017616232,0.0013075777,3
103101101,103100579,0.9496115,0.022521386,-0.030532379,-0.31112474,0.99999756,-0.00025172863,0.0017616232,0.0013075777,3
103148834,103148286,0.94959915,0.040802244,-0.03935783,-0.3082979,0.99999756,-0.00025172863,0.0017616232,0.0013075777,3
103201744,103201216,0.94909185,-0.023009134,-0.02846599,-0.3128656,0.99999756,-0.00025172863,0.0017616232,0.0013075777,3
103249597,103248939,0.9478948,-0.046923358,-0.042676896,-0.31220573,0.99999756,-0.00025172863,0.0017616232,0.0013075777,3
103302376,103301832,0.9494778,0.017686578,-0.064045,-0.30672058,0.99999756,-0.00025172863,0.0017616232,0.0013075777,3
103350430,103349519,0.95169514,0.055061035,-0.039334897,-0.29949534,0.99999756,-0.00025172863,0.0017616232,0.0013075777,3
103397682,103397164,0.95238733,0.0242143,0.0027311961,-0.30391544,0.99999756,-0.00025172863,0.0017616232,0.0013075777,3
103450825,103450149,0.95083797,-0.028170593,0.015797662,-0.30800018,0.99999756,-0.00025172863,0.0017616232,0.0013075777,3
103498425,103497864,0.9495815,0.0055128457,-0.013589407,-0.31317744,0.99999756,-0.00025172863,0.0017616232,0.0013075777,3
103551325,103550804,0.94616866,0.0400277,-0.055357706,-0.31638288,0.99999756,-0.00025172863,0.0017616232,0.0013075777,3
103599066,103598493,0.94381326,-0.012804249,-0.062189538,-0.32432267,0.99999756,-0.00025172863,0.0017616232,0.0013075777,3
103652046,103651467,0.9407581,-0.04186201,-0.040133156,-0.33408266,0.99999756,-0.00025172863,0.0017616232,0.0013075777,3
103699747,103699179,0.9417474,0.0133970985,-0.035733446,-0.33414897,0.99999756,-0.00025172863,0.0017616232,0.0013075777,3
103752668,103752125,0.9423326,0.038825966,-0.020835247,-0.33176458,0.99999756,-0.00025172863,0.0017616232,0.0013075777,3
103800286,103799764,0.9438374,-0.011290515,-0.005262021,-0.33017534,0.99999756,-0.00025172863,0.0017616232,0.0013075777,3
103848103,103847536,0.9435961,-0.01764938,-0.032308377,-0.32904574,0.99999756,-0.00025172863,0.0017616232,0.0013075777,3
103901007,103900418,0.94202393,0.030540239,-0.060652163,-0.3286024,0.99999756,-0.00025172863,0.0017616232,0.0013075777,3
103948659,103948119,0.9423297,0.0051446743,-0.04395772,-0.3317469,0.99999756,-0.00025172863,0.0017616232,0.0013075777,3
104001555,104001036,0.9393831,-0.047906015,-0.016377125,-0.3391108,0.99999756,-0.00025172863,0.0017616232,0.0013075777,3
104049636,104048790,0.9406749,-0.0064620217,-0.016424745,-0.3388499,0.99999756,-0.00025172863,0.0017616232,0.0013075777,3
104102348,104101830,0.93940264,0.074131794,-0.03365782,-0.33300823,0.99999756,-0.00025172863,0.0017616232,0.0013075777,3
104150120,104149374,0.94082934,0.07259407,-0.014352189,-0.33070284,0.99999756,-0.00025172863,0.0017616232,0.0013075777,3
104197596,104197054,0.9443171,0.002199262,0.011261682,-0.32883656,0.99999756,-0.00025172863,0.0017616232,0.0013075777,3
104250593,104250008,0.94491994,-0.012359206,0.003917951,-0.32704464,0.99999756,-0.00025172863,0.0017616232,0.0013075777,3
104298312,104297712,0.94432145,0.04135555,-0.022629373,-0.3256296,0.99999756,-0.00025172863,0.0017616232,0.0013075777,3
104351210,104350667,0.94536847,0.036757965,-0.020920655,-0.32324868,0.99999756,-0.00025172863,0.0017616232,0.0013075777,3
104398905,104398386,0.94541335,-0.011186154,-0.016937999,-0.32524082,0.99999756,-0.00025172863,0.0017616232,0.0013075777,3
104451899,104451294,0.94498086,0.022484653,-0.04065486,-0.32381004,0.99999756,-0.00025172863,0.0017616232,0.0013075777,3
104499592,104498971,0.94547266,0.05650923,-0.03958218,-0.31831035,0.99999756,-0.00025172863,0.0017616232,0.0013075777,3
104552467,104551949,0.9465205,0.011593644,-0.0054153493,-0.3223899,0.99999756,-0.00025172863,0.0017616232,0.0013075777,3
104600200,104599657,0.94520545,-0.0127405925,0.007488725,-0.32614166,0.99999756,-0.00025172863,0.0017616232,0.0013075777,3
104647915,104647334,0.9436728,0.03723316,-0.011656879,-0.32857192,0.99999756,-0.00025172863,0.0017616232,0.0013075777,3
104700846,104700284,0.94239736,0.056367796,-0.025533214,-0.3287219,0.99999756,-0.00025172863,0.0017616232,0.0013075777,3
104748612,104748061,0.94381386,-0.003967761,-0.018060636,-0.32995972,0.99999756,-0.00025172863,0.0017616232,0.0013075777,3
104801451,104800932,0.9436705,-0.004922095,-0.03111835,-0.3293833,0.99999756,-0.00025172863,0.0017616232,0.0013075777,3
104849155,104848636,0.9432713,0.043223463,-0.040684436,-0.32667387,0.99999756,-0.00025172863,0.0017616232,0.0013075777,3
104902168,104901573,0.9442928,0.023433255,-0.008865744,-0.3281518,0.99999756,-0.00025172863,0.0017616232,0.0013075777,3
104949894,104949341,0.942249,-0.009659188,0.009575944,-0.3346368,0.99999756,-0.00025172863,0.0017616232,0.0013075777,3
104997427,104996910,0.94172895,0.019535732,-0.011644317,-0.33560318,0.99999756,-0.00025172863,0.0017616232,0.0013075777,3
105050436,105049895,0.9425289,-0.0002578435,-0.028182115,-0.33293384,0.99999756,-0.00025172863,0.0017616232,0.0013075777,3
105098165,105097602,0.94115674,-0.04616987,-0.042669445,-0.33207184,0.99999756,-0.00025172863,0.0017616232,0.0013075777,3
105151175,105150653,0.9402052,-0.004598795,-0.07700143,-0.33175868,0.99999756,-0.00025172863,0.0017616232,0.0013075777,3
105198772,105198223,0.9405544,0.03664914,-0.08230819,-0.32747483,0.99999756,-0.00025172863,0.0017616232,0.0013075777,3
105251752,105251213,0.94158214,-0.0027812643,-0.0406082,-0.33431488,0.99999756,-0.00025172863,0.0017616232,0.0013075777,3
105299710,105298848,0.93978345,-0.023369161,0.005743729,-0.34092224,0.99999756,-0.00025172863,0.0017616232,0.0013075777,3
105352369,105351823,0.9396726,0.040667053,0.021682093,-0.3389567,0.99999756,-0.00025172863,0.0017616232,0.0013075777,3
105400028,105399502,0.93783265,0.078883484,0.040630203,-0.3355541,0.99999756,-0.00025172863,0.0017616232,0.0013075777,3
